[{"id":"p-aeabu","code":"AEABU","name":"Abu al Bukhoosh","country":"AE 阿联酋","city":"Abu al Bukhoosh","lat":25.4833,"lng":53.1333},{"id":"p-aeauh","code":"AEAUH","name":"Abu Dhabi","country":"AE 阿联酋","city":"Abu Dhabi","lat":24.4667,"lng":54.3667},{"id":"p-aeamu","code":"AEAMU","name":"Abu Musa","country":"AE 阿联酋","city":"Abu Musa","lat":25.8667,"lng":55.0167},{"id":"p-aearp","code":"AEARP","name":"Ahmed Bin Rashid Port","country":"AE 阿联酋","city":"Ahmed Bin Rashid Port","lat":25.5333,"lng":55.55},{"id":"p-aefjr","code":"AEFJR","name":"Al Fujayrah","country":"AE 阿联酋","city":"Al Fujayrah","lat":25.1167,"lng":56.3333},{"id":"p-aejaz","code":"AEJAZ","name":"Al Jazeera Port","country":"AE 阿联酋","city":"Al Jazeera Port","lat":25.7167,"lng":55.8},{"id":"p-aeajp","code":"AEAJP","name":"Al Jeer Port","country":"AE 阿联酋","city":"Al Jeer Port","lat":26.0333,"lng":56.05},{"id":"p-aeruw","code":"AERUW","name":"Ar Ruways","country":"AE 阿联酋","city":"Ar Ruways","lat":24.1167,"lng":52.7333},{"id":"p-aedbp","code":"AEDBP","name":"Dibba","country":"AE 阿联酋","city":"Dibba","lat":25.6167,"lng":56.2667},{"id":"p-aedxb","code":"AEDXB","name":"Dubai","country":"AE 阿联酋","city":"Dubai","lat":25.25,"lng":55.2667},{"id":"p-aeend","code":"AEEND","name":"Esnnad","country":"AE 阿联酋","city":"Esnnad","lat":24.3167,"lng":54.45},{"id":"p-aefrp","code":"AEFRP","name":"Free Port","country":"AE 阿联酋","city":"Free Port","lat":25.25,"lng":55.25},{"id":"p-aehzp","code":"AEHZP","name":"Hamriya Free Zone Port","country":"AE 阿联酋","city":"Hamriya Free Zone Port","lat":25.3,"lng":55.3167},{"id":"p-aehsn","code":"AEHSN","name":"Hassyan","country":"AE 阿联酋","city":"Hassyan","lat":24.9,"lng":54.9},{"id":"p-aehtl","code":"AEHTL","name":"Hulaylah Terminal","country":"AE 阿联酋","city":"Hulaylah Terminal","lat":25.9833,"lng":55.9333},{"id":"p-aeqwe","code":"AEQWE","name":"Jebel Ali Free Zone","country":"AE 阿联酋","city":"Jebel Ali Free Zone","lat":25,"lng":55.05},{"id":"p-aeklb","code":"AEKLB","name":"Kalba","country":"AE 阿联酋","city":"Kalba","lat":25.0667,"lng":56.35},{"id":"p-aeklf","code":"AEKLF","name":"Khor al Fakkan","country":"AE 阿联酋","city":"Khor al Fakkan","lat":25.3333,"lng":56.35},{"id":"p-aemkh","code":"AEMKH","name":"Mina Khalid","country":"AE 阿联酋","city":"Mina Khalid","lat":25.35,"lng":55.3667},{"id":"p-aekhl","code":"AEKHL","name":"Mina Khalifa/Abu Dhabi","country":"AE 阿联酋","city":"Mina Khalifa/Abu Dhabi","lat":24.8333,"lng":54.6667},{"id":"p-aemrp","code":"AEMRP","name":"Mina Rashid Port","country":"AE 阿联酋","city":"Mina Rashid Port","lat":25.2667,"lng":55.2833},{"id":"p-aemsa","code":"AEMSA","name":"Mina Saqr","country":"AE 阿联酋","city":"Mina Saqr","lat":25.9667,"lng":56.0667},{"id":"p-aemzd","code":"AEMZD","name":"Mina Zayed/Abu Dhabi","country":"AE 阿联酋","city":"Mina Zayed/Abu Dhabi","lat":24.5167,"lng":54.3667},{"id":"p-aerfa","code":"AERFA","name":"Mirfa","country":"AE 阿联酋","city":"Mirfa","lat":25.4667,"lng":53.4833},{"id":"p-aembs","code":"AEMBS","name":"Mubarras Island","country":"AE 阿联酋","city":"Mubarras Island","lat":24.5833,"lng":53.3167},{"id":"p-aeamf","code":"AEAMF","name":"Musaffah","country":"AE 阿联酋","city":"Musaffah","lat":24.3833,"lng":54.4833},{"id":"p-aerkp","code":"AERKP","name":"Rak Khor Port","country":"AE 阿联酋","city":"Rak Khor Port","lat":25.8167,"lng":55.95},{"id":"p-aermc","code":"AERMC","name":"Rak Maritime City","country":"AE 阿联酋","city":"Rak Maritime City","lat":25.95,"lng":56.05},{"id":"p-aerkt","code":"AERKT","name":"Ras al Khaimah","country":"AE 阿联酋","city":"Ras al Khaimah","lat":25.7833,"lng":55.95},{"id":"p-aerwp","code":"AERWP","name":"Ruwais Port","country":"AE 阿联酋","city":"Ruwais Port","lat":24.1,"lng":52.7167},{"id":"p-aesid","code":"AESID","name":"Sadiyat Island","country":"AE 阿联酋","city":"Sadiyat Island","lat":24.5333,"lng":54.4},{"id":"p-aeshj","code":"AESHJ","name":"Sharjah","country":"AE 阿联酋","city":"Sharjah","lat":25.35,"lng":55.3833},{"id":"p-aeulr","code":"AEULR","name":"Umm Al Nar","country":"AE 阿联酋","city":"Umm Al Nar","lat":24.4333,"lng":54.5},{"id":"p-aeqiw","code":"AEQIW","name":"Umm al Quwain","country":"AE 阿联酋","city":"Umm al Quwain","lat":25.5833,"lng":55.5833},{"id":"p-aeyas","code":"AEYAS","name":"Yas Island","country":"AE 阿联酋","city":"Yas Island","lat":24.3167,"lng":52.6},{"id":"p-aezur","code":"AEZUR","name":"Zirku Island","country":"AE 阿联酋","city":"Zirku Island","lat":24.8833,"lng":53.0667},{"id":"p-afdhd","code":"AFDHD","name":"Dehdadi","country":"AF","city":"Dehdadi","lat":36.65,"lng":66.9833},{"id":"p-afqlt","code":"AFQLT","name":"Qalat","country":"AF","city":"Qalat","lat":32.1,"lng":66.8833},{"id":"p-afrkh","code":"AFRKH","name":"Torkham","country":"AF","city":"Torkham","lat":34.8833,"lng":71.9167},{"id":"p-agfam","code":"AGFAM","name":"Falmouth","country":"AG","city":"Falmouth","lat":17.0167,"lng":-61.7833},{"id":"p-agphm","code":"AGPHM","name":"Parham","country":"AG","city":"Parham","lat":17.0833,"lng":-61.75},{"id":"p-agsjo","code":"AGSJO","name":"Saint John's","country":"AG","city":"Saint John's","lat":17.1167,"lng":-61.85},{"id":"p-aimbb","code":"AIMBB","name":"Meads Bay Beach","country":"AI","city":"Meads Bay Beach","lat":18.1667,"lng":-63.1333},{"id":"p-aisom","code":"AISOM","name":"Sombrero","country":"AI","city":"Sombrero","lat":18.6,"lng":-63.4667},{"id":"p-albut","code":"ALBUT","name":"Butrint","country":"AL","city":"Butrint","lat":39.75,"lng":20.0167},{"id":"p-alhmr","code":"ALHMR","name":"Himare","country":"AL","city":"Himare","lat":40.1333,"lng":19.7167},{"id":"p-alrom","code":"ALROM","name":"Romano Port","country":"AL","city":"Romano Port","lat":41.3667,"lng":19.4167},{"id":"p-alsar","code":"ALSAR","name":"Sarandë","country":"AL","city":"Sarandë","lat":39.8833,"lng":20},{"id":"p-alshg","code":"ALSHG","name":"Shëngjin","country":"AL","city":"Shëngjin","lat":41.8,"lng":19.5667},{"id":"p-alvoa","code":"ALVOA","name":"Vlorë","country":"AL","city":"Vlorë","lat":40.4667,"lng":19.4833},{"id":"p-aobab","code":"AOBAB","name":"Baba","country":"AO","city":"Baba","lat":-14.8333,"lng":12.2333},{"id":"p-aobdt","code":"AOBDT","name":"Baía dos Tigres","country":"AO","city":"Baía dos Tigres","lat":-16.6,"lng":11.7333},{"id":"p-aocpo","code":"AOCPO","name":"Capulo","country":"AO","city":"Capulo","lat":-7.9833,"lng":13.1667},{"id":"p-aocui","code":"AOCUI","name":"Cuio","country":"AO","city":"Cuio","lat":-12.9833,"lng":12.9833},{"id":"p-aodal","code":"AODAL","name":"Dalia","country":"AO","city":"Dalia","lat":-7.6833,"lng":11.7833},{"id":"p-aoetn","code":"AOETN","name":"Essungo Terminal","country":"AO","city":"Essungo Terminal","lat":-6.3333,"lng":12.1667},{"id":"p-aofby","code":"AOFBY","name":"Farta Bay","country":"AO","city":"Farta Bay","lat":-12.6167,"lng":13.2},{"id":"p-aoflt","code":"AOFLT","name":"Futila Terminal","country":"AO","city":"Futila Terminal","lat":-5.45,"lng":12.1833},{"id":"p-aogim","code":"AOGIM","name":"Gimboa","country":"AO","city":"Gimboa","lat":-7.5333,"lng":12.1667},{"id":"p-aogir","code":"AOGIR","name":"Girassol Terminal","country":"AO","city":"Girassol Terminal","lat":-7.6333,"lng":11.6833},{"id":"p-aogpo","code":"AOGPO","name":"Greater Plutonio","country":"AO","city":"Greater Plutonio","lat":-7.8333,"lng":12.1167},{"id":"p-aokot","code":"AOKOT","name":"Kuito Terminal","country":"AO","city":"Kuito Terminal","lat":-5.4333,"lng":11.4833},{"id":"p-aolbt","code":"AOLBT","name":"Lombo Terminal","country":"AO","city":"Lombo Terminal","lat":-6.9833,"lng":12.35},{"id":"p-aonqi","code":"AONQI","name":"Nóqui","country":"AO","city":"Nóqui","lat":-5.85,"lng":13.4333},{"id":"p-aonto","code":"AONTO","name":"N'Zeto (Ambrizete)","country":"AO","city":"N'Zeto (Ambrizete)","lat":-7.2667,"lng":12.85},{"id":"p-aopsa","code":"AOPSA","name":"Porto Saco (Portosalazar)","country":"AO","city":"Porto Saco (Portosalazar)","lat":-15.1333,"lng":12.1333},{"id":"p-aorsn","code":"AORSN","name":"River Sao Nicolau","country":"AO","city":"River Sao Nicolau","lat":-14.25,"lng":12.3333},{"id":"p-aostl","code":"AOSTL","name":"Sazaire Terminal","country":"AO","city":"Sazaire Terminal","lat":-6.0833,"lng":12.3833},{"id":"p-aqaba","code":"AQABA","name":"Aboa","country":"AQ","city":"Aboa","lat":-73.05,"lng":-13.4167},{"id":"p-aqarc","code":"AQARC","name":"Arctowski","country":"AQ","city":"Arctowski","lat":-62.15,"lng":-58.4667},{"id":"p-aqart","code":"AQART","name":"Artigas","country":"AQ","city":"Artigas","lat":-62.1833,"lng":-58.9},{"id":"p-aqapt","code":"AQAPT","name":"Arturo Prat","country":"AQ","city":"Arturo Prat","lat":-62.5,"lng":-59.6833},{"id":"p-aqbhn","code":"AQBHN","name":"Bellingshausen","country":"AQ","city":"Bellingshausen","lat":-62.1833,"lng":-58.95},{"id":"p-aqcas","code":"AQCAS","name":"Casey Station","country":"AQ","city":"Casey Station","lat":-66.2833,"lng":110.5167},{"id":"p-aqcfz","code":"AQCFZ","name":"Comandante Ferraz","country":"AQ","city":"Comandante Ferraz","lat":-62.0833,"lng":-58.3833},{"id":"p-aqdav","code":"AQDAV","name":"Davis Station","country":"AQ","city":"Davis Station","lat":-68.5667,"lng":77.9667},{"id":"p-aqddu","code":"AQDDU","name":"Dumont d'Urville Station","country":"AQ","city":"Dumont d'Urville Station","lat":-66.65,"lng":140},{"id":"p-aqesc","code":"AQESC","name":"Escudero","country":"AQ","city":"Escudero","lat":-62.2,"lng":-58.95},{"id":"p-aqesp","code":"AQESP","name":"Esperanza","country":"AQ","city":"Esperanza","lat":-63.3833,"lng":-56.9833},{"id":"p-aqohg","code":"AQOHG","name":"General Bernardo O'higgins","country":"AQ","city":"General Bernardo O'higgins","lat":-63.3167,"lng":-57.9},{"id":"p-aqgwl","code":"AQGWL","name":"Great Wall","country":"AQ","city":"Great Wall","lat":-62.2167,"lng":-58.9667},{"id":"p-aqhly","code":"AQHLY","name":"Halley","country":"AQ","city":"Halley","lat":-75.5667,"lng":-26.5333},{"id":"p-aqjbs","code":"AQJBS","name":"Jang Bogo Station","country":"AQ","city":"Jang Bogo Station","lat":-74.6,"lng":164.2},{"id":"p-aqjcp","code":"AQJCP","name":"Juan Carlos Primero","country":"AQ","city":"Juan Carlos Primero","lat":-62.65,"lng":-60.3833},{"id":"p-aqjub","code":"AQJUB","name":"Jubany","country":"AQ","city":"Jubany","lat":-62.2333,"lng":-58.65},{"id":"p-aqksg","code":"AQKSG","name":"King Sejong","country":"AQ","city":"King Sejong","lat":-62.2167,"lng":-58.7833},{"id":"p-aqkhn","code":"AQKHN","name":"Kohnen","country":"AQ","city":"Kohnen","lat":-75,"lng":0.0667},{"id":"p-aqlaw","code":"AQLAW","name":"Law Base","country":"AQ","city":"Law Base","lat":-69.3833,"lng":76.3833},{"id":"p-aqmrb","code":"AQMRB","name":"Marambio","country":"AQ","city":"Marambio","lat":-64.2333,"lng":-56.65},{"id":"p-aqmzu","code":"AQMZU","name":"Mario Zucchelli","country":"AQ","city":"Mario Zucchelli","lat":-74.6833,"lng":164.1167},{"id":"p-aqmaw","code":"AQMAW","name":"Mawson Station","country":"AQ","city":"Mawson Station","lat":-67.6,"lng":62.8667},{"id":"p-aqmcm","code":"AQMCM","name":"McMurdo","country":"AQ","city":"McMurdo","lat":-77.8333,"lng":166.6667},{"id":"p-aqmir","code":"AQMIR","name":"Mirny","country":"AQ","city":"Mirny","lat":-66.55,"lng":93},{"id":"p-aqorc","code":"AQORC","name":"Orcadas","country":"AQ","city":"Orcadas","lat":-60.7333,"lng":-44.7333},{"id":"p-aqplm","code":"AQPLM","name":"Palmer","country":"AQ","city":"Palmer","lat":-64.7667,"lng":-64.05},{"id":"p-aqpfs","code":"AQPFS","name":"Port Foster","country":"AQ","city":"Port Foster","lat":-63,"lng":-60.5667},{"id":"p-aqpro","code":"AQPRO","name":"Progress","country":"AQ","city":"Progress","lat":-69.4,"lng":76.3833},{"id":"p-aqrot","code":"AQROT","name":"Rothera","country":"AQ","city":"Rothera","lat":-67.5667,"lng":-68.1167},{"id":"p-aqsmt","code":"AQSMT","name":"San Martín","country":"AQ","city":"San Martín","lat":-68.1167,"lng":-67.1},{"id":"p-aqsgn","code":"AQSGN","name":"Signy","country":"AQ","city":"Signy","lat":-60.7167,"lng":-45.6},{"id":"p-aqsyw","code":"AQSYW","name":"Syowa","country":"AQ","city":"Syowa","lat":-69,"lng":39.5833},{"id":"p-aqvky","code":"AQVKY","name":"Vernadsky","country":"AQ","city":"Vernadsky","lat":-65.2333,"lng":-64.25},{"id":"p-aqwsa","code":"AQWSA","name":"Wasa","country":"AQ","city":"Wasa","lat":-73.05,"lng":-13.4167},{"id":"p-aqzgn","code":"AQZGN","name":"Zhongshan","country":"AQ","city":"Zhongshan","lat":-69.3667,"lng":76.3833},{"id":"p-argeo","code":"ARGEO","name":"Agrelo","country":"AR 阿根廷","city":"Agrelo","lat":-33.1167,"lng":-68.8833},{"id":"p-aracf","code":"ARACF","name":"Arrecifes","country":"AR 阿根廷","city":"Arrecifes","lat":-34.0833,"lng":-60.1167},{"id":"p-araso","code":"ARASO","name":"Arroyo Seco","country":"AR 阿根廷","city":"Arroyo Seco","lat":-33.1333,"lng":-60.4333},{"id":"p-arbhi","code":"ARBHI","name":"Bahía Blanca","country":"AR 阿根廷","city":"Bahía Blanca","lat":-38.7167,"lng":-62.2833},{"id":"p-arbvc","code":"ARBVC","name":"Bella Vista","country":"AR 阿根廷","city":"Bella Vista","lat":-28.5,"lng":-59.05},{"id":"p-arbue","code":"ARBUE","name":"Buenos Aires","country":"AR 阿根廷","city":"Buenos Aires","lat":-34.5833,"lng":-58.6667},{"id":"p-arcsa","code":"ARCSA","name":"Cabo San Antonio","country":"AR 阿根廷","city":"Cabo San Antonio","lat":-36.0333,"lng":-56.5667},{"id":"p-arclc","code":"ARCLC","name":"Caleta Córdoba","country":"AR 阿根廷","city":"Caleta Córdoba","lat":-45.7333,"lng":-67.0667},{"id":"p-arcmp","code":"ARCMP","name":"Campana","country":"AR 阿根廷","city":"Campana","lat":-34.15,"lng":-58.95},{"id":"p-arcdl","code":"ARCDL","name":"Candelaria","country":"AR 阿根廷","city":"Candelaria","lat":-27.45,"lng":-55.75},{"id":"p-archo","code":"ARCHO","name":"Chilecito","country":"AR 阿根廷","city":"Chilecito","lat":-29.1667,"lng":-67.5},{"id":"p-arcbs","code":"ARCBS","name":"Chimbas","country":"AR 阿根廷","city":"Chimbas","lat":-31.4833,"lng":-68.5333},{"id":"p-arcol","code":"ARCOL","name":"Colón","country":"AR 阿根廷","city":"Colón","lat":-32.2167,"lng":-58.1333},{"id":"p-arcou","code":"ARCOU","name":"Concepción del Uruguay","country":"AR 阿根廷","city":"Concepción del Uruguay","lat":-32.4833,"lng":-58.2333},{"id":"p-ariqo","code":"ARIQO","name":"Coquimbito","country":"AR 阿根廷","city":"Coquimbito","lat":-32.9667,"lng":-68.75},{"id":"p-ardgu","code":"ARDGU","name":"Del Guazu","country":"AR 阿根廷","city":"Del Guazu","lat":-33.9,"lng":-58.8667},{"id":"p-ardme","code":"ARDME","name":"Diamante","country":"AR 阿根廷","city":"Diamante","lat":-32.0667,"lng":-60.65},{"id":"p-ardsu","code":"ARDSU","name":"Dock Sur","country":"AR 阿根廷","city":"Dock Sur","lat":-34.65,"lng":-58.3333},{"id":"p-arghu","code":"ARGHU","name":"Gualeguaychú","country":"AR 阿根廷","city":"Gualeguaychú","lat":-33.0167,"lng":-58.5167},{"id":"p-ariby","code":"ARIBY","name":"Ibicuy","country":"AR 阿根廷","city":"Ibicuy","lat":-33.7333,"lng":-59.1667},{"id":"p-arbui","code":"ARBUI","name":"Ingeniero Buitrago","country":"AR 阿根廷","city":"Ingeniero Buitrago","lat":-33.35,"lng":-60.1333},{"id":"p-arinw","code":"ARINW","name":"Ingeniero White/Bahia Blanca","country":"AR 阿根廷","city":"Ingeniero White/Bahia Blanca","lat":-38.7833,"lng":-62.2667},{"id":"p-arlpm","code":"ARLPM","name":"La Paz","country":"AR 阿根廷","city":"La Paz","lat":-33.4667,"lng":-67.55},{"id":"p-arlpg","code":"ARLPG","name":"La Plata","country":"AR 阿根廷","city":"La Plata","lat":-34.85,"lng":-57.8833},{"id":"p-arlps","code":"ARLPS","name":"Las Palmas","country":"AR 阿根廷","city":"Las Palmas","lat":-34.0167,"lng":-59.1167},{"id":"p-arlav","code":"ARLAV","name":"Lavalle","country":"AR 阿根廷","city":"Lavalle","lat":-28.2,"lng":-65.1333},{"id":"p-arluj","code":"ARLUJ","name":"Luján","country":"AR 阿根廷","city":"Luján","lat":-34.5667,"lng":-59.1},{"id":"p-arlcu","code":"ARLCU","name":"Lujan de Cuyo","country":"AR 阿根廷","city":"Lujan de Cuyo","lat":-33.05,"lng":-68.8667},{"id":"p-arlzg","code":"ARLZG","name":"Luzuriaga","country":"AR 阿根廷","city":"Luzuriaga","lat":-32.95,"lng":-68.8167},{"id":"p-armdq","code":"ARMDQ","name":"Mar del Plata","country":"AR 阿根廷","city":"Mar del Plata","lat":-38.05,"lng":-57.5333},{"id":"p-arnos","code":"ARNOS","name":"Molinos","country":"AR 阿根廷","city":"Molinos","lat":-25.4167,"lng":-66.3167},{"id":"p-arovi","code":"AROVI","name":"Olavarría","country":"AR 阿根廷","city":"Olavarría","lat":-36.8833,"lng":-60.3333},{"id":"p-arpp9","code":"ARPP9","name":"Pablo Podestá","country":"AR 阿根廷","city":"Pablo Podestá","lat":-34.6,"lng":-58.5167},{"id":"p-arpra","code":"ARPRA","name":"Paraná","country":"AR 阿根廷","city":"Paraná","lat":-31.7333,"lng":-60.5333},{"id":"p-arpal","code":"ARPAL","name":"Puerto Alumbrera","country":"AR 阿根廷","city":"Puerto Alumbrera","lat":-32.65,"lng":-60.75},{"id":"p-arpud","code":"ARPUD","name":"Puerto Deseado","country":"AR 阿根廷","city":"Puerto Deseado","lat":-47.75,"lng":-65.9},{"id":"p-arpel","code":"ARPEL","name":"Puerto Eldorado","country":"AR 阿根廷","city":"Puerto Eldorado","lat":-26.35,"lng":-54.6833},{"id":"p-arroc","code":"ARROC","name":"Puerto Ingeniero M. Rocca","country":"AR 阿根廷","city":"Puerto Ingeniero M. Rocca","lat":-34.85,"lng":-57.9333},{"id":"p-arpla","code":"ARPLA","name":"Puerto Lavalle","country":"AR 阿根廷","city":"Puerto Lavalle","lat":-29.0167,"lng":-59.1833},{"id":"p-arpmy","code":"ARPMY","name":"Puerto Madryn","country":"AR 阿根廷","city":"Puerto Madryn","lat":-42.75,"lng":-65.0333},{"id":"p-arprs","code":"ARPRS","name":"Puerto Rosales/Bahia Blanca","country":"AR 阿根廷","city":"Puerto Rosales/Bahia Blanca","lat":-38.9333,"lng":-62.0667},{"id":"p-arpwa","code":"ARPWA","name":"Puerto Wanda","country":"AR 阿根廷","city":"Puerto Wanda","lat":-25.9667,"lng":-54.6},{"id":"p-arpco","code":"ARPCO","name":"Punta Colorada","country":"AR 阿根廷","city":"Punta Colorada","lat":-41.7,"lng":-65},{"id":"p-arpme","code":"ARPME","name":"Punta Medanos","country":"AR 阿根廷","city":"Punta Medanos","lat":-36.8333,"lng":-56.6667},{"id":"p-arqbr","code":"ARQBR","name":"Quebracho/San Lorenzo","country":"AR 阿根廷","city":"Quebracho/San Lorenzo","lat":-32.65,"lng":-60.7167},{"id":"p-arqqn","code":"ARQQN","name":"Quequén","country":"AR 阿根廷","city":"Quequén","lat":-38.5333,"lng":-58.7},{"id":"p-arrwo","code":"ARRWO","name":"Rawson","country":"AR 阿根廷","city":"Rawson","lat":-43.3,"lng":-65.1},{"id":"p-arrsf","code":"ARRSF","name":"Resinfor","country":"AR 阿根廷","city":"Resinfor","lat":-32.65,"lng":-60.7333},{"id":"p-arric","code":"ARRIC","name":"Rio Cullen","country":"AR 阿根廷","city":"Rio Cullen","lat":-52.8,"lng":-68.1833},{"id":"p-arrgl","code":"ARRGL","name":"Río Gallegos","country":"AR 阿根廷","city":"Río Gallegos","lat":-51.6333,"lng":-69.2167},{"id":"p-arrga","code":"ARRGA","name":"Río Grande","country":"AR 阿根廷","city":"Río Grande","lat":-53.7833,"lng":-67.7},{"id":"p-arriv","code":"ARRIV","name":"Rivadavia","country":"AR 阿根廷","city":"Rivadavia","lat":-33.1833,"lng":-68.4667},{"id":"p-arros","code":"ARROS","name":"Rosario","country":"AR 阿根廷","city":"Rosario","lat":-32.95,"lng":-60.65},{"id":"p-arrfo","code":"ARRFO","name":"Rosario de la Frontera","country":"AR 阿根廷","city":"Rosario de la Frontera","lat":-25.8,"lng":-64.9667},{"id":"p-arsae","code":"ARSAE","name":"San Antonio Este","country":"AR 阿根廷","city":"San Antonio Este","lat":-40.8,"lng":-64.7333},{"id":"p-arsca","code":"ARSCA","name":"San Carlos","country":"AR 阿根廷","city":"San Carlos","lat":-33.7667,"lng":-69.0333},{"id":"p-arsig","code":"ARSIG","name":"San Ignacio","country":"AR 阿根廷","city":"San Ignacio","lat":-27.2667,"lng":-55.5667},{"id":"p-arula","code":"ARULA","name":"San Julian","country":"AR 阿根廷","city":"San Julian","lat":-49.3,"lng":-67.7167},{"id":"p-arsmr","code":"ARSMR","name":"San Martin","country":"AR 阿根廷","city":"San Martin","lat":-33.0667,"lng":-68.4667},{"id":"p-arsma","code":"ARSMA","name":"San Martin","country":"AR 阿根廷","city":"San Martin","lat":-32.7167,"lng":-60.7333},{"id":"p-arsns","code":"ARSNS","name":"San Nicolás de los Arroyos","country":"AR 阿根廷","city":"San Nicolás de los Arroyos","lat":-33.3333,"lng":-60.2333},{"id":"p-arspd","code":"ARSPD","name":"San Pedro","country":"AR 阿根廷","city":"San Pedro","lat":-33.6833,"lng":-59.1667},{"id":"p-arssj","code":"ARSSJ","name":"San Salvador de Jujuy","country":"AR 阿根廷","city":"San Salvador de Jujuy","lat":-24.1833,"lng":-65.3},{"id":"p-arssn","code":"ARSSN","name":"San Sebastián","country":"AR 阿根廷","city":"San Sebastián","lat":-53.3,"lng":-68.4667},{"id":"p-arsan","code":"ARSAN","name":"Santa Ana","country":"AR 阿根廷","city":"Santa Ana","lat":-27.3333,"lng":-55.5833},{"id":"p-arrza","code":"ARRZA","name":"Santa Cruz","country":"AR 阿根廷","city":"Santa Cruz","lat":-50.0167,"lng":-68.4167},{"id":"p-arsfn","code":"ARSFN","name":"Santa Fe","country":"AR 阿根廷","city":"Santa Fe","lat":-31.6,"lng":-60.6833},{"id":"p-arsta","code":"ARSTA","name":"Santa Rosa","country":"AR 阿根廷","city":"Santa Rosa","lat":-33.25,"lng":-68.15},{"id":"p-artim","code":"ARTIM","name":"Timbúes","country":"AR 阿根廷","city":"Timbúes","lat":-32.6333,"lng":-60.7833},{"id":"p-aroyo","code":"AROYO","name":"Tres Arroyos","country":"AR 阿根廷","city":"Tres Arroyos","lat":-38.3833,"lng":-60.2833},{"id":"p-artuc","code":"ARTUC","name":"Tucumán","country":"AR 阿根廷","city":"Tucumán","lat":-26.8167,"lng":-65.2167},{"id":"p-artun","code":"ARTUN","name":"Tunuyan","country":"AR 阿根廷","city":"Tunuyan","lat":-33.5667,"lng":-69.0167},{"id":"p-arurd","code":"ARURD","name":"Urdurrain","country":"AR 阿根廷","city":"Urdurrain","lat":-32.6833,"lng":-58.8833},{"id":"p-arush","code":"ARUSH","name":"Ushuaia","country":"AR 阿根廷","city":"Ushuaia","lat":-54.8,"lng":-68.3},{"id":"p-arvlo","code":"ARVLO","name":"Vicente López","country":"AR 阿根廷","city":"Vicente López","lat":-34.5167,"lng":-58.4833},{"id":"p-arvcn","code":"ARVCN","name":"Villa Constitución","country":"AR 阿根廷","city":"Villa Constitución","lat":-33.2333,"lng":-60.3333},{"id":"p-arvhe","code":"ARVHE","name":"Villa Hernandarias","country":"AR 阿根廷","city":"Villa Hernandarias","lat":-31.2333,"lng":-59.9833},{"id":"p-arzae","code":"ARZAE","name":"Zárate","country":"AR 阿根廷","city":"Zárate","lat":-34.1,"lng":-59.0333},{"id":"p-asppg","code":"ASPPG","name":"Pago Pago","country":"AS","city":"Pago Pago","lat":14.2667,"lng":-170.7},{"id":"p-atfg7","code":"ATFG7","name":"Achau","country":"AT 奥地利","city":"Achau","lat":48.6667,"lng":-162.5},{"id":"p-atawh","code":"ATAWH","name":"Altenwörth","country":"AT 奥地利","city":"Altenwörth","lat":48.3833,"lng":15.85},{"id":"p-atatn","code":"ATATN","name":"Asten","country":"AT 奥地利","city":"Asten","lat":48.2167,"lng":14.4},{"id":"p-atsxa","code":"ATSXA","name":"Bernhardsthal","country":"AT 奥地利","city":"Bernhardsthal","lat":48.6833,"lng":16.8667},{"id":"p-atbfs","code":"ATBFS","name":"Bischofshofen","country":"AT 奥地利","city":"Bischofshofen","lat":47.4167,"lng":13.2167},{"id":"p-atboe","code":"ATBOE","name":"Böhlerwenk","country":"AT 奥地利","city":"Böhlerwenk","lat":47.9833,"lng":14.75},{"id":"p-atbrz","code":"ATBRZ","name":"Bregenz","country":"AT 奥地利","city":"Bregenz","lat":47.5,"lng":9.7667},{"id":"p-atdwa","code":"ATDWA","name":"Deutsch Wagram","country":"AT 奥地利","city":"Deutsch Wagram","lat":48.3,"lng":16.5667},{"id":"p-atdkz","code":"ATDKZ","name":"Deutschkreutz","country":"AT 奥地利","city":"Deutschkreutz","lat":47.6,"lng":16.6333},{"id":"p-aterr","code":"ATERR","name":"Dobermannsdorf","country":"AT 奥地利","city":"Dobermannsdorf","lat":48.6,"lng":16.8167},{"id":"p-atnnn","code":"ATNNN","name":"Donnerskirchen","country":"AT 奥地利","city":"Donnerskirchen","lat":47.9,"lng":16.6333},{"id":"p-atdra","code":"ATDRA","name":"Drasenhofen","country":"AT 奥地利","city":"Drasenhofen","lat":48.75,"lng":-16.65},{"id":"p-atdro","code":"ATDRO","name":"Dross","country":"AT 奥地利","city":"Dross","lat":48.45,"lng":15.5667},{"id":"p-atdue","code":"ATDUE","name":"Dürnstein","country":"AT 奥地利","city":"Dürnstein","lat":48.3833,"lng":15.5167},{"id":"p-atebr","code":"ATEBR","name":"Ebreichsdorf","country":"AT 奥地利","city":"Ebreichsdorf","lat":47.95,"lng":16.4},{"id":"p-atewd","code":"ATEWD","name":"Eibiswald","country":"AT 奥地利","city":"Eibiswald","lat":46.6833,"lng":15.8333},{"id":"p-atbri","code":"ATBRI","name":"Engabrunn","country":"AT 奥地利","city":"Engabrunn","lat":48.45,"lng":15.75},{"id":"p-atero","code":"ATERO","name":"Engelmannsbrunn","country":"AT 奥地利","city":"Engelmannsbrunn","lat":48.45,"lng":15.8833},{"id":"p-atdfc","code":"ATDFC","name":"Engerwitzdorf","country":"AT 奥地利","city":"Engerwitzdorf","lat":48.35,"lng":14.45},{"id":"p-aterl","code":"ATERL","name":"Erl","country":"AT 奥地利","city":"Erl","lat":47.6667,"lng":12.1667},{"id":"p-atepd","code":"ATEPD","name":"Erpersdorf","country":"AT 奥地利","city":"Erpersdorf","lat":48.3333,"lng":15.9},{"id":"p-atfsu","code":"ATFSU","name":"Faistenau","country":"AT 奥地利","city":"Faistenau","lat":47.7667,"lng":13.2167},{"id":"p-atlkn","code":"ATLKN","name":"Falkenstein","country":"AT 奥地利","city":"Falkenstein","lat":48.7167,"lng":13.5833},{"id":"p-atfhr","code":"ATFHR","name":"Fehring","country":"AT 奥地利","city":"Fehring","lat":46.9333,"lng":16},{"id":"p-atfna","code":"ATFNA","name":"Freudenau","country":"AT 奥地利","city":"Freudenau","lat":48.1833,"lng":16.4333},{"id":"p-atfps","code":"ATFPS","name":"Fulpmes","country":"AT 奥地利","city":"Fulpmes","lat":47.15,"lng":11.35},{"id":"p-atga6","code":"ATGA6","name":"Gamlitz","country":"AT 奥地利","city":"Gamlitz","lat":46.7167,"lng":15.55},{"id":"p-atgdn","code":"ATGDN","name":"Gmunden","country":"AT 奥地利","city":"Gmunden","lat":47.9167,"lng":13.8},{"id":"p-atgfs","code":"ATGFS","name":"Greifenstein","country":"AT 奥地利","city":"Greifenstein","lat":48.3333,"lng":16.2333},{"id":"p-atgrn","code":"ATGRN","name":"Grein","country":"AT 奥地利","city":"Grein","lat":48.2167,"lng":14.8333},{"id":"p-atswh","code":"ATSWH","name":"Gross-Schweinbarth","country":"AT 奥地利","city":"Gross-Schweinbarth","lat":48.4,"lng":16.6167},{"id":"p-atgsn","code":"ATGSN","name":"Gutenstein","country":"AT 奥地利","city":"Gutenstein","lat":47.8667,"lng":15.8833},{"id":"p-atdof","code":"ATDOF","name":"Hadersdorf","country":"AT 奥地利","city":"Hadersdorf","lat":48.45,"lng":15.7167},{"id":"p-athkm","code":"ATHKM","name":"Hadersdorf-Kammern","country":"AT 奥地利","city":"Hadersdorf-Kammern","lat":48.45,"lng":15.7167},{"id":"p-atltx","code":"ATLTX","name":"Hainfeld","country":"AT 奥地利","city":"Hainfeld","lat":48.0333,"lng":15.7667},{"id":"p-atghh","code":"ATGHH","name":"Haugsdorf","country":"AT 奥地利","city":"Haugsdorf","lat":48.7,"lng":16.0667},{"id":"p-atitn","code":"ATITN","name":"Hausleiten","country":"AT 奥地利","city":"Hausleiten","lat":48.3833,"lng":16.1},{"id":"p-atten","code":"ATTEN","name":"Hausmannstatten","country":"AT 奥地利","city":"Hausmannstatten","lat":46.9833,"lng":15.5},{"id":"p-atbnn","code":"ATBNN","name":"Hobersbrunn","country":"AT 奥地利","city":"Hobersbrunn","lat":48.5,"lng":16.5667},{"id":"p-atein","code":"ATEIN","name":"Hoflein","country":"AT 奥地利","city":"Hoflein","lat":48.0667,"lng":16.7833},{"id":"p-atzin","code":"ATZIN","name":"Inzersdorf an der Traisen","country":"AT 奥地利","city":"Inzersdorf an der Traisen","lat":48.3167,"lng":15.6667},{"id":"p-atjps","code":"ATJPS","name":"Japons","country":"AT 奥地利","city":"Japons","lat":48.7833,"lng":15.5667},{"id":"p-atzlf","code":"ATZLF","name":"Jetzelsdorf","country":"AT 奥地利","city":"Jetzelsdorf","lat":48.7,"lng":16.05},{"id":"p-atjdd","code":"ATJDD","name":"Judendorf","country":"AT 奥地利","city":"Judendorf","lat":47.1167,"lng":15.35},{"id":"p-atkam","code":"ATKAM","name":"Kammern im Liesingtal","country":"AT 奥地利","city":"Kammern im Liesingtal","lat":47.4,"lng":14.9},{"id":"p-atktt","code":"ATKTT","name":"Kematen in Tirol","country":"AT 奥地利","city":"Kematen in Tirol","lat":47.25,"lng":11.2667},{"id":"p-atzrf","code":"ATZRF","name":"Ketzelsdorf","country":"AT 奥地利","city":"Ketzelsdorf","lat":48.65,"lng":16.65},{"id":"p-atkfd","code":"ATKFD","name":"Knittelfeld","country":"AT 奥地利","city":"Knittelfeld","lat":47.2,"lng":14.8167},{"id":"p-atkmb","code":"ATKMB","name":"Krummnussbaum","country":"AT 奥地利","city":"Krummnussbaum","lat":48.2167,"lng":15.1667},{"id":"p-atghj","code":"ATGHJ","name":"Krustetten","country":"AT 奥地利","city":"Krustetten","lat":48.3667,"lng":-154},{"id":"p-atlzd","code":"ATLZD","name":"Langenzersdorf","country":"AT 奥地利","city":"Langenzersdorf","lat":48.3,"lng":16.35},{"id":"p-atlua","code":"ATLUA","name":"Lembach","country":"AT 奥地利","city":"Lembach","lat":48.4833,"lng":13.8833},{"id":"p-atlts","code":"ATLTS","name":"Leutschach","country":"AT 奥地利","city":"Leutschach","lat":46.6667,"lng":15.4667},{"id":"p-atieg","code":"ATIEG","name":"Limberg","country":"AT 奥地利","city":"Limberg","lat":48.5833,"lng":15.8667},{"id":"p-atman","code":"ATMAN","name":"Manning","country":"AT 奥地利","city":"Manning","lat":48.0833,"lng":13.6667},{"id":"p-atmab","code":"ATMAB","name":"Marbach an der Donau","country":"AT 奥地利","city":"Marbach an der Donau","lat":48.2167,"lng":15.15},{"id":"p-atmka","code":"ATMKA","name":"Markt Allhau","country":"AT 奥地利","city":"Markt Allhau","lat":47.2333,"lng":16.0833},{"id":"p-atmkc","code":"ATMKC","name":"Mitterkirchen","country":"AT 奥地利","city":"Mitterkirchen","lat":48.1833,"lng":14.7},{"id":"p-atmbs","code":"ATMBS","name":"Morbisch am See","country":"AT 奥地利","city":"Morbisch am See","lat":47.75,"lng":16.6667},{"id":"p-atnt9","code":"ATNT9","name":"Muthmannsdorf","country":"AT 奥地利","city":"Muthmannsdorf","lat":47.8333,"lng":16.1},{"id":"p-atngg","code":"ATNGG","name":"Neudegg","country":"AT 奥地利","city":"Neudegg","lat":48.4833,"lng":15.8833},{"id":"p-atnfn","code":"ATNFN","name":"Neufelden","country":"AT 奥地利","city":"Neufelden","lat":48.4833,"lng":13.9833},{"id":"p-atnad","code":"ATNAD","name":"Neuhofen an der Ybbs","country":"AT 奥地利","city":"Neuhofen an der Ybbs","lat":48.05,"lng":14.85},{"id":"p-atnd2","code":"ATND2","name":"Nickelsdorf","country":"AT 奥地利","city":"Nickelsdorf","lat":47.9333,"lng":17.0667},{"id":"p-atnuz","code":"ATNUZ","name":"Nüziders","country":"AT 奥地利","city":"Nüziders","lat":47.1833,"lng":9.8},{"id":"p-atxae","code":"ATXAE","name":"Oehling","country":"AT 奥地利","city":"Oehling","lat":48.1,"lng":14.8},{"id":"p-atggu","code":"ATGGU","name":"Oggau","country":"AT 奥地利","city":"Oggau","lat":47.8333,"lng":16.6667},{"id":"p-atosh","code":"ATOSH","name":"Ottensheim","country":"AT 奥地利","city":"Ottensheim","lat":48.3333,"lng":14.1833},{"id":"p-atatk","code":"ATATK","name":"Paternion","country":"AT 奥地利","city":"Paternion","lat":46.7,"lng":13.6333},{"id":"p-atpbu","code":"ATPBU","name":"Persenbeug","country":"AT 奥地利","city":"Persenbeug","lat":48.1833,"lng":15.0667},{"id":"p-atpet","code":"ATPET","name":"Petzenkirchen","country":"AT 奥地利","city":"Petzenkirchen","lat":48.1333,"lng":15.15},{"id":"p-atpas","code":"ATPAS","name":"Podersdorf am See","country":"AT 奥地利","city":"Podersdorf am See","lat":47.85,"lng":16.8333},{"id":"p-at7pz","code":"AT7PZ","name":"Prinzersdorf","country":"AT 奥地利","city":"Prinzersdorf","lat":48.2,"lng":15.5167},{"id":"p-atrad","code":"ATRAD","name":"Radstadt","country":"AT 奥地利","city":"Radstadt","lat":47.3833,"lng":13.45},{"id":"p-atrhn","code":"ATRHN","name":"Ranshofen","country":"AT 奥地利","city":"Ranshofen","lat":48.2333,"lng":13},{"id":"p-atreg","code":"ATREG","name":"Regau","country":"AT 奥地利","city":"Regau","lat":48.0833,"lng":14.1333},{"id":"p-atetz","code":"ATETZ","name":"Rietz","country":"AT 奥地利","city":"Rietz","lat":47.2833,"lng":11.05},{"id":"p-atrhr","code":"ATRHR","name":"Rohrau","country":"AT 奥地利","city":"Rohrau","lat":48.0667,"lng":16.85},{"id":"p-atrrf","code":"ATRRF","name":"Ruhrsdorf","country":"AT 奥地利","city":"Ruhrsdorf","lat":48.4,"lng":15.5},{"id":"p-atsak","code":"ATSAK","name":"Sankt Aegidi","country":"AT 奥地利","city":"Sankt Aegidi","lat":48.4833,"lng":13.75},{"id":"p-atsgs","code":"ATSGS","name":"Sankt Georgen bei Salzburg","country":"AT 奥地利","city":"Sankt Georgen bei Salzburg","lat":47.9833,"lng":12.8833},{"id":"p-atsmr","code":"ATSMR","name":"Sankt Margarethen an der Raab","country":"AT 奥地利","city":"Sankt Margarethen an der Raab","lat":47.05,"lng":15.75},{"id":"p-atsk3","code":"ATSK3","name":"Sankt Margrethen","country":"AT 奥地利","city":"Sankt Margrethen","lat":46.6333,"lng":14.3833},{"id":"p-atfbz","code":"ATFBZ","name":"Sankt Stefan ob Stainz","country":"AT 奥地利","city":"Sankt Stefan ob Stainz","lat":46.9167,"lng":15.25},{"id":"p-atsuh","code":"ATSUH","name":"Sankt Ulrich","country":"AT 奥地利","city":"Sankt Ulrich","lat":48.6,"lng":16.7667},{"id":"p-atsvm","code":"ATSVM","name":"Sankt Veit im Mühlkreis","country":"AT 奥地利","city":"Sankt Veit im Mühlkreis","lat":48.4667,"lng":14.15},{"id":"p-atsmk","code":"ATSMK","name":"Schönau im Mühlkreis","country":"AT 奥地利","city":"Schönau im Mühlkreis","lat":48.3833,"lng":14.7333},{"id":"p-atttl","code":"ATTTL","name":"Schrattenthal","country":"AT 奥地利","city":"Schrattenthal","lat":48.7,"lng":15.9},{"id":"p-atsag","code":"ATSAG","name":"Schutzen am Gebirge","country":"AT 奥地利","city":"Schutzen am Gebirge","lat":47.85,"lng":16.6167},{"id":"p-atsft","code":"ATSFT","name":"Senftenberg","country":"AT 奥地利","city":"Senftenberg","lat":48.4333,"lng":15.55},{"id":"p-atspg","code":"ATSPG","name":"Spannberg","country":"AT 奥地利","city":"Spannberg","lat":48.45,"lng":16.7333},{"id":"p-atspz","code":"ATSPZ","name":"Spitz","country":"AT 奥地利","city":"Spitz","lat":48.3667,"lng":15.4167},{"id":"p-atstd","code":"ATSTD","name":"Steeg","country":"AT 奥地利","city":"Steeg","lat":47.6,"lng":13.6333},{"id":"p-atsss","code":"ATSSS","name":"Steinberg","country":"AT 奥地利","city":"Steinberg","lat":47.4833,"lng":16.4833},{"id":"p-atsus","code":"ATSUS","name":"Steinhaus","country":"AT 奥地利","city":"Steinhaus","lat":48.1167,"lng":14.0167},{"id":"p-atst6","code":"ATST6","name":"Straden","country":"AT 奥地利","city":"Straden","lat":46.8,"lng":15.8667},{"id":"p-attam","code":"ATTAM","name":"Tamsweg","country":"AT 奥地利","city":"Tamsweg","lat":47.1333,"lng":13.8},{"id":"p-attkp","code":"ATTKP","name":"Taufkirchen an der Pram","country":"AT 奥地利","city":"Taufkirchen an der Pram","lat":48.4167,"lng":13.5333},{"id":"p-attfs","code":"ATTFS","name":"Terfens","country":"AT 奥地利","city":"Terfens","lat":47.3167,"lng":11.65},{"id":"p-atths","code":"ATTHS","name":"Theiss","country":"AT 奥地利","city":"Theiss","lat":48.3833,"lng":15.6833},{"id":"p-attmr","code":"ATTMR","name":"Traismauer","country":"AT 奥地利","city":"Traismauer","lat":48.3333,"lng":15.7333},{"id":"p-atvel","code":"ATVEL","name":"Velden","country":"AT 奥地利","city":"Velden","lat":46.6167,"lng":14.05},{"id":"p-aterm","code":"ATERM","name":"Vordernberg","country":"AT 奥地利","city":"Vordernberg","lat":47.4667,"lng":15},{"id":"p-atwse","code":"ATWSE","name":"Wallsee","country":"AT 奥地利","city":"Wallsee","lat":48.1667,"lng":14.7167},{"id":"p-atweu","code":"ATWEU","name":"Weinburg","country":"AT 奥地利","city":"Weinburg","lat":48.1,"lng":15.5167},{"id":"p-atwdf","code":"ATWDF","name":"Weitendorf","country":"AT 奥地利","city":"Weitendorf","lat":46.8833,"lng":15.4667},{"id":"p-atwul","code":"ATWUL","name":"Wulkaprodersdorf","country":"AT 奥地利","city":"Wulkaprodersdorf","lat":47.8,"lng":16.5},{"id":"p-atzng","code":"ATZNG","name":"Zobing","country":"AT 奥地利","city":"Zobing","lat":48.4833,"lng":15.6833},{"id":"p-auabp","code":"AUABP","name":"Abbot Point","country":"AU 澳大利亚","city":"Abbot Point","lat":-19.9,"lng":148.0833},{"id":"p-aualp","code":"AUALP","name":"Abell Point","country":"AU 澳大利亚","city":"Abell Point","lat":-20.2667,"lng":148.7167},{"id":"p-auadl","code":"AUADL","name":"Adelaide","country":"AU 澳大利亚","city":"Adelaide","lat":-34.9167,"lng":138.5833},{"id":"p-auair","code":"AUAIR","name":"Airlie Terminal","country":"AU 澳大利亚","city":"Airlie Terminal","lat":-21.3333,"lng":115.1667},{"id":"p-auald","code":"AUALD","name":"Aldgate","country":"AU 澳大利亚","city":"Aldgate","lat":-35.0167,"lng":138.7333},{"id":"p-auamr","code":"AUAMR","name":"Amrun","country":"AU 澳大利亚","city":"Amrun","lat":-12.9167,"lng":141.6167},{"id":"p-auann","code":"AUANN","name":"Annandale","country":"AU 澳大利亚","city":"Annandale","lat":-33.8833,"lng":151.1667},{"id":"p-auapp","code":"AUAPP","name":"Applecross","country":"AU 澳大利亚","city":"Applecross","lat":-32.0167,"lng":115.8333},{"id":"p-auaua","code":"AUAUA","name":"Armadale","country":"AU 澳大利亚","city":"Armadale","lat":-32.15,"lng":116},{"id":"p-audlp","code":"AUDLP","name":"Arndell Park","country":"AU 澳大利亚","city":"Arndell Park","lat":-33.7833,"lng":150.8667},{"id":"p-auasb","code":"AUASB","name":"Ashburton","country":"AU 澳大利亚","city":"Ashburton","lat":-21.6833,"lng":115},{"id":"p-auash","code":"AUASH","name":"Ashton","country":"AU 澳大利亚","city":"Ashton","lat":-34.9333,"lng":138.7333},{"id":"p-aup6d","code":"AUP6D","name":"Aspendale","country":"AU 澳大利亚","city":"Aspendale","lat":-38.0333,"lng":145.1},{"id":"p-auatt","code":"AUATT","name":"Attadale","country":"AU 澳大利亚","city":"Attadale","lat":-32.0167,"lng":115.7833},{"id":"p-auags","code":"AUAGS","name":"Augusta","country":"AU 澳大利亚","city":"Augusta","lat":-34.3167,"lng":115.1667},{"id":"p-auali","code":"AUALI","name":"Australind","country":"AU 澳大利亚","city":"Australind","lat":-33.2833,"lng":115.7167},{"id":"p-aubae","code":"AUBAE","name":"Baerami","country":"AU 澳大利亚","city":"Baerami","lat":-32.4,"lng":150.4833},{"id":"p-aubaa","code":"AUBAA","name":"Balhannah","country":"AU 澳大利亚","city":"Balhannah","lat":-34.9833,"lng":138.8333},{"id":"p-aubal","code":"AUBAL","name":"Balnarring","country":"AU 澳大利亚","city":"Balnarring","lat":-38.3667,"lng":145.1333},{"id":"p-aubnn","code":"AUBNN","name":"Bannockburn","country":"AU 澳大利亚","city":"Bannockburn","lat":-38.05,"lng":144.1667},{"id":"p-aubar","code":"AUBAR","name":"Barry Beach","country":"AU 澳大利亚","city":"Barry Beach","lat":-38.7,"lng":146.3833},{"id":"p-aubbl","code":"AUBBL","name":"Beelbangera","country":"AU 澳大利亚","city":"Beelbangera","lat":-34.2667,"lng":146.1},{"id":"p-aube9","code":"AUBE9","name":"Belrose","country":"AU 澳大利亚","city":"Belrose","lat":-33.7333,"lng":151.2167},{"id":"p-aubvd","code":"AUBVD","name":"Belvidere","country":"AU 澳大利亚","city":"Belvidere","lat":-35.3,"lng":138.9333},{"id":"p-aubfd","code":"AUBFD","name":"Beresfield","country":"AU 澳大利亚","city":"Beresfield","lat":-32.8,"lng":151.65},{"id":"p-aubke","code":"AUBKE","name":"Berkeley Vale","country":"AU 澳大利亚","city":"Berkeley Vale","lat":-33.35,"lng":151.4333},{"id":"p-aubrr","code":"AUBRR","name":"Berrys Creek","country":"AU 澳大利亚","city":"Berrys Creek","lat":-38.4167,"lng":146.0667},{"id":"p-aubic","code":"AUBIC","name":"Bicheno","country":"AU 澳大利亚","city":"Bicheno","lat":-41.8667,"lng":148.2833},{"id":"p-aubbg","code":"AUBBG","name":"Bing Bong","country":"AU 澳大利亚","city":"Bing Bong","lat":-15.6,"lng":136.35},{"id":"p-aublp","code":"AUBLP","name":"Black Point","country":"AU 澳大利亚","city":"Black Point","lat":-11.15,"lng":132.15},{"id":"p-autts","code":"AUTTS","name":"Blackmans Bay","country":"AU 澳大利亚","city":"Blackmans Bay","lat":-42.9833,"lng":147.3167},{"id":"p-aubov","code":"AUBOV","name":"Blacktip Terminal","country":"AU 澳大利亚","city":"Blacktip Terminal","lat":-14.4,"lng":129.35},{"id":"p-aubny","code":"AUBNY","name":"Blayney","country":"AU 澳大利亚","city":"Blayney","lat":-33.5333,"lng":149.25},{"id":"p-aubob","code":"AUBOB","name":"Bobin","country":"AU 澳大利亚","city":"Bobin","lat":-31.7167,"lng":152.2833},{"id":"p-aubdy","code":"AUBDY","name":"Bomaderry","country":"AU 澳大利亚","city":"Bomaderry","lat":-34.85,"lng":150.6167},{"id":"p-auboo","code":"AUBOO","name":"Booby Island","country":"AU 澳大利亚","city":"Booby Island","lat":-10.6,"lng":141.9167},{"id":"p-aubod","code":"AUBOD","name":"Boondall","country":"AU 澳大利亚","city":"Boondall","lat":-27.3333,"lng":153.05},{"id":"p-aubot","code":"AUBOT","name":"Boort","country":"AU 澳大利亚","city":"Boort","lat":-36.1167,"lng":143.7167},{"id":"p-aubou","code":"AUBOU","name":"Boundary Bend","country":"AU 澳大利亚","city":"Boundary Bend","lat":-34.7,"lng":143.15},{"id":"p-auboy","code":"AUBOY","name":"Boyer","country":"AU 澳大利亚","city":"Boyer","lat":-42.8333,"lng":147.3},{"id":"p-aubby","code":"AUBBY","name":"Bremer Bay","country":"AU 澳大利亚","city":"Bremer Bay","lat":-34.3833,"lng":119.3667},{"id":"p-aubol","code":"AUBOL","name":"Bridgewater-on-Loddon","country":"AU 澳大利亚","city":"Bridgewater-on-Loddon","lat":-36.6,"lng":143.95},{"id":"p-aubpo","code":"AUBPO","name":"Bridport","country":"AU 澳大利亚","city":"Bridport","lat":-41,"lng":147.4},{"id":"p-aubsa","code":"AUBSA","name":"Brighton-Le-Sands","country":"AU 澳大利亚","city":"Brighton-Le-Sands","lat":-33.95,"lng":151.15},{"id":"p-aubne","code":"AUBNE","name":"Brisbane","country":"AU 澳大利亚","city":"Brisbane","lat":-27.4667,"lng":153.0167},{"id":"p-aunsb","code":"AUNSB","name":"Broke","country":"AU 澳大利亚","city":"Broke","lat":-32.75,"lng":151.1},{"id":"p-aubul","code":"AUBUL","name":"Bulli","country":"AU 澳大利亚","city":"Bulli","lat":-34.3,"lng":150.9167},{"id":"p-aubll","code":"AUBLL","name":"Bullsbrook","country":"AU 澳大利亚","city":"Bullsbrook","lat":-31.6667,"lng":116},{"id":"p-aubwi","code":"AUBWI","name":"Bulwer","country":"AU 澳大利亚","city":"Bulwer","lat":-27.0667,"lng":153.3667},{"id":"p-aubuc","code":"AUBUC","name":"Burketown","country":"AU 澳大利亚","city":"Burketown","lat":-17.7333,"lng":139.5333},{"id":"p-aubyy","code":"AUBYY","name":"Bushy Park","country":"AU 澳大利亚","city":"Bushy Park","lat":-37.8667,"lng":147.0333},{"id":"p-aucmb","code":"AUCMB","name":"Cambridge","country":"AU 澳大利亚","city":"Cambridge","lat":-42.8333,"lng":147.45},{"id":"p-aucmp","code":"AUCMP","name":"Camperdown","country":"AU 澳大利亚","city":"Camperdown","lat":-33.8833,"lng":151.1667},{"id":"p-aucap","code":"AUCAP","name":"Capalaba","country":"AU 澳大利亚","city":"Capalaba","lat":-27.5167,"lng":153.1833},{"id":"p-audon","code":"AUDON","name":"Cape Don","country":"AU 澳大利亚","city":"Cape Don","lat":-11.3167,"lng":131.75},{"id":"p-aucbo","code":"AUCBO","name":"Carboor","country":"AU 澳大利亚","city":"Carboor","lat":-36.6333,"lng":146.55},{"id":"p-aucar","code":"AUCAR","name":"Carina Heights","country":"AU 澳大利亚","city":"Carina Heights","lat":-27.5,"lng":153.0833},{"id":"p-auclf","code":"AUCLF","name":"Carlingford","country":"AU 澳大利亚","city":"Carlingford","lat":-33.7833,"lng":151.05},{"id":"p-aucun","code":"AUCUN","name":"Caufield North","country":"AU 澳大利亚","city":"Caufield North","lat":-37.8667,"lng":14.85},{"id":"p-aucvs","code":"AUCVS","name":"Caversham","country":"AU 澳大利亚","city":"Caversham","lat":-31.8833,"lng":115.9667},{"id":"p-auchv","code":"AUCHV","name":"Challis Venture (oil Terminal)","country":"AU 澳大利亚","city":"Challis Venture (oil Terminal)","lat":-12.1167,"lng":125.0167},{"id":"p-auche","code":"AUCHE","name":"Chermside","country":"AU 澳大利亚","city":"Chermside","lat":-27.3833,"lng":153.1667},{"id":"p-aucn6","code":"AUCN6","name":"Chinderah","country":"AU 澳大利亚","city":"Chinderah","lat":-28.2333,"lng":153.55},{"id":"p-aucht","code":"AUCHT","name":"Chittering","country":"AU 澳大利亚","city":"Chittering","lat":-31.4833,"lng":116.1},{"id":"p-auscl","code":"AUSCL","name":"Clare","country":"AU 澳大利亚","city":"Clare","lat":-33.8333,"lng":138.6},{"id":"p-auclm","code":"AUCLM","name":"Claremont","country":"AU 澳大利亚","city":"Claremont","lat":-31.9833,"lng":115.7833},{"id":"p-aucdn","code":"AUCDN","name":"Clarendon","country":"AU 澳大利亚","city":"Clarendon","lat":-35.1167,"lng":138.6333},{"id":"p-aucvn","code":"AUCVN","name":"Cleveland","country":"AU 澳大利亚","city":"Cleveland","lat":-27.5333,"lng":153.2667},{"id":"p-aucvl","code":"AUCVL","name":"Clovelly","country":"AU 澳大利亚","city":"Clovelly","lat":-33.9,"lng":151.25},{"id":"p-aucti","code":"AUCTI","name":"Cockatoo Island","country":"AU 澳大利亚","city":"Cockatoo Island","lat":-16.1,"lng":123.6167},{"id":"p-aucst","code":"AUCST","name":"Coldstream","country":"AU 澳大利亚","city":"Coldstream","lat":-37.7167,"lng":145.3667},{"id":"p-aucmo","code":"AUCMO","name":"Como","country":"AU 澳大利亚","city":"Como","lat":-34,"lng":151.0667},{"id":"p-aucde","code":"AUCDE","name":"Condamine","country":"AU 澳大利亚","city":"Condamine","lat":-26.9333,"lng":150.1333},{"id":"p-aucou","code":"AUCOU","name":"Coolum","country":"AU 澳大利亚","city":"Coolum","lat":-26.55,"lng":153.0833},{"id":"p-aucoo","code":"AUCOO","name":"Coomera","country":"AU 澳大利亚","city":"Coomera","lat":-27.8833,"lng":153.3},{"id":"p-aucnw","code":"AUCNW","name":"Coonawarra","country":"AU 澳大利亚","city":"Coonawarra","lat":-37.3,"lng":140.8167},{"id":"p-aucpr","code":"AUCPR","name":"Coorparoo","country":"AU 澳大利亚","city":"Coorparoo","lat":-27.5,"lng":153.05},{"id":"p-aucrl","code":"AUCRL","name":"Coral Bay","country":"AU 澳大利亚","city":"Coral Bay","lat":-23.1333,"lng":113.7667},{"id":"p-aucrs","code":"AUCRS","name":"Coral Sea","country":"AU 澳大利亚","city":"Coral Sea","lat":-19.0833,"lng":150.9},{"id":"p-aucba","code":"AUCBA","name":"Corio Bay","country":"AU 澳大利亚","city":"Corio Bay","lat":-38.1167,"lng":144.4333},{"id":"p-aucrv","code":"AUCRV","name":"Coromandel Valley","country":"AU 澳大利亚","city":"Coromandel Valley","lat":-35.05,"lng":138.6167},{"id":"p-aucop","code":"AUCOP","name":"Cossack Pioneer (oil Terminal)","country":"AU 澳大利亚","city":"Cossack Pioneer (oil Terminal)","lat":-19.5833,"lng":116.45},{"id":"p-aucte","code":"AUCTE","name":"Cottesloe","country":"AU 澳大利亚","city":"Cottesloe","lat":-32,"lng":115.7667},{"id":"p-auctt","code":"AUCTT","name":"Cottles Bridge","country":"AU 澳大利亚","city":"Cottles Bridge","lat":-37.6333,"lng":145.2167},{"id":"p-audil","code":"AUDIL","name":"Cowandilla","country":"AU 澳大利亚","city":"Cowandilla","lat":-34.9167,"lng":138.55},{"id":"p-aucow","code":"AUCOW","name":"Cowaramup","country":"AU 澳大利亚","city":"Cowaramup","lat":-33.8667,"lng":115.0833},{"id":"p-aucrf","code":"AUCRF","name":"Crafers","country":"AU 澳大利亚","city":"Crafers","lat":-35,"lng":138.7},{"id":"p-aucre","code":"AUCRE","name":"Crestmead","country":"AU 澳大利亚","city":"Crestmead","lat":-27.6833,"lng":153.0833},{"id":"p-auc8r","code":"AUC8R","name":"Cromer","country":"AU 澳大利亚","city":"Cromer","lat":-34.7667,"lng":139},{"id":"p-aucru","code":"AUCRU","name":"Cronulla","country":"AU 澳大利亚","city":"Cronulla","lat":-34.05,"lng":151.15},{"id":"p-audit","code":"AUDIT","name":"Dalrymple Islet","country":"AU 澳大利亚","city":"Dalrymple Islet","lat":-9.6,"lng":143.3},{"id":"p-audal","code":"AUDAL","name":"Dalton","country":"AU 澳大利亚","city":"Dalton","lat":-34.7167,"lng":149.1833},{"id":"p-audar","code":"AUDAR","name":"Dardanup","country":"AU 澳大利亚","city":"Dardanup","lat":-33.4,"lng":115.75},{"id":"p-audrw","code":"AUDRW","name":"Darwin","country":"AU 澳大利亚","city":"Darwin","lat":-12.45,"lng":130.8333},{"id":"p-audhi","code":"AUDHI","name":"Dhipirrinjura","country":"AU 澳大利亚","city":"Dhipirrinjura","lat":-12.25,"lng":135.0833},{"id":"p-audia","code":"AUDIA","name":"Diamond Creek","country":"AU 澳大利亚","city":"Diamond Creek","lat":-37.6667,"lng":145.15},{"id":"p-audry","code":"AUDRY","name":"Drysdale","country":"AU 澳大利亚","city":"Drysdale","lat":-38.1667,"lng":144.5667},{"id":"p-auede","code":"AUEDE","name":"Eden Valley","country":"AU 澳大利亚","city":"Eden Valley","lat":-34.65,"lng":139.1},{"id":"p-auelb","code":"AUELB","name":"Elizabeth Bay","country":"AU 澳大利亚","city":"Elizabeth Bay","lat":-11.9,"lng":136.55},{"id":"p-auelt","code":"AUELT","name":"Eltham","country":"AU 澳大利亚","city":"Eltham","lat":-37.7333,"lng":145.15},{"id":"p-auevl","code":"AUEVL","name":"Evans Landing","country":"AU 澳大利亚","city":"Evans Landing","lat":-12.6667,"lng":141.85},{"id":"p-aufin","code":"AUFIN","name":"Findon","country":"AU 澳大利亚","city":"Findon","lat":-34.9,"lng":138.5333},{"id":"p-aufln","code":"AUFLN","name":"Flynn","country":"AU 澳大利亚","city":"Flynn","lat":-38.1667,"lng":146.6833},{"id":"p-aufld","code":"AUFLD","name":"Frankland","country":"AU 澳大利亚","city":"Frankland","lat":-34.3667,"lng":114.0667},{"id":"p-aufwt","code":"AUFWT","name":"Freshwater","country":"AU 澳大利亚","city":"Freshwater","lat":-33.7667,"lng":151.2833},{"id":"p-augbt","code":"AUGBT","name":"Garbutt","country":"AU 澳大利亚","city":"Garbutt","lat":-19.2667,"lng":146.7667},{"id":"p-augem","code":"AUGEM","name":"Gembrook","country":"AU 澳大利亚","city":"Gembrook","lat":-37.95,"lng":145.55},{"id":"p-augoa","code":"AUGOA","name":"Goolwa","country":"AU 澳大利亚","city":"Goolwa","lat":-35.5,"lng":138.7833},{"id":"p-augor","code":"AUGOR","name":"Gordon","country":"AU 澳大利亚","city":"Gordon","lat":-37.5833,"lng":144.1},{"id":"p-augoh","code":"AUGOH","name":"Gove Harbour","country":"AU 澳大利亚","city":"Gove Harbour","lat":-12.2167,"lng":136.6667},{"id":"p-augth","code":"AUGTH","name":"Grantham","country":"AU 澳大利亚","city":"Grantham","lat":-27.5833,"lng":152.2},{"id":"p-augrb","code":"AUGRB","name":"Gravelly Beach","country":"AU 澳大利亚","city":"Gravelly Beach","lat":-41.3,"lng":146.9667},{"id":"p-augtw","code":"AUGTW","name":"Great Western","country":"AU 澳大利亚","city":"Great Western","lat":-37.15,"lng":142.85},{"id":"p-augrk","code":"AUGRK","name":"Greenock","country":"AU 澳大利亚","city":"Greenock","lat":-34.4667,"lng":138.9167},{"id":"p-augrv","code":"AUGRV","name":"Griffin Venture (oil Terminal)","country":"AU 澳大利亚","city":"Griffin Venture (oil Terminal)","lat":-21.2167,"lng":114.6333},{"id":"p-augru","code":"AUGRU","name":"Gruyere","country":"AU 澳大利亚","city":"Gruyere","lat":-37.7333,"lng":145.45},{"id":"p-augum","code":"AUGUM","name":"Gumeracha","country":"AU 澳大利亚","city":"Gumeracha","lat":-34.8333,"lng":138.8833},{"id":"p-auhah","code":"AUHAH","name":"Hahndorf","country":"AU 澳大利亚","city":"Hahndorf","lat":-35.0333,"lng":138.8},{"id":"p-auhtt","code":"AUHTT","name":"Halletts Cove","country":"AU 澳大利亚","city":"Halletts Cove","lat":-35.0667,"lng":138.5},{"id":"p-auham","code":"AUHAM","name":"Hampton","country":"AU 澳大利亚","city":"Hampton","lat":-38.3333,"lng":145.25},{"id":"p-auhwd","code":"AUHWD","name":"Hanwood","country":"AU 澳大利亚","city":"Hanwood","lat":-34.3333,"lng":146.0333},{"id":"p-auhpp","code":"AUHPP","name":"Happy Valley","country":"AU 澳大利亚","city":"Happy Valley","lat":-35.0833,"lng":138.5333},{"id":"p-auhas","code":"AUHAS","name":"Hastings","country":"AU 澳大利亚","city":"Hastings","lat":-38.3,"lng":145.25},{"id":"p-auhth","code":"AUHTH","name":"Heathcote","country":"AU 澳大利亚","city":"Heathcote","lat":-36.9167,"lng":144.7167},{"id":"p-auhbe","code":"AUHBE","name":"Heatherbrae","country":"AU 澳大利亚","city":"Heatherbrae","lat":-32.7833,"lng":151.7333},{"id":"p-auhfr","code":"AUHFR","name":"Henderson","country":"AU 澳大利亚","city":"Henderson","lat":-32.1667,"lng":115.7667},{"id":"p-auhnk","code":"AUHNK","name":"Hinchinbrook Island","country":"AU 澳大利亚","city":"Hinchinbrook Island","lat":-18.3833,"lng":146.2833},{"id":"p-auhba","code":"AUHBA","name":"Hobart","country":"AU 澳大利亚","city":"Hobart","lat":-42.8667,"lng":147.3},{"id":"p-auhdd","code":"AUHDD","name":"Hoddles Creek","country":"AU 澳大利亚","city":"Hoddles Creek","lat":-37.8333,"lng":145.5833},{"id":"p-auigf","code":"AUIGF","name":"Ingle Farm","country":"AU 澳大利亚","city":"Ingle Farm","lat":-34.8333,"lng":138.6333},{"id":"p-auiry","code":"AUIRY","name":"Irymple","country":"AU 澳大利亚","city":"Irymple","lat":-34.25,"lng":142.1667},{"id":"p-aujar","code":"AUJAR","name":"Jarrahdale","country":"AU 澳大利亚","city":"Jarrahdale","lat":-32.35,"lng":116.0667},{"id":"p-aukan","code":"AUKAN","name":"Kangarilla","country":"AU 澳大利亚","city":"Kangarilla","lat":-35.15,"lng":138.65},{"id":"p-aukrb","code":"AUKRB","name":"Karumba","country":"AU 澳大利亚","city":"Karumba","lat":-17.4833,"lng":140.8333},{"id":"p-aukay","code":"AUKAY","name":"Kayena","country":"AU 澳大利亚","city":"Kayena","lat":-41.1833,"lng":146.8833},{"id":"p-aukei","code":"AUKEI","name":"Keith","country":"AU 澳大利亚","city":"Keith","lat":-36.1,"lng":140.35},{"id":"p-aukng","code":"AUKNG","name":"Kensington Gardens","country":"AU 澳大利亚","city":"Kensington Gardens","lat":-35.5333,"lng":139.1},{"id":"p-aukey","code":"AUKEY","name":"Keyneton","country":"AU 澳大利亚","city":"Keyneton","lat":-34.5667,"lng":139.1333},{"id":"p-aulmq","code":"AULMQ","name":"Lake Macquarie","country":"AU 澳大利亚","city":"Lake Macquarie","lat":-33.0667,"lng":151.6},{"id":"p-aulen","code":"AULEN","name":"Lakes Entrance","country":"AU 澳大利亚","city":"Lakes Entrance","lat":-37.8833,"lng":147.9833},{"id":"p-aulan","code":"AULAN","name":"Langarra","country":"AU 澳大利亚","city":"Langarra","lat":-12.0833,"lng":135.35},{"id":"p-aujml","code":"AUJML","name":"Laurieton","country":"AU 澳大利亚","city":"Laurieton","lat":-31.65,"lng":152.8},{"id":"p-aulyd","code":"AULYD","name":"Lilydale","country":"AU 澳大利亚","city":"Lilydale","lat":-37.75,"lng":145.3667},{"id":"p-aulow","code":"AULOW","name":"Lisarow","country":"AU 澳大利亚","city":"Lisarow","lat":-33.3833,"lng":151.3667},{"id":"p-aulub","code":"AULUB","name":"Lucky Bay","country":"AU 澳大利亚","city":"Lucky Bay","lat":-33.6833,"lng":136.9167},{"id":"p-aumky","code":"AUMKY","name":"Mackay","country":"AU 澳大利亚","city":"Mackay","lat":-21.15,"lng":149.2},{"id":"p-aumqi","code":"AUMQI","name":"Macquarie Island","country":"AU 澳大利亚","city":"Macquarie Island","lat":-54.4833,"lng":158.9333},{"id":"p-aumrk","code":"AUMRK","name":"Macquarie Park","country":"AU 澳大利亚","city":"Macquarie Park","lat":-33.7667,"lng":151.1167},{"id":"p-aumby","code":"AUMBY","name":"Maribyrnong","country":"AU 澳大利亚","city":"Maribyrnong","lat":-37.7833,"lng":144.8833},{"id":"p-aumar","code":"AUMAR","name":"Marrickville","country":"AU 澳大利亚","city":"Marrickville","lat":-33.9167,"lng":151.1667},{"id":"p-ausad","code":"AUSAD","name":"Maryborough","country":"AU 澳大利亚","city":"Maryborough","lat":-37.5,"lng":143.75},{"id":"p-aukll","code":"AUKLL","name":"Maryknoll","country":"AU 澳大利亚","city":"Maryknoll","lat":-38.9167,"lng":145.6},{"id":"p-aumel","code":"AUMEL","name":"Melbourne","country":"AU 澳大利亚","city":"Melbourne","lat":-37.8167,"lng":144.9667},{"id":"p-aumli","code":"AUMLI","name":"Melville Island","country":"AU 澳大利亚","city":"Melville Island","lat":-11.55,"lng":130.9333},{"id":"p-aumid","code":"AUMID","name":"Midland","country":"AU 澳大利亚","city":"Midland","lat":31.8833,"lng":-115.9833},{"id":"p-aumon","code":"AUMON","name":"Montara Field","country":"AU 澳大利亚","city":"Montara Field","lat":-13.0833,"lng":124.0833},{"id":"p-aumll","code":"AUMLL","name":"Mooloolaba","country":"AU 澳大利亚","city":"Mooloolaba","lat":-26.6833,"lng":153.1333},{"id":"p-aumok","code":"AUMOK","name":"Moorook","country":"AU 澳大利亚","city":"Moorook","lat":-34.2833,"lng":140.35},{"id":"p-aumdc","code":"AUMDC","name":"Mordialloc","country":"AU 澳大利亚","city":"Mordialloc","lat":-38.0167,"lng":145.0833},{"id":"p-aumge","code":"AUMGE","name":"Mount Gravatt","country":"AU 澳大利亚","city":"Mount Gravatt","lat":-27.5333,"lng":153.0833},{"id":"p-aumhw","code":"AUMHW","name":"Mount Hawthorn","country":"AU 澳大利亚","city":"Mount Hawthorn","lat":-31.9167,"lng":115.8333},{"id":"p-aumow","code":"AUMOW","name":"Mowbray Heights","country":"AU 澳大利亚","city":"Mowbray Heights","lat":-41.3833,"lng":147.1333},{"id":"p-aumwa","code":"AUMWA","name":"Mulwala","country":"AU 澳大利亚","city":"Mulwala","lat":-36,"lng":146},{"id":"p-auneq","code":"AUNEQ","name":"Nericon","country":"AU 澳大利亚","city":"Nericon","lat":-34.2,"lng":146.0333},{"id":"p-aunlk","code":"AUNLK","name":"New Norfolk","country":"AU 澳大利亚","city":"New Norfolk","lat":-42.7833,"lng":147.0667},{"id":"p-auvic","code":"AUVIC","name":"Newtown","country":"AU 澳大利亚","city":"Newtown","lat":-37.7,"lng":143.65},{"id":"p-aungh","code":"AUNGH","name":"Nganhurra","country":"AU 澳大利亚","city":"Nganhurra","lat":-21.4833,"lng":114},{"id":"p-aunhu","code":"AUNHU","name":"Nhulunbuy","country":"AU 澳大利亚","city":"Nhulunbuy","lat":-12.1833,"lng":136.7833},{"id":"p-auniv","code":"AUNIV","name":"Ningaloo Vision","country":"AU 澳大利亚","city":"Ningaloo Vision","lat":-21.4,"lng":114.0833},{"id":"p-aunb2","code":"AUNB2","name":"North Bridge","country":"AU 澳大利亚","city":"North Bridge","lat":-33.8,"lng":151.2167},{"id":"p-auokf","code":"AUOKF","name":"Oak Flats","country":"AU 澳大利亚","city":"Oak Flats","lat":-34.55,"lng":150.8167},{"id":"p-auons","code":"AUONS","name":"Onslow","country":"AU 澳大利亚","city":"Onslow","lat":-21.65,"lng":115.1},{"id":"p-aupag","code":"AUPAG","name":"Paddington","country":"AU 澳大利亚","city":"Paddington","lat":-33.8833,"lng":151.2167},{"id":"p-audsw","code":"AUDSW","name":"Padstow","country":"AU 澳大利亚","city":"Padstow","lat":-33.95,"lng":151.0333},{"id":"p-aupal","code":"AUPAL","name":"Palmerston","country":"AU 澳大利亚","city":"Palmerston","lat":-12.4667,"lng":130.8333},{"id":"p-aupen","code":"AUPEN","name":"Pendle Hills","country":"AU 澳大利亚","city":"Pendle Hills","lat":-33.8,"lng":150.95},{"id":"p-auper","code":"AUPER","name":"Perth","country":"AU 澳大利亚","city":"Perth","lat":-31.95,"lng":115.85},{"id":"p-aupis","code":"AUPIS","name":"Phillip Island","country":"AU 澳大利亚","city":"Phillip Island","lat":-38.4833,"lng":145.2333},{"id":"p-aupic","code":"AUPIC","name":"Picton","country":"AU 澳大利亚","city":"Picton","lat":-34.1833,"lng":150.6},{"id":"p-aupyt","code":"AUPYT","name":"Pleystowe","country":"AU 澳大利亚","city":"Pleystowe","lat":-21.15,"lng":149.0167},{"id":"p-auphp","code":"AUPHP","name":"Point Henry Pier/Melbourne","country":"AU 澳大利亚","city":"Point Henry Pier/Melbourne","lat":-38.1167,"lng":144.4333},{"id":"p-aupdi","code":"AUPDI","name":"Port Denison","country":"AU 澳大利亚","city":"Port Denison","lat":-29.2667,"lng":114.9333},{"id":"p-aufry","code":"AUFRY","name":"Port Fairy","country":"AU 澳大利亚","city":"Port Fairy","lat":-38.3667,"lng":142.2333},{"id":"p-aut3p","code":"AUT3P","name":"Port Hacking","country":"AU 澳大利亚","city":"Port Hacking","lat":-34.0667,"lng":151.1333},{"id":"p-aupky","code":"AUPKY","name":"Port Kenny","country":"AU 澳大利亚","city":"Port Kenny","lat":-33.1667,"lng":134.6833},{"id":"p-aupor","code":"AUPOR","name":"Port Melbourne","country":"AU 澳大利亚","city":"Port Melbourne","lat":-37.8333,"lng":144.9333},{"id":"p-aupbn","code":"AUPBN","name":"Port of Brisbane","country":"AU 澳大利亚","city":"Port of Brisbane","lat":-27.3833,"lng":153.1667},{"id":"p-auptw","code":"AUPTW","name":"Port Willunga","country":"AU 澳大利亚","city":"Port Willunga","lat":-35.2667,"lng":138.45},{"id":"p-auphr","code":"AUPHR","name":"Prahran","country":"AU 澳大利亚","city":"Prahran","lat":-37.85,"lng":145},{"id":"p-aupye","code":"AUPYE","name":"Pyrenees","country":"AU 澳大利亚","city":"Pyrenees","lat":-37.0833,"lng":143.4833},{"id":"p-aupyr","code":"AUPYR","name":"Pyrmont","country":"AU 澳大利亚","city":"Pyrmont","lat":-33.8667,"lng":151.1833},{"id":"p-auraf","code":"AURAF","name":"Raffles Bay","country":"AU 澳大利亚","city":"Raffles Bay","lat":-11.2667,"lng":132.3833},{"id":"p-aurev","code":"AUREV","name":"Revesby","country":"AU 澳大利亚","city":"Revesby","lat":-33.95,"lng":151},{"id":"p-aurll","code":"AURLL","name":"Reynella","country":"AU 澳大利亚","city":"Reynella","lat":-36.1,"lng":138.5333},{"id":"p-aurds","code":"AURDS","name":"Rhodes","country":"AU 澳大利亚","city":"Rhodes","lat":-33.8333,"lng":151.0833},{"id":"p-aurob","code":"AUROB","name":"Robe","country":"AU 澳大利亚","city":"Robe","lat":-37.1833,"lng":139.75},{"id":"p-auryp","code":"AURYP","name":"Rocky Point","country":"AU 澳大利亚","city":"Rocky Point","lat":-33.5,"lng":123.9833},{"id":"p-aurnb","code":"AURNB","name":"Rosslyn Bay","country":"AU 澳大利亚","city":"Rosslyn Bay","lat":-23.1667,"lng":150.7833},{"id":"p-auroz","code":"AUROZ","name":"Rozelle","country":"AU 澳大利亚","city":"Rozelle","lat":-33.85,"lng":151.1667},{"id":"p-ausgt","code":"AUSGT","name":"Sandgate","country":"AU 澳大利亚","city":"Sandgate","lat":-32.8667,"lng":151.7},{"id":"p-auscy","code":"AUSCY","name":"Scoresby","country":"AU 澳大利亚","city":"Scoresby","lat":-37.9,"lng":145.2167},{"id":"p-au5ci","code":"AU5CI","name":"Selby","country":"AU 澳大利亚","city":"Selby","lat":-37.9167,"lng":145.3833},{"id":"p-ausmr","code":"AUSMR","name":"Seventeen Mile Rocks/Brisbane","country":"AU 澳大利亚","city":"Seventeen Mile Rocks/Brisbane","lat":-27.55,"lng":152.95},{"id":"p-ausol","code":"AUSOL","name":"Shea Oak Log","country":"AU 澳大利亚","city":"Shea Oak Log","lat":-34.5167,"lng":138.8167},{"id":"p-auska","code":"AUSKA","name":"Skardon River","country":"AU 澳大利亚","city":"Skardon River","lat":-11.75,"lng":142.0167},{"id":"p-ausbn","code":"AUSBN","name":"South Brisbane","country":"AU 澳大利亚","city":"South Brisbane","lat":-27.4667,"lng":153.0167},{"id":"p-austr","code":"AUSTR","name":"South Trees","country":"AU 澳大利亚","city":"South Trees","lat":-23.9,"lng":151.2833},{"id":"p-auspo","code":"AUSPO","name":"Spreyton","country":"AU 澳大利亚","city":"Spreyton","lat":-41.2167,"lng":146.35},{"id":"p-ausuh","code":"AUSUH","name":"Surry Hills","country":"AU 澳大利亚","city":"Surry Hills","lat":-33.8833,"lng":151.2167},{"id":"p-ausyd","code":"AUSYD","name":"Sydney","country":"AU 澳大利亚","city":"Sydney","lat":-33.85,"lng":151.2},{"id":"p-ausyl","code":"AUSYL","name":"Sylvania","country":"AU 澳大利亚","city":"Sylvania","lat":-34.0167,"lng":151.1},{"id":"p-audga","code":"AUDGA","name":"Tea Gardens","country":"AU 澳大利亚","city":"Tea Gardens","lat":-32.6667,"lng":152.15},{"id":"p-augur","code":"AUGUR","name":"The Gurdies","country":"AU 澳大利亚","city":"The Gurdies","lat":-38.3667,"lng":145.55},{"id":"p-aucth","code":"AUCTH","name":"Thevenard Island","country":"AU 澳大利亚","city":"Thevenard Island","lat":-21.45,"lng":114.9833},{"id":"p-autol","code":"AUTOL","name":"Toombul","country":"AU 澳大利亚","city":"Toombul","lat":-27.4,"lng":153.05},{"id":"p-autrd","code":"AUTRD","name":"Tooradin","country":"AU 澳大利亚","city":"Tooradin","lat":-38.2167,"lng":145.3833},{"id":"p-autor","code":"AUTOR","name":"Toronto","country":"AU 澳大利亚","city":"Toronto","lat":-33,"lng":151.6},{"id":"p-autri","code":"AUTRI","name":"Troughton Island","country":"AU 澳大利亚","city":"Troughton Island","lat":-13.75,"lng":126.1333},{"id":"p-auths","code":"AUTHS","name":"Tweed Heads South","country":"AU 澳大利亚","city":"Tweed Heads South","lat":-28.2,"lng":153.5333},{"id":"p-auda5","code":"AUDA5","name":"Twowells","country":"AU 澳大利亚","city":"Twowells","lat":-34.6,"lng":138.5},{"id":"p-auula","code":"AUULA","name":"Ulladulla","country":"AU 澳大利亚","city":"Ulladulla","lat":-35.35,"lng":150.4167},{"id":"p-auumb","code":"AUUMB","name":"Umbakumba","country":"AU 澳大利亚","city":"Umbakumba","lat":-13.85,"lng":136.8},{"id":"p-auvgh","code":"AUVGH","name":"Van Gogh Terminal","country":"AU 澳大利亚","city":"Van Gogh Terminal","lat":-21.4,"lng":114.0833},{"id":"p-auwsn","code":"AUWSN","name":"Warners Bay","country":"AU 澳大利亚","city":"Warners Bay","lat":-32.9667,"lng":151.65},{"id":"p-auwtw","code":"AUWTW","name":"Waterways","country":"AU 澳大利亚","city":"Waterways","lat":-38,"lng":145.1167},{"id":"p-auwtn","code":"AUWTN","name":"Webberton","country":"AU 澳大利亚","city":"Webberton","lat":-28.75,"lng":114.6167},{"id":"p-aukjh","code":"AUKJH","name":"Welland","country":"AU 澳大利亚","city":"Welland","lat":-34.9,"lng":138.5333},{"id":"p-auwhl","code":"AUWHL","name":"Welshpool","country":"AU 澳大利亚","city":"Welshpool","lat":-38.6667,"lng":146.4333},{"id":"p-auwwp","code":"AUWWP","name":"Wentworth Point","country":"AU 澳大利亚","city":"Wentworth Point","lat":-33.8333,"lng":151.0667},{"id":"p-auwrb","code":"AUWRB","name":"Werribee","country":"AU 澳大利亚","city":"Werribee","lat":-37.9,"lng":144.65},{"id":"p-auwsi","code":"AUWSI","name":"Whitsunday Island","country":"AU 澳大利亚","city":"Whitsunday Island","lat":-20.25,"lng":149.0167},{"id":"p-auwih","code":"AUWIH","name":"Wingham","country":"AU 澳大利亚","city":"Wingham","lat":-31.8667,"lng":152.3667},{"id":"p-auwnb","code":"AUWNB","name":"Withnell Bay","country":"AU 澳大利亚","city":"Withnell Bay","lat":-20.5833,"lng":116.7833},{"id":"p-auwoo","code":"AUWOO","name":"Woolloomooloo","country":"AU 澳大利亚","city":"Woolloomooloo","lat":-33.8667,"lng":151.2167},{"id":"p-auwbt","code":"AUWBT","name":"Woollybutt (Oil facility)","country":"AU 澳大利亚","city":"Woollybutt (Oil facility)","lat":-21.05,"lng":114.8667},{"id":"p-auyrr","code":"AUYRR","name":"Yarra Junction","country":"AU 澳大利亚","city":"Yarra Junction","lat":-37.7833,"lng":145.6167},{"id":"p-awaua","code":"AWAUA","name":"Aruba","country":"AW","city":"Aruba","lat":12.5,"lng":-69.9667},{"id":"p-awbar","code":"AWBAR","name":"Barcadera","country":"AW","city":"Barcadera","lat":12.4833,"lng":-69.9833},{"id":"p-awbus","code":"AWBUS","name":"Bushiribana","country":"AW","city":"Bushiribana","lat":12.55,"lng":-69.9667},{"id":"p-axmhq","code":"AXMHQ","name":"Maarianhamina (Mariehamn)","country":"AX","city":"Maarianhamina (Mariehamn)","lat":60.1,"lng":19.95},{"id":"p-axmhq","code":"AXMHQ","name":"Mariehamn (Maarianhamina)","country":"AX","city":"Mariehamn (Maarianhamina)","lat":60.1,"lng":19.95},{"id":"p-azala","code":"AZALA","name":"Alat","country":"AZ","city":"Alat","lat":39.95,"lng":49.4},{"id":"p-azkmz","code":"AZKMZ","name":"Khachmaz","country":"AZ","city":"Khachmaz","lat":41.9833,"lng":47.5833},{"id":"p-azqdg","code":"AZQDG","name":"Qaradag","country":"AZ","city":"Qaradag","lat":40.25,"lng":49.6},{"id":"p-azshi","code":"AZSHI","name":"Shirvan","country":"AZ","city":"Shirvan","lat":39.9167,"lng":48.9167},{"id":"p-azsuq","code":"AZSUQ","name":"Sumqayit","country":"AZ","city":"Sumqayit","lat":40.5833,"lng":49.6667},{"id":"p-ba4ca","code":"BA4CA","name":"Cazin","country":"BA","city":"Cazin","lat":44.9667,"lng":15.9333},{"id":"p-badoj","code":"BADOJ","name":"Domaljevac","country":"BA","city":"Domaljevac","lat":45.05,"lng":18.5667},{"id":"p-bafoj","code":"BAFOJ","name":"Fojnica","country":"BA","city":"Fojnica","lat":43.95,"lng":17.9},{"id":"p-bajba","code":"BAJBA","name":"Jablanica","country":"BA","city":"Jablanica","lat":43.65,"lng":17.75},{"id":"p-bamag","code":"BAMAG","name":"Maglaj","country":"BA","city":"Maglaj","lat":44.5333,"lng":18.0833},{"id":"p-banem","code":"BANEM","name":"Neum","country":"BA","city":"Neum","lat":42.9167,"lng":17.6167},{"id":"p-basmt","code":"BASMT","name":"Sanski Most","country":"BA","city":"Sanski Most","lat":44.7667,"lng":16.6667},{"id":"p-bavgs","code":"BAVGS","name":"Vogosca","country":"BA","city":"Vogosca","lat":43.9,"lng":18.35},{"id":"p-baznk","code":"BAZNK","name":"Zvornik","country":"BA","city":"Zvornik","lat":44.3833,"lng":19.1},{"id":"p-bbstm","code":"BBSTM","name":"Saint Michael","country":"BB","city":"Saint Michael","lat":13.1167,"lng":-59.6},{"id":"p-bdasj","code":"BDASJ","name":"Ashuganj","country":"BD 孟加拉","city":"Ashuganj","lat":24.0333,"lng":91.0167},{"id":"p-bdbnp","code":"BDBNP","name":"Benapole","country":"BD 孟加拉","city":"Benapole","lat":23.05,"lng":88.9},{"id":"p-bdcgp","code":"BDCGP","name":"Chattogram","country":"BD 孟加拉","city":"Chattogram","lat":22.3333,"lng":91.8333},{"id":"p-bdmun","code":"BDMUN","name":"Munshiganj","country":"BD 孟加拉","city":"Munshiganj","lat":23.55,"lng":90.5333},{"id":"p-bdpcr","code":"BDPCR","name":"Panchashar","country":"BD 孟加拉","city":"Panchashar","lat":23.5667,"lng":90.5},{"id":"p-bdpgn","code":"BDPGN","name":"Pangaon","country":"BD 孟加拉","city":"Pangaon","lat":23.65,"lng":90.45},{"id":"p-bdpay","code":"BDPAY","name":"Payra Port","country":"BD 孟加拉","city":"Payra Port","lat":21.9333,"lng":90.2667},{"id":"p-beaab","code":"BEAAB","name":"Aalst","country":"BE 比利时","city":"Aalst","lat":50.9333,"lng":4.0333},{"id":"p-beaal","code":"BEAAL","name":"Aalter","country":"BE 比利时","city":"Aalter","lat":51.0833,"lng":3.45},{"id":"p-beadk","code":"BEADK","name":"Adinkerke","country":"BE 比利时","city":"Adinkerke","lat":51.0667,"lng":2.6},{"id":"p-beafn","code":"BEAFN","name":"Afsnee","country":"BE 比利时","city":"Afsnee","lat":51.0333,"lng":3.6667},{"id":"p-beamy","code":"BEAMY","name":"Amay","country":"BE 比利时","city":"Amay","lat":50.55,"lng":5.3167},{"id":"p-beaps","code":"BEAPS","name":"Ampsin","country":"BE 比利时","city":"Ampsin","lat":50.5333,"lng":5.2833},{"id":"p-beand","code":"BEAND","name":"Andenne","country":"BE 比利时","city":"Andenne","lat":50.4833,"lng":5.1},{"id":"p-beanb","code":"BEANB","name":"Angleur","country":"BE 比利时","city":"Angleur","lat":50.6167,"lng":5.5833},{"id":"p-beanh","code":"BEANH","name":"Anhée","country":"BE 比利时","city":"Anhée","lat":50.3167,"lng":4.8833},{"id":"p-beave","code":"BEAVE","name":"Annevoie","country":"BE 比利时","city":"Annevoie","lat":50.3333,"lng":4.8333},{"id":"p-beasr","code":"BEASR","name":"Anseremme","country":"BE 比利时","city":"Anseremme","lat":50.25,"lng":4.9},{"id":"p-beahe","code":"BEAHE","name":"Antheit","country":"BE 比利时","city":"Antheit","lat":50.55,"lng":5.2167},{"id":"p-beato","code":"BEATO","name":"Antoing","country":"BE 比利时","city":"Antoing","lat":50.5667,"lng":3.45},{"id":"p-beanr","code":"BEANR","name":"Antwerpen","country":"BE 比利时","city":"Antwerpen","lat":51.2167,"lng":4.4167},{"id":"p-beapl","code":"BEAPL","name":"Appels","country":"BE 比利时","city":"Appels","lat":51.0333,"lng":4.0667},{"id":"p-beapt","code":"BEAPT","name":"Appelterre-Eichem","country":"BE 比利时","city":"Appelterre-Eichem","lat":50.8167,"lng":3.9667},{"id":"p-beaej","code":"BEAEJ","name":"Arendonk","country":"BE 比利时","city":"Arendonk","lat":51.3167,"lng":5.0833},{"id":"p-beagt","code":"BEAGT","name":"Argenteau","country":"BE 比利时","city":"Argenteau","lat":50.7,"lng":5.7},{"id":"p-beasp","code":"BEASP","name":"Asper","country":"BE 比利时","city":"Asper","lat":50.9167,"lng":3.65},{"id":"p-beast","code":"BEAST","name":"Astene","country":"BE 比利时","city":"Astene","lat":50.9833,"lng":3.55},{"id":"p-beath","code":"BEATH","name":"Ath","country":"BE 比利时","city":"Ath","lat":50.6167,"lng":3.7667},{"id":"p-be7pd","code":"BE7PD","name":"Athis","country":"BE 比利时","city":"Athis","lat":50.3667,"lng":3.7667},{"id":"p-beode","code":"BEODE","name":"Auderghem (Oudergem)/Brussel (Bruxelles)","country":"BE 比利时","city":"Auderghem (Oudergem)/Brussel (Bruxelles)","lat":50.8167,"lng":4.4333},{"id":"p-beavs","code":"BEAVS","name":"Auvelais","country":"BE 比利时","city":"Auvelais","lat":50.45,"lng":4.6167},{"id":"p-beavl","code":"BEAVL","name":"Avelgem","country":"BE 比利时","city":"Avelgem","lat":50.7667,"lng":3.4333},{"id":"p-bew5r","code":"BEW5R","name":"Awirs","country":"BE 比利时","city":"Awirs","lat":50.6,"lng":5.4},{"id":"p-bebsr","code":"BEBSR","name":"Baasrode","country":"BE 比利时","city":"Baasrode","lat":51.0333,"lng":4.1667},{"id":"p-bebai","code":"BEBAI","name":"Baillonville","country":"BE 比利时","city":"Baillonville","lat":50.2833,"lng":5.3333},{"id":"p-beble","code":"BEBLE","name":"Balen","country":"BE 比利时","city":"Balen","lat":51.1667,"lng":5.15},{"id":"p-bebgk","code":"BEBGK","name":"Balgerhoek","country":"BE 比利时","city":"Balgerhoek","lat":51.2,"lng":3.5167},{"id":"p-beboa","code":"BEBOA","name":"Bas-Oha","country":"BE 比利时","city":"Bas-Oha","lat":50.5167,"lng":5.1833},{"id":"p-bebat","code":"BEBAT","name":"Battel","country":"BE 比利时","city":"Battel","lat":51.05,"lng":4.45},{"id":"p-bebdu","code":"BEBDU","name":"Baudour","country":"BE 比利时","city":"Baudour","lat":50.4833,"lng":3.8167},{"id":"p-bebaz","code":"BEBAZ","name":"Bazel","country":"BE 比利时","city":"Bazel","lat":51.15,"lng":4.3},{"id":"p-bebrm","code":"BEBRM","name":"Beernem","country":"BE 比利时","city":"Beernem","lat":51.15,"lng":3.3333},{"id":"p-beber","code":"BEBER","name":"Beerse","country":"BE 比利时","city":"Beerse","lat":51.3167,"lng":4.8667},{"id":"p-bebcr","code":"BEBCR","name":"Bellecourt","country":"BE 比利时","city":"Bellecourt","lat":50.4833,"lng":4.25},{"id":"p-beblo","code":"BEBLO","name":"Beloeil","country":"BE 比利时","city":"Beloeil","lat":50.55,"lng":3.7167},{"id":"p-beban","code":"BEBAN","name":"Ben-Ahin","country":"BE 比利时","city":"Ben-Ahin","lat":50.5167,"lng":5.1667},{"id":"p-bebcm","code":"BEBCM","name":"Berchem","country":"BE 比利时","city":"Berchem","lat":50.7833,"lng":3.5},{"id":"p-bebrt","code":"BEBRT","name":"Berendrecht","country":"BE 比利时","city":"Berendrecht","lat":51.3333,"lng":4.3167},{"id":"p-berin","code":"BERIN","name":"Beringen","country":"BE 比利时","city":"Beringen","lat":51.05,"lng":5.2167},{"id":"p-bebnu","code":"BEBNU","name":"Berneau","country":"BE 比利时","city":"Berneau","lat":50.75,"lng":5.7333},{"id":"p-bebtx","code":"BEBTX","name":"Bertrix","country":"BE 比利时","city":"Bertrix","lat":49.85,"lng":5.25},{"id":"p-bebve","code":"BEBVE","name":"Bever","country":"BE 比利时","city":"Bever","lat":50.7167,"lng":3.9333},{"id":"p-bebvo","code":"BEBVO","name":"Beverlo","country":"BE 比利时","city":"Beverlo","lat":51.0833,"lng":5.2},{"id":"p-bebse","code":"BEBSE","name":"Bissegem","country":"BE 比利时","city":"Bissegem","lat":50.8167,"lng":3.2167},{"id":"p-bebbg","code":"BEBBG","name":"Blankenberge","country":"BE 比利时","city":"Blankenberge","lat":51.3167,"lng":3.1333},{"id":"p-bewht","code":"BEWHT","name":"Blaregnies","country":"BE 比利时","city":"Blaregnies","lat":50.35,"lng":3.8833},{"id":"p-beblt","code":"BEBLT","name":"Blaton","country":"BE 比利时","city":"Blaton","lat":50.5,"lng":3.65},{"id":"p-bebhr","code":"BEBHR","name":"Bléharies","country":"BE 比利时","city":"Bléharies","lat":50.5167,"lng":3.4},{"id":"p-beboc","code":"BEBOC","name":"Bocholt","country":"BE 比利时","city":"Bocholt","lat":51.1667,"lng":5.5833},{"id":"p-bebhe","code":"BEBHE","name":"Boekhoute","country":"BE 比利时","city":"Boekhoute","lat":51.25,"lng":3.7167},{"id":"p-bebom","code":"BEBOM","name":"Boom","country":"BE 比利时","city":"Boom","lat":51.0833,"lng":4.3667},{"id":"p-beboo","code":"BEBOO","name":"Boorsem","country":"BE 比利时","city":"Boorsem","lat":50.9333,"lng":5.7167},{"id":"p-bebmb","code":"BEBMB","name":"Boortmeerbeek","country":"BE 比利时","city":"Boortmeerbeek","lat":50.9833,"lng":4.5667},{"id":"p-bebon","code":"BEBON","name":"Bornem","country":"BE 比利时","city":"Bornem","lat":51.1,"lng":4.2333},{"id":"p-bebsu","code":"BEBSU","name":"Bossuit","country":"BE 比利时","city":"Bossuit","lat":50.75,"lng":3.4},{"id":"p-bebo2","code":"BEBO2","name":"Bougnies","country":"BE 比利时","city":"Bougnies","lat":50.3833,"lng":3.9333},{"id":"p-bebvm","code":"BEBVM","name":"Bouvignes-sur-Meuse","country":"BE 比利时","city":"Bouvignes-sur-Meuse","lat":50.2667,"lng":4.9},{"id":"p-bebre","code":"BEBRE","name":"Bree","country":"BE 比利时","city":"Bree","lat":51.1333,"lng":5.6},{"id":"p-bebgn","code":"BEBGN","name":"Briegden","country":"BE 比利时","city":"Briegden","lat":50.8667,"lng":5.6167},{"id":"p-bebgs","code":"BEBGS","name":"Brugge (Bruges)","country":"BE 比利时","city":"Brugge (Bruges)","lat":51.2167,"lng":3.2333},{"id":"p-bebru","code":"BEBRU","name":"Brussel (Bruxelles)","country":"BE 比利时","city":"Brussel (Bruxelles)","lat":50.8333,"lng":4.3333},{"id":"p-bebru","code":"BEBRU","name":"Bruxelles (Brussel)","country":"BE 比利时","city":"Bruxelles (Brussel)","lat":50.8333,"lng":4.3333},{"id":"p-bebry","code":"BEBRY","name":"Bruyelle","country":"BE 比利时","city":"Bruyelle","lat":50.55,"lng":3.4167},{"id":"p-bebhu","code":"BEBHU","name":"Buggenhout","country":"BE 比利时","city":"Buggenhout","lat":51.0167,"lng":4.2},{"id":"p-bebud","code":"BEBUD","name":"Burcht","country":"BE 比利时","city":"Burcht","lat":51.2,"lng":4.35},{"id":"p-becln","code":"BECLN","name":"Calonne","country":"BE 比利时","city":"Calonne","lat":50.5667,"lng":3.4333},{"id":"p-bekan","code":"BEKAN","name":"Canne (Kanne)","country":"BE 比利时","city":"Canne (Kanne)","lat":50.8167,"lng":5.6667},{"id":"p-becrl","code":"BECRL","name":"Charleroi","country":"BE 比利时","city":"Charleroi","lat":50.4167,"lng":4.4333},{"id":"p-bectl","code":"BECTL","name":"Châtelineau","country":"BE 比利时","city":"Châtelineau","lat":50.4167,"lng":4.5167},{"id":"p-becra","code":"BECRA","name":"Cheratte","country":"BE 比利时","city":"Cheratte","lat":50.6833,"lng":5.6667},{"id":"p-becrq","code":"BECRQ","name":"Chercq","country":"BE 比利时","city":"Chercq","lat":50.5833,"lng":3.4},{"id":"p-becta","code":"BECTA","name":"Chertal","country":"BE 比利时","city":"Chertal","lat":50.6833,"lng":5.6667},{"id":"p-becbq","code":"BECBQ","name":"Clabecq","country":"BE 比利时","city":"Clabecq","lat":50.6833,"lng":4.2167},{"id":"p-becom","code":"BECOM","name":"Comines","country":"BE 比利时","city":"Comines","lat":50.7667,"lng":2.9833},{"id":"p-becou","code":"BECOU","name":"Couillet","country":"BE 比利时","city":"Couillet","lat":50.3833,"lng":4.45},{"id":"p-beccs","code":"BECCS","name":"Courcelles","country":"BE 比利时","city":"Courcelles","lat":50.4667,"lng":4.3667},{"id":"p-bedkn","code":"BEDKN","name":"Daknam","country":"BE 比利时","city":"Daknam","lat":51.1333,"lng":3.9833},{"id":"p-bedpy","code":"BEDPY","name":"Dampremy","country":"BE 比利时","city":"Dampremy","lat":50.4167,"lng":4.4},{"id":"p-bedpe","code":"BEDPE","name":"De Pinte","country":"BE 比利时","city":"De Pinte","lat":51,"lng":3.65},{"id":"p-bedez","code":"BEDEZ","name":"Deinze","country":"BE 比利时","city":"Deinze","lat":50.9833,"lng":3.5333},{"id":"p-bednb","code":"BEDNB","name":"Denderbelle","country":"BE 比利时","city":"Denderbelle","lat":51,"lng":4.0833},{"id":"p-bedrw","code":"BEDRW","name":"Denderleeuw","country":"BE 比利时","city":"Denderleeuw","lat":50.8833,"lng":4.0667},{"id":"p-beddr","code":"BEDDR","name":"Dendermonde","country":"BE 比利时","city":"Dendermonde","lat":51.0333,"lng":4.1167},{"id":"p-bedse","code":"BEDSE","name":"Dessel","country":"BE 比利时","city":"Dessel","lat":51.2333,"lng":5.1167},{"id":"p-bedsl","code":"BEDSL","name":"Desselgem","country":"BE 比利时","city":"Desselgem","lat":50.8833,"lng":3.35},{"id":"p-bedeg","code":"BEDEG","name":"Deurne","country":"BE 比利时","city":"Deurne","lat":51.2167,"lng":4.4667},{"id":"p-bedxn","code":"BEDXN","name":"Deux-Acren","country":"BE 比利时","city":"Deux-Acren","lat":50.7333,"lng":3.85},{"id":"p-bedpk","code":"BEDPK","name":"Diepenbeek","country":"BE 比利时","city":"Diepenbeek","lat":50.9,"lng":5.4},{"id":"p-bedik","code":"BEDIK","name":"Diksmuide","country":"BE 比利时","city":"Diksmuide","lat":51.0333,"lng":2.8667},{"id":"p-bedls","code":"BEDLS","name":"Dilsen","country":"BE 比利时","city":"Dilsen","lat":51.0333,"lng":5.7333},{"id":"p-bedia","code":"BEDIA","name":"Dinant","country":"BE 比利时","city":"Dinant","lat":50.2667,"lng":4.9167},{"id":"p-bedel","code":"BEDEL","name":"Doel","country":"BE 比利时","city":"Doel","lat":51.3167,"lng":4.2667},{"id":"p-betrn","code":"BETRN","name":"Doornik (Tournai)","country":"BE 比利时","city":"Doornik (Tournai)","lat":50.6,"lng":3.3833},{"id":"p-bedgn","code":"BEDGN","name":"Drongen","country":"BE 比利时","city":"Drongen","lat":51.05,"lng":3.6667},{"id":"p-beduf","code":"BEDUF","name":"Duffel","country":"BE 比利时","city":"Duffel","lat":51.1,"lng":4.5167},{"id":"p-be9ir","code":"BE9IR","name":"Eben-Emael","country":"BE 比利时","city":"Eben-Emael","lat":50.8,"lng":5.6667},{"id":"p-beeek","code":"BEEEK","name":"Eeklo","country":"BE 比利时","city":"Eeklo","lat":51.1833,"lng":3.5667},{"id":"p-beebz","code":"BEEBZ","name":"Eigenbilzen","country":"BE 比利时","city":"Eigenbilzen","lat":50.8667,"lng":5.5833},{"id":"p-beeht","code":"BEEHT","name":"Eindhout","country":"BE 比利时","city":"Eindhout","lat":51.1,"lng":5},{"id":"p-beein","code":"BEEIN","name":"Eine","country":"BE 比利时","city":"Eine","lat":50.8667,"lng":3.6167},{"id":"p-beesd","code":"BEESD","name":"Eisden","country":"BE 比利时","city":"Eisden","lat":50.9833,"lng":5.7167},{"id":"p-beeqe","code":"BEEQE","name":"Eke","country":"BE 比利时","city":"Eke","lat":50.95,"lng":3.6333},{"id":"p-beeke","code":"BEEKE","name":"Ekeren","country":"BE 比利时","city":"Ekeren","lat":51.2833,"lng":4.4167},{"id":"p-beeks","code":"BEEKS","name":"Eksaarde","country":"BE 比利时","city":"Eksaarde","lat":51.15,"lng":3.9667},{"id":"p-beebm","code":"BEEBM","name":"Emblem","country":"BE 比利时","city":"Emblem","lat":51.1667,"lng":4.6},{"id":"p-beeam","code":"BEEAM","name":"Ename","country":"BE 比利时","city":"Ename","lat":50.85,"lng":3.6333},{"id":"p-beeng","code":"BEENG","name":"Engis","country":"BE 比利时","city":"Engis","lat":50.5833,"lng":5.4167},{"id":"p-bereq","code":"BEREQ","name":"Erquelinnes","country":"BE 比利时","city":"Erquelinnes","lat":50.3,"lng":4.1167},{"id":"p-beere","code":"BEERE","name":"Ertvelde","country":"BE 比利时","city":"Ertvelde","lat":51.1833,"lng":3.75},{"id":"p-beefs","code":"BEEFS","name":"Escanaffles","country":"BE 比利时","city":"Escanaffles","lat":50.75,"lng":3.4333},{"id":"p-bespi","code":"BESPI","name":"Espierres (Spiere)","country":"BE 比利时","city":"Espierres (Spiere)","lat":50.7167,"lng":3.35},{"id":"p-beeqm","code":"BEEQM","name":"Esquelmes","country":"BE 比利时","city":"Esquelmes","lat":50.6667,"lng":3.3333},{"id":"p-beemp","code":"BEEMP","name":"Estaimpuis","country":"BE 比利时","city":"Estaimpuis","lat":50.7,"lng":3.25},{"id":"p-beeet","code":"BEEET","name":"Éthe","country":"BE 比利时","city":"Éthe","lat":49.5833,"lng":5.5833},{"id":"p-beevm","code":"BEEVM","name":"Evergem","country":"BE 比利时","city":"Evergem","lat":51.1167,"lng":3.7},{"id":"p-befcs","code":"BEFCS","name":"Farciennes","country":"BE 比利时","city":"Farciennes","lat":50.4333,"lng":4.55},{"id":"p-befey","code":"BEFEY","name":"Feluy","country":"BE 比利时","city":"Feluy","lat":50.5667,"lng":4.25},{"id":"p-befwi","code":"BEFWI","name":"Flawinne","country":"BE 比利时","city":"Flawinne","lat":50.4667,"lng":4.8},{"id":"p-befma","code":"BEFMA","name":"Flémalle","country":"BE 比利时","city":"Flémalle","lat":50.6,"lng":5.4667},{"id":"p-befln","code":"BEFLN","name":"Flône","country":"BE 比利时","city":"Flône","lat":50.5667,"lng":5.3333},{"id":"p-beflo","code":"BEFLO","name":"Floreffe","country":"BE 比利时","city":"Floreffe","lat":50.4333,"lng":4.7833},{"id":"p-beffx","code":"BEFFX","name":"Floriffoux","country":"BE 比利时","city":"Floriffoux","lat":50.45,"lng":4.7667},{"id":"p-befvt","code":"BEFVT","name":"Fontaine-Valmont","country":"BE 比利时","city":"Fontaine-Valmont","lat":50.3167,"lng":4.2},{"id":"p-befrm","code":"BEFRM","name":"Fortem","country":"BE 比利时","city":"Fortem","lat":51.0167,"lng":2.7333},{"id":"p-befnr","code":"BEFNR","name":"Franière","country":"BE 比利时","city":"Franière","lat":50.4333,"lng":4.7333},{"id":"p-begvr","code":"BEGVR","name":"Gavere","country":"BE 比利时","city":"Gavere","lat":50.9333,"lng":3.6667},{"id":"p-begel","code":"BEGEL","name":"Geel","country":"BE 比利时","city":"Geel","lat":51.1667,"lng":5},{"id":"p-beglk","code":"BEGLK","name":"Gellik","country":"BE 比利时","city":"Gellik","lat":50.8833,"lng":5.6},{"id":"p-begbh","code":"BEGBH","name":"Genenbos","country":"BE 比利时","city":"Genenbos","lat":51.0167,"lng":5.2333},{"id":"p-begnk","code":"BEGNK","name":"Genk","country":"BE 比利时","city":"Genk","lat":50.9667,"lng":5.5},{"id":"p-begne","code":"BEGNE","name":"Gent (Ghent)","country":"BE 比利时","city":"Gent (Ghent)","lat":51.05,"lng":3.7167},{"id":"p-begbu","code":"BEGBU","name":"Gentbrugge","country":"BE 比利时","city":"Gentbrugge","lat":51.05,"lng":3.75},{"id":"p-begea","code":"BEGEA","name":"Geraardsbergen","country":"BE 比利时","city":"Geraardsbergen","lat":50.7667,"lng":3.8667},{"id":"p-beghl","code":"BEGHL","name":"Ghlin","country":"BE 比利时","city":"Ghlin","lat":50.4667,"lng":3.8833},{"id":"p-begdn","code":"BEGDN","name":"Godinne","country":"BE 比利时","city":"Godinne","lat":50.35,"lng":4.8667},{"id":"p-begde","code":"BEGDE","name":"Godsheide","country":"BE 比利时","city":"Godsheide","lat":50.9333,"lng":5.3833},{"id":"p-begos","code":"BEGOS","name":"Gosselies","country":"BE 比利时","city":"Gosselies","lat":50.4667,"lng":4.4167},{"id":"p-beggm","code":"BEGGM","name":"Grembergen","country":"BE 比利时","city":"Grembergen","lat":51.05,"lng":4.1},{"id":"p-begrb","code":"BEGRB","name":"Grimbergen","country":"BE 比利时","city":"Grimbergen","lat":50.9333,"lng":4.3833},{"id":"p-begbb","code":"BEGBB","name":"Grobbendonk","country":"BE 比利时","city":"Grobbendonk","lat":51.2,"lng":4.7167},{"id":"p-begro","code":"BEGRO","name":"Groot Bijgaarden","country":"BE 比利时","city":"Groot Bijgaarden","lat":50.8667,"lng":4.2667},{"id":"p-behct","code":"BEHCT","name":"Haccourt","country":"BE 比利时","city":"Haccourt","lat":50.7333,"lng":5.6667},{"id":"p-behfb","code":"BEHFB","name":"Halle","country":"BE 比利时","city":"Halle","lat":50.7333,"lng":4.2333},{"id":"p-behlu","code":"BEHLU","name":"Halluin","country":"BE 比利时","city":"Halluin","lat":50.7833,"lng":3.1333},{"id":"p-behmm","code":"BEHMM","name":"Hamme","country":"BE 比利时","city":"Hamme","lat":51.0833,"lng":3.5333},{"id":"p-beham","code":"BEHAM","name":"Hamsehoeven","country":"BE 比利时","city":"Hamsehoeven","lat":51.1167,"lng":5.1833},{"id":"p-behmb","code":"BEHMB","name":"Ham-sur-Sambre","country":"BE 比利时","city":"Ham-sur-Sambre","lat":50.4333,"lng":4.6667},{"id":"p-behna","code":"BEHNA","name":"Handzame","country":"BE 比利时","city":"Handzame","lat":51.0167,"lng":3},{"id":"p-behbe","code":"BEHBE","name":"Hansbeke","country":"BE 比利时","city":"Hansbeke","lat":51.0667,"lng":3.5333},{"id":"p-behcs","code":"BEHCS","name":"Harchies","country":"BE 比利时","city":"Harchies","lat":50.4833,"lng":3.6833},{"id":"p-behej","code":"BEHEJ","name":"Harelbeke","country":"BE 比利时","city":"Harelbeke","lat":50.85,"lng":3.3},{"id":"p-behar","code":"BEHAR","name":"Haren","country":"BE 比利时","city":"Haren","lat":50.8833,"lng":4.4167},{"id":"p-behss","code":"BEHSS","name":"Hasselt","country":"BE 比利时","city":"Hasselt","lat":50.9333,"lng":5.3333},{"id":"p-behpd","code":"BEHPD","name":"Hastière-par-delà","country":"BE 比利时","city":"Hastière-par-delà","lat":50.2167,"lng":4.8333},{"id":"p-behtj","code":"BEHTJ","name":"Hautrage","country":"BE 比利时","city":"Hautrage","lat":50.4833,"lng":3.75},{"id":"p-behre","code":"BEHRE","name":"Havré","country":"BE 比利时","city":"Havré","lat":50.4667,"lng":4.0333},{"id":"p-behee","code":"BEHEE","name":"Heer","country":"BE 比利时","city":"Heer","lat":50.1667,"lng":4.8333},{"id":"p-behdk","code":"BEHDK","name":"Heindonk","country":"BE 比利时","city":"Heindonk","lat":51.0667,"lng":4.4},{"id":"p-behkn","code":"BEHKN","name":"Helkijn","country":"BE 比利时","city":"Helkijn","lat":50.7333,"lng":3.3833},{"id":"p-behex","code":"BEHEX","name":"Hemiksem","country":"BE 比利时","city":"Hemiksem","lat":51.15,"lng":4.35},{"id":"p-behns","code":"BEHNS","name":"Hensies","country":"BE 比利时","city":"Hensies","lat":50.4333,"lng":3.6667},{"id":"p-behyb","code":"BEHYB","name":"Herdersem","country":"BE 比利时","city":"Herdersem","lat":50.9667,"lng":4.0667},{"id":"p-behet","code":"BEHET","name":"Herent","country":"BE 比利时","city":"Herent","lat":51.2,"lng":5.45},{"id":"p-beher","code":"BEHER","name":"Herentals","country":"BE 比利时","city":"Herentals","lat":51.1833,"lng":4.8333},{"id":"p-behmh","code":"BEHMH","name":"Hermalle-sous-Huy","country":"BE 比利时","city":"Hermalle-sous-Huy","lat":50.55,"lng":5.3667},{"id":"p-behtm","code":"BEHTM","name":"Hermeton-sur-Meuse","country":"BE 比利时","city":"Hermeton-sur-Meuse","lat":50.2,"lng":4.8167},{"id":"p-behrs","code":"BEHRS","name":"Herstal","country":"BE 比利时","city":"Herstal","lat":50.6667,"lng":5.6333},{"id":"p-behve","code":"BEHVE","name":"Hever","country":"BE 比利时","city":"Hever","lat":51,"lng":4.55},{"id":"p-behbn","code":"BEHBN","name":"Hoboken","country":"BE 比利时","city":"Hoboken","lat":51.1667,"lng":4.35},{"id":"p-behsd","code":"BEHSD","name":"Hofstade","country":"BE 比利时","city":"Hofstade","lat":50.9667,"lng":4.0333},{"id":"p-behol","code":"BEHOL","name":"Hollain","country":"BE 比利时","city":"Hollain","lat":50.5333,"lng":3.4167},{"id":"p-behga","code":"BEHGA","name":"Houdeng-Aimeries","country":"BE 比利时","city":"Houdeng-Aimeries","lat":50.4833,"lng":4.1333},{"id":"p-behgg","code":"BEHGG","name":"Houdeng-Goegnies","country":"BE 比利时","city":"Houdeng-Goegnies","lat":50.4833,"lng":4.15},{"id":"p-behrp","code":"BEHRP","name":"Hourpes","country":"BE 比利时","city":"Hourpes","lat":50.3667,"lng":4.2833},{"id":"p-behux","code":"BEHUX","name":"Houx","country":"BE 比利时","city":"Houx","lat":50.3,"lng":4.9},{"id":"p-behum","code":"BEHUM","name":"Humbeek","country":"BE 比利时","city":"Humbeek","lat":50.9667,"lng":4.3833},{"id":"p-behuy","code":"BEHUY","name":"Huy","country":"BE 比利时","city":"Huy","lat":50.5167,"lng":5.2333},{"id":"p-beige","code":"BEIGE","name":"Ingelmunster","country":"BE 比利时","city":"Ingelmunster","lat":50.9167,"lng":3.25},{"id":"p-beisr","code":"BEISR","name":"Isières","country":"BE 比利时","city":"Isières","lat":50.6667,"lng":3.8167},{"id":"p-beitr","code":"BEITR","name":"Itter (Ittre)","country":"BE 比利时","city":"Itter (Ittre)","lat":50.65,"lng":4.2667},{"id":"p-beitr","code":"BEITR","name":"Ittre (Itter)","country":"BE 比利时","city":"Ittre (Itter)","lat":50.65,"lng":4.2667},{"id":"p-beyrt","code":"BEYRT","name":"Ivoz-Ramet","country":"BE 比利时","city":"Ivoz-Ramet","lat":50.5833,"lng":5.4333},{"id":"p-beizg","code":"BEIZG","name":"Izegem","country":"BE 比利时","city":"Izegem","lat":50.9167,"lng":3.2},{"id":"p-bejam","code":"BEJAM","name":"Jambes","country":"BE 比利时","city":"Jambes","lat":50.45,"lng":4.8833},{"id":"p-bejav","code":"BEJAV","name":"Java","country":"BE 比利时","city":"Java","lat":50.5167,"lng":5.15},{"id":"p-bejps","code":"BEJPS","name":"Jemeppe-sur-Sambre","country":"BE 比利时","city":"Jemeppe-sur-Sambre","lat":50.4667,"lng":4.6667},{"id":"p-bejak","code":"BEJAK","name":"Jupille-sur-Meuse","country":"BE 比利时","city":"Jupille-sur-Meuse","lat":50.65,"lng":5.6333},{"id":"p-bekct","code":"BEKCT","name":"Kachtem","country":"BE 比利时","city":"Kachtem","lat":50.9333,"lng":3.1833},{"id":"p-bekai","code":"BEKAI","name":"Kain","country":"BE 比利时","city":"Kain","lat":50.6333,"lng":3.3667},{"id":"p-bekou","code":"BEKOU","name":"Kallo","country":"BE 比利时","city":"Kallo","lat":51.25,"lng":4.2833},{"id":"p-bekmh","code":"BEKMH","name":"Kampenhout","country":"BE 比利时","city":"Kampenhout","lat":50.95,"lng":4.55},{"id":"p-bekan","code":"BEKAN","name":"Kanne (Canne)","country":"BE 比利时","city":"Kanne (Canne)","lat":50.8167,"lng":5.6667},{"id":"p-bekpb","code":"BEKPB","name":"Kapelle-op-den-Bos","country":"BE 比利时","city":"Kapelle-op-den-Bos","lat":51.0167,"lng":4.3667},{"id":"p-bekle","code":"BEKLE","name":"Kaulille","country":"BE 比利时","city":"Kaulille","lat":51.1833,"lng":5.5167},{"id":"p-bekhn","code":"BEKHN","name":"Kerkhove","country":"BE 比利时","city":"Kerkhove","lat":50.8,"lng":3.5},{"id":"p-beksn","code":"BEKSN","name":"Kessenich","country":"BE 比利时","city":"Kessenich","lat":51.15,"lng":5.8167},{"id":"p-bekde","code":"BEKDE","name":"Kieldrecht","country":"BE 比利时","city":"Kieldrecht","lat":51.2833,"lng":4.1667},{"id":"p-bekro","code":"BEKRO","name":"Kinrooi","country":"BE 比利时","city":"Kinrooi","lat":51.15,"lng":5.75},{"id":"p-bekve","code":"BEKVE","name":"Klein Veerle","country":"BE 比利时","city":"Klein Veerle","lat":51.3333,"lng":4.6667},{"id":"p-beksr","code":"BEKSR","name":"Kluisbergen","country":"BE 比利时","city":"Kluisbergen","lat":50.7833,"lng":3.5167},{"id":"p-bekns","code":"BEKNS","name":"Knesselaere","country":"BE 比利时","city":"Knesselaere","lat":51.1333,"lng":3.4167},{"id":"p-bekjk","code":"BEKJK","name":"Kortrijk","country":"BE 比利时","city":"Kortrijk","lat":50.8333,"lng":3.2667},{"id":"p-bekek","code":"BEKEK","name":"Kruibeke","country":"BE 比利时","city":"Kruibeke","lat":51.1667,"lng":4.3167},{"id":"p-bekrn","code":"BEKRN","name":"Kuringen","country":"BE 比利时","city":"Kuringen","lat":50.95,"lng":5.3},{"id":"p-bekuu","code":"BEKUU","name":"Kuurne","country":"BE 比利时","city":"Kuurne","lat":50.85,"lng":3.2833},{"id":"p-bekwa","code":"BEKWA","name":"Kwaadmechelen","country":"BE 比利时","city":"Kwaadmechelen","lat":51.1,"lng":5.1333},{"id":"p-berar","code":"BERAR","name":"La Roche-en-Ardenne","country":"BE 比利时","city":"La Roche-en-Ardenne","lat":50.1833,"lng":5.5833},{"id":"p-bebsi","code":"BEBSI","name":"Labuissière","country":"BE 比利时","city":"Labuissière","lat":50.3167,"lng":4.1667},{"id":"p-beluz","code":"BELUZ","name":"Ladeuze","country":"BE 比利时","city":"Ladeuze","lat":50.5667,"lng":3.7667},{"id":"p-belan","code":"BELAN","name":"Lanaken","country":"BE 比利时","city":"Lanaken","lat":50.8833,"lng":5.65},{"id":"p-belny","code":"BELNY","name":"Lanaye (Ternaaien)","country":"BE 比利时","city":"Lanaye (Ternaaien)","lat":50.7833,"lng":5.6833},{"id":"p-belgm","code":"BELGM","name":"Landegem","country":"BE 比利时","city":"Landegem","lat":51.05,"lng":3.5667},{"id":"p-belds","code":"BELDS","name":"Landelies","country":"BE 比利时","city":"Landelies","lat":50.3833,"lng":4.35},{"id":"p-belgb","code":"BELGB","name":"Langerbrugge","country":"BE 比利时","city":"Langerbrugge","lat":51.1167,"lng":3.7333},{"id":"p-belgo","code":"BELGO","name":"Langerlo","country":"BE 比利时","city":"Langerlo","lat":50.95,"lng":5.5},{"id":"p-belnk","code":"BELNK","name":"Lanklaar","country":"BE 比利时","city":"Lanklaar","lat":51.0167,"lng":5.7167},{"id":"p-belqa","code":"BELQA","name":"Lanquesaint","country":"BE 比利时","city":"Lanquesaint","lat":50.65,"lng":3.8},{"id":"p-belpi","code":"BELPI","name":"Laplaigne","country":"BE 比利时","city":"Laplaigne","lat":50.5167,"lng":3.4333},{"id":"p-belaw","code":"BELAW","name":"Lauwe","country":"BE 比利时","city":"Lauwe","lat":50.8,"lng":3.1833},{"id":"p-berou","code":"BEROU","name":"Le Roeulx","country":"BE 比利时","city":"Le Roeulx","lat":50.5,"lng":4.1},{"id":"p-belrg","code":"BELRG","name":"Ledeberg","country":"BE 比利时","city":"Ledeberg","lat":51.0333,"lng":3.75},{"id":"p-belfe","code":"BELFE","name":"Leffinge","country":"BE 比利时","city":"Leffinge","lat":51.1667,"lng":2.8833},{"id":"p-belbe","code":"BELBE","name":"Lembeek","country":"BE 比利时","city":"Lembeek","lat":50.7167,"lng":4.2167},{"id":"p-belpg","code":"BELPG","name":"Leopoldsburg","country":"BE 比利时","city":"Leopoldsburg","lat":51.1167,"lng":5.25},{"id":"p-beles","code":"BELES","name":"Lessines","country":"BE 比利时","city":"Lessines","lat":50.7167,"lng":3.8333},{"id":"p-beleu","code":"BELEU","name":"Leuven","country":"BE 比利时","city":"Leuven","lat":50.8833,"lng":4.7},{"id":"p-belhk","code":"BELHK","name":"Liefkenshoek","country":"BE 比利时","city":"Liefkenshoek","lat":51.0167,"lng":3.8833},{"id":"p-belgg","code":"BELGG","name":"Liège","country":"BE 比利时","city":"Liège","lat":50.6333,"lng":5.5667},{"id":"p-belie","code":"BELIE","name":"Lier","country":"BE 比利时","city":"Lier","lat":51.1333,"lng":4.5667},{"id":"p-belil","code":"BELIL","name":"Lillo","country":"BE 比利时","city":"Lillo","lat":51.3,"lng":4.3},{"id":"p-belsg","code":"BELSG","name":"Lissewege","country":"BE 比利时","city":"Lissewege","lat":51.3,"lng":3.1833},{"id":"p-belix","code":"BELIX","name":"Lixhe","country":"BE 比利时","city":"Lixhe","lat":50.75,"lng":5.6667},{"id":"p-belbs","code":"BELBS","name":"Lobbes","country":"BE 比利时","city":"Lobbes","lat":50.35,"lng":4.25},{"id":"p-belok","code":"BELOK","name":"Lokeren","country":"BE 比利时","city":"Lokeren","lat":51.1,"lng":3.9833},{"id":"p-belml","code":"BELML","name":"Lommel","country":"BE 比利时","city":"Lommel","lat":51.2333,"lng":5.3},{"id":"p-belot","code":"BELOT","name":"Lot","country":"BE 比利时","city":"Lot","lat":50.7667,"lng":4.2667},{"id":"p-beloz","code":"BELOZ","name":"Lozen","country":"BE 比利时","city":"Lozen","lat":51.2,"lng":5.5667},{"id":"p-belum","code":"BELUM","name":"Lummen","country":"BE 比利时","city":"Lummen","lat":50.9833,"lng":5.2},{"id":"p-belui","code":"BELUI","name":"Lustin","country":"BE 比利时","city":"Lustin","lat":50.3833,"lng":4.9},{"id":"p-bemsk","code":"BEMSK","name":"Maaseik","country":"BE 比利时","city":"Maaseik","lat":51.1,"lng":5.8},{"id":"p-bemmn","code":"BEMMN","name":"Maasmechelen","country":"BE 比利时","city":"Maasmechelen","lat":50.8167,"lng":5.6667},{"id":"p-bemff","code":"BEMFF","name":"Maffle","country":"BE 比利时","city":"Maffle","lat":50.6167,"lng":3.8},{"id":"p-bemsr","code":"BEMSR","name":"Maisières","country":"BE 比利时","city":"Maisières","lat":50.4833,"lng":3.95},{"id":"p-beman","code":"BEMAN","name":"Manage","country":"BE 比利时","city":"Manage","lat":50.5,"lng":4.2167},{"id":"p-bewbr","code":"BEWBR","name":"Maransart","country":"BE 比利时","city":"Maransart","lat":50.6667,"lng":4.45},{"id":"p-bemld","code":"BEMLD","name":"Marche-les-Dames","country":"BE 比利时","city":"Marche-les-Dames","lat":50.4833,"lng":4.9667},{"id":"p-bemap","code":"BEMAP","name":"Marchienne-au-Pont","country":"BE 比利时","city":"Marchienne-au-Pont","lat":50.4,"lng":4.3833},{"id":"p-bemly","code":"BEMLY","name":"Marly","country":"BE 比利时","city":"Marly","lat":50.8833,"lng":4.3833},{"id":"p-bemhn","code":"BEMHN","name":"Massenhoven","country":"BE 比利时","city":"Massenhoven","lat":51.2,"lng":4.6167},{"id":"p-bemby","code":"BEMBY","name":"Maubray","country":"BE 比利时","city":"Maubray","lat":50.55,"lng":3.5},{"id":"p-bemrg","code":"BEMRG","name":"Maurage","country":"BE 比利时","city":"Maurage","lat":50.45,"lng":4.0833},{"id":"p-beech","code":"BEECH","name":"Mechelen","country":"BE 比利时","city":"Mechelen","lat":51.0333,"lng":4.4667},{"id":"p-bemee","code":"BEMEE","name":"Meer","country":"BE 比利时","city":"Meer","lat":51.45,"lng":4.7333},{"id":"p-bemeh","code":"BEMEH","name":"Meerhout","country":"BE 比利时","city":"Meerhout","lat":51.1333,"lng":5.0833},{"id":"p-bemgm","code":"BEMGM","name":"Meigem","country":"BE 比利时","city":"Meigem","lat":51.0167,"lng":3.5333},{"id":"p-bemeg","code":"BEMEG","name":"Meilegem","country":"BE 比利时","city":"Meilegem","lat":50.9,"lng":3.7},{"id":"p-bemel","code":"BEMEL","name":"Melle","country":"BE 比利时","city":"Melle","lat":51,"lng":3.8},{"id":"p-beels","code":"BEELS","name":"Melsen","country":"BE 比利时","city":"Melsen","lat":50.9667,"lng":3.7},{"id":"p-bemen","code":"BEMEN","name":"Menen","country":"BE 比利时","city":"Menen","lat":50.8,"lng":3.1167},{"id":"p-bemrl","code":"BEMRL","name":"Merelbeke","country":"BE 比利时","city":"Merelbeke","lat":51,"lng":3.75},{"id":"p-bemrd","code":"BEMRD","name":"Merendree","country":"BE 比利时","city":"Merendree","lat":51.0833,"lng":3.5833},{"id":"p-bemrm","code":"BEMRM","name":"Merkem","country":"BE 比利时","city":"Merkem","lat":50.95,"lng":2.85},{"id":"p-bemrk","code":"BEMRK","name":"Merksem","country":"BE 比利时","city":"Merksem","lat":51.25,"lng":4.45},{"id":"p-bemsp","code":"BEMSP","name":"Mespelare","country":"BE 比利时","city":"Mespelare","lat":51,"lng":4.0667},{"id":"p-bemno","code":"BEMNO","name":"Moen","country":"BE 比利时","city":"Moen","lat":50.7667,"lng":3.4},{"id":"p-bemew","code":"BEMEW","name":"Moerbeke-Waas","country":"BE 比利时","city":"Moerbeke-Waas","lat":51.1667,"lng":3.9333},{"id":"p-bemrb","code":"BEMRB","name":"Moerbrugge","country":"BE 比利时","city":"Moerbrugge","lat":51.1667,"lng":3.2667},{"id":"p-bemzk","code":"BEMZK","name":"Moerzeke","country":"BE 比利时","city":"Moerzeke","lat":51.0667,"lng":4.15},{"id":"p-bemgn","code":"BEMGN","name":"Moignelée","country":"BE 比利时","city":"Moignelée","lat":50.45,"lng":4.5833},{"id":"p-bemlo","code":"BEMLO","name":"Mol","country":"BE 比利时","city":"Mol","lat":51.1833,"lng":5.1},{"id":"p-bemsj","code":"BEMSJ","name":"Molenbeek-Saint-Jean (Sint-Jans-Molenbeek)/Brussel (Bruxelles)","country":"BE 比利时","city":"Molenbeek-Saint-Jean (Sint-Jans-Molenbeek)/Brussel (Bruxelles)","lat":50.85,"lng":4.3167},{"id":"p-bemss","code":"BEMSS","name":"Monceau-sur-Sambre","country":"BE 比利时","city":"Monceau-sur-Sambre","lat":50.4167,"lng":4.3667},{"id":"p-bemqs","code":"BEMQS","name":"Mons","country":"BE 比利时","city":"Mons","lat":50.45,"lng":3.9333},{"id":"p-bemsi","code":"BEMSI","name":"Monsin","country":"BE 比利时","city":"Monsin","lat":50.6667,"lng":5.6333},{"id":"p-bemgs","code":"BEMGS","name":"Montignies-sur-Sambre","country":"BE 比利时","city":"Montignies-sur-Sambre","lat":50.4,"lng":4.5},{"id":"p-bemro","code":"BEMRO","name":"Mornimont","country":"BE 比利时","city":"Mornimont","lat":50.45,"lng":4.7},{"id":"p-bemui","code":"BEMUI","name":"Muizen","country":"BE 比利时","city":"Muizen","lat":51.0167,"lng":4.5167},{"id":"p-benmc","code":"BENMC","name":"Namêche","country":"BE 比利时","city":"Namêche","lat":50.4667,"lng":5},{"id":"p-benam","code":"BENAM","name":"Namur","country":"BE 比利时","city":"Namur","lat":50.4667,"lng":4.8667},{"id":"p-benvh","code":"BENVH","name":"Neder-Over-Heembeek","country":"BE 比利时","city":"Neder-Over-Heembeek","lat":50.9,"lng":4.3833},{"id":"p-benha","code":"BENHA","name":"Neerharen","country":"BE 比利时","city":"Neerharen","lat":50.9167,"lng":5.6833},{"id":"p-benrt","code":"BENRT","name":"Neeroeteren","country":"BE 比利时","city":"Neeroeteren","lat":51.0833,"lng":5.7},{"id":"p-benrp","code":"BENRP","name":"Neerpelt","country":"BE 比利时","city":"Neerpelt","lat":51.2167,"lng":5.4167},{"id":"p-benfe","code":"BENFE","name":"Neffe","country":"BE 比利时","city":"Neffe","lat":50.2333,"lng":4.9167},{"id":"p-benhy","code":"BENHY","name":"Neuville-sous-Huy","country":"BE 比利时","city":"Neuville-sous-Huy","lat":50.5333,"lng":5.2833},{"id":"p-benvl","code":"BENVL","name":"Nevele","country":"BE 比利时","city":"Nevele","lat":51.0333,"lng":3.55},{"id":"p-benil","code":"BENIL","name":"Niel","country":"BE 比利时","city":"Niel","lat":51.1167,"lng":4.3333},{"id":"p-benie","code":"BENIE","name":"Nieuwpoort","country":"BE 比利时","city":"Nieuwpoort","lat":51.1333,"lng":2.75},{"id":"p-benyl","code":"BENYL","name":"Nijlen","country":"BE 比利时","city":"Nijlen","lat":51.1667,"lng":4.65},{"id":"p-benba","code":"BENBA","name":"Nimy","country":"BE 比利时","city":"Nimy","lat":50.4667,"lng":3.95},{"id":"p-bennv","code":"BENNV","name":"Ninove","country":"BE 比利时","city":"Ninove","lat":50.8333,"lng":4.0167},{"id":"p-benvn","code":"BENVN","name":"Noeveren","country":"BE 比利时","city":"Noeveren","lat":51.1,"lng":4.35},{"id":"p-beobr","code":"BEOBR","name":"Obourg","country":"BE 比利时","city":"Obourg","lat":50.4667,"lng":4},{"id":"p-beoel","code":"BEOEL","name":"Oelegem","country":"BE 比利时","city":"Oelegem","lat":51.2167,"lng":4.5833},