{
  "version": "2026.01",
  "lastUpdated": "2026-01-27",
  "totalPorts": 11802,
  "continents": {
    "AS": {
      "code": "AS",
      "name": "亚洲",
      "nameEn": "Asia",
      "totalPorts": 1496,
      "regions": {
        "EA": {
          "code": "EA",
          "name": "东亚",
          "nameEn": "East Asia",
          "totalPorts": 583,
          "countries": {
            "CN": {
              "code": "CN",
              "name": "中国",
              "nameEn": "China",
              "totalPorts": 371,
              "ports": [
                {
                  "code": "CNTXG",
                  "name": "Tianjin Xingang Pt",
                  "nameZh": "天津港",
                  "city": "Tianjin Xingang Pt",
                  "lat": 38.9833,
                  "lng": 117.7
                },
                {
                  "code": "CNQIN",
                  "name": "Qingdao",
                  "nameZh": "青岛市",
                  "city": "Qingdao",
                  "lat": 36.05,
                  "lng": 120.3167
                },
                {
                  "code": "CNDAL",
                  "name": "Dalian",
                  "nameZh": "大连港",
                  "city": "Dalian",
                  "lat": 38.9167,
                  "lng": 121.6
                },
                {
                  "code": "CNYTN",
                  "name": "Yantian",
                  "nameZh": "盐田区",
                  "city": "Yantian",
                  "lat": 22.6,
                  "lng": 114.3
                },
                {
                  "code": "CNLYG",
                  "name": "Lianyungang",
                  "nameZh": "连云港市",
                  "city": "Lianyungang",
                  "lat": 34.7167,
                  "lng": 119.4333
                },
                {
                  "code": "CNZJG",
                  "name": "Zhangjiagang",
                  "nameZh": "张家港市",
                  "city": "Zhangjiagang",
                  "lat": 31.8667,
                  "lng": 120.5333
                },
                {
                  "code": "CNPDG",
                  "name": "Pudong/Shanghai",
                  "nameZh": "浦东新区",
                  "city": "Pudong/Shanghai",
                  "lat": 31.2333,
                  "lng": 121.5
                },
                {
                  "code": "CNSGH",
                  "name": "Shanghai",
                  "nameZh": "上海市",
                  "city": "Shanghai",
                  "lat": 31.2333,
                  "lng": 121.4833
                },
                {
                  "code": "CNSHG",
                  "name": "Shanghai Pt",
                  "nameZh": "上海港",
                  "city": "Shanghai Pt",
                  "lat": 30.6333,
                  "lng": 122.0667
                },
                {
                  "code": "CNCQI",
                  "name": "Chongqing",
                  "nameZh": "重庆主城区",
                  "city": "Chongqing",
                  "lat": 29.5833,
                  "lng": 106.55
                },
                {
                  "code": "CNSNZ",
                  "name": "Shenzhen",
                  "nameZh": "深圳",
                  "city": "Shenzhen",
                  "lat": 22.55,
                  "lng": 114.1167
                },
                {
                  "code": "CNSZP",
                  "name": "Shenzhen Pt",
                  "nameZh": "深圳港",
                  "city": "Shenzhen Pt",
                  "lat": 22.5,
                  "lng": 113.8833
                },
                {
                  "code": "CNGGZ",
                  "name": "Guangzhou",
                  "nameZh": "广州市",
                  "city": "Guangzhou",
                  "lat": 23.1333,
                  "lng": 113.2333
                },
                {
                  "code": "CNGZG",
                  "name": "Guangzhou Pt",
                  "nameZh": "广州港",
                  "city": "Guangzhou Pt",
                  "lat": 23.1333,
                  "lng": 113.2333
                },
                {
                  "code": "CNSZH",
                  "name": "Suzhou",
                  "nameZh": "苏州市",
                  "city": "Suzhou",
                  "lat": 31.3167,
                  "lng": 120.6167
                },
                {
                  "code": "CNNHN",
                  "name": "Wuhan",
                  "nameZh": "武汉",
                  "city": "Wuhan",
                  "lat": 30.5833,
                  "lng": 114.2833
                },
                {
                  "code": "CNCZX",
                  "name": "Changzhou",
                  "nameZh": "常州市",
                  "city": "Changzhou",
                  "lat": 31.7833,
                  "lng": 119.9667
                },
                {
                  "code": "CNZZH",
                  "name": "Zhangzhou",
                  "nameZh": "漳州市",
                  "city": "Zhangzhou",
                  "lat": 24.5167,
                  "lng": 117.65
                },
                {
                  "code": "CNTNG",
                  "name": "Tianjin Pt",
                  "nameZh": "天津港",
                  "city": "Tianjin Pt",
                  "lat": 38.9833,
                  "lng": 117.75
                },
                {
                  "code": "CNTNJ",
                  "name": "Tianjin",
                  "nameZh": "天津",
                  "city": "Tianjin",
                  "lat": 39.0333,
                  "lng": 117.2
                },
                {
                  "code": "CNNJI",
                  "name": "Nanjing",
                  "nameZh": "南京市",
                  "city": "Nanjing",
                  "lat": 32.05,
                  "lng": 118.7667
                },
                {
                  "code": "CNNBG",
                  "name": "Ningbo Pt",
                  "nameZh": "宁波港",
                  "city": "Ningbo Pt",
                  "lat": 29.9167,
                  "lng": 121.6667
                },
                {
                  "code": "CNNBO",
                  "name": "Ningbo",
                  "nameZh": "宁波市",
                  "city": "Ningbo",
                  "lat": 29.8667,
                  "lng": 121.55
                },
                {
                  "code": "CNCSH",
                  "name": "Changsha",
                  "nameZh": "长沙市",
                  "city": "Changsha",
                  "lat": 28.2,
                  "lng": 112.9833
                },
                {
                  "code": "CNFZH",
                  "name": "Fuzhou",
                  "nameZh": "福州市",
                  "city": "Fuzhou",
                  "lat": 26.0833,
                  "lng": 119.3
                },
                {
                  "code": "CNZZU",
                  "name": "Fuzhou",
                  "nameZh": "抚州",
                  "city": "Fuzhou",
                  "lat": 24.5167,
                  "lng": 117.65
                },
                {
                  "code": "CNHRN",
                  "name": "Harbin",
                  "nameZh": "哈尔滨",
                  "city": "Harbin",
                  "lat": 45.7333,
                  "lng": 126.6
                },
                {
                  "code": "CNNIN",
                  "name": "Nanning",
                  "nameZh": "南宁",
                  "city": "Nanning",
                  "lat": 22.8,
                  "lng": 108.3167
                },
                {
                  "code": "CNHHT",
                  "name": "Haitian Terminal/ Xiamen",
                  "nameZh": "海天码头/厦门",
                  "city": "Haitian Terminal/ Xiamen",
                  "lat": 27.1,
                  "lng": 120.3
                },
                {
                  "code": "CNXAM",
                  "name": "Xiamen",
                  "nameZh": "厦门市",
                  "city": "Xiamen",
                  "lat": 24.45,
                  "lng": 118.1
                },
                {
                  "code": "CNXAN",
                  "name": "Xiang'an, Xiamen",
                  "nameZh": "象安，厦门",
                  "city": "Xiang'an, Xiamen",
                  "lat": 24.6333,
                  "lng": 118.25
                },
                {
                  "code": "CNXMG",
                  "name": "Xiamen Pt",
                  "nameZh": "厦门港",
                  "city": "Xiamen Pt",
                  "lat": 24.35,
                  "lng": 118.2
                },
                {
                  "code": "CNXXY",
                  "name": "Xiangyu Terminal/ Xiamen",
                  "nameZh": "翔宇码头/厦门",
                  "city": "Xiangyu Terminal/ Xiamen",
                  "lat": 27.1,
                  "lng": 120.3167
                },
                {
                  "code": "CNHIG",
                  "name": "Haikou Pt",
                  "nameZh": "秀英港",
                  "city": "Haikou Pt",
                  "lat": 20.0333,
                  "lng": 110.1667
                },
                {
                  "code": "CNHKO",
                  "name": "Haikou",
                  "nameZh": "海口市",
                  "city": "Haikou",
                  "lat": 20.0333,
                  "lng": 110.3333
                },
                {
                  "code": "CNHXG",
                  "name": "Haikou New Pt",
                  "nameZh": "新港",
                  "city": "Haikou New Pt",
                  "lat": 20.25,
                  "lng": 108.8333
                },
                {
                  "code": "CNSYA",
                  "name": "Sanya Pt",
                  "nameZh": "三亚港",
                  "city": "Sanya Pt",
                  "lat": 33.7833,
                  "lng": 120.25
                },
                {
                  "code": "CNAIN",
                  "name": "Huaiyin",
                  "nameZh": "淮阴",
                  "city": "Huaiyin",
                  "lat": 33.6333,
                  "lng": 119.0167
                },
                {
                  "code": "CNAJG",
                  "name": "Aojiang Pt",
                  "nameZh": "鳌江港",
                  "city": "Aojiang Pt",
                  "lat": 27.5833,
                  "lng": 120.45
                },
                {
                  "code": "CNANG",
                  "name": "Huangxian",
                  "nameZh": "黄县",
                  "city": "Huangxian",
                  "lat": 29.55,
                  "lng": 121.5667
                },
                {
                  "code": "CNANQ",
                  "name": "Anqiu",
                  "nameZh": "安丘",
                  "city": "Anqiu",
                  "lat": 36.4167,
                  "lng": 119.1833
                },
                {
                  "code": "CNANT",
                  "name": "Anting",
                  "nameZh": "安亭镇",
                  "city": "Anting",
                  "lat": 31.3,
                  "lng": 121.15
                },
                {
                  "code": "CNAPP",
                  "name": "Anpu",
                  "nameZh": "安铺",
                  "city": "Anpu",
                  "lat": 21.3833,
                  "lng": 109.8333
                },
                {
                  "code": "CNAQG",
                  "name": "Anqing",
                  "nameZh": "安庆市",
                  "city": "Anqing",
                  "lat": 30.5167,
                  "lng": 117.0333
                },
                {
                  "code": "CNASW",
                  "name": "Aoshanwei",
                  "nameZh": "鳌山尾",
                  "city": "Aoshanwei",
                  "lat": 36.35,
                  "lng": 120.6667
                },
                {
                  "code": "CNBCG",
                  "name": "Baiceng",
                  "nameZh": "白层镇",
                  "city": "Baiceng",
                  "lat": 25.4333,
                  "lng": 105.8
                },
                {
                  "code": "CNBCO",
                  "name": "Bacao",
                  "nameZh": "八槽",
                  "city": "Bacao",
                  "lat": 25.4667,
                  "lng": 105.7833
                },
                {
                  "code": "CNBDG",
                  "name": "Badong",
                  "nameZh": "巴东",
                  "city": "Badong",
                  "lat": 31.0333,
                  "lng": 110.3833
                },
                {
                  "code": "CNBEI",
                  "name": "Beilun",
                  "nameZh": "北仑",
                  "city": "Beilun",
                  "lat": 29.9333,
                  "lng": 121.8833
                },
                {
                  "code": "CNBHX",
                  "name": "Binhai",
                  "nameZh": "滨海",
                  "city": "Binhai",
                  "lat": 33.7167,
                  "lng": 119.6167
                },
                {
                  "code": "CNBIH",
                  "name": "Beihai Pt",
                  "nameZh": "北海港",
                  "city": "Beihai Pt",
                  "lat": 21.4667,
                  "lng": 109.1167
                },
                {
                  "code": "CNBIJ",
                  "name": "Beijiao",
                  "nameZh": "北滘镇",
                  "city": "Beijiao",
                  "lat": 22.9167,
                  "lng": 113.2
                },
                {
                  "code": "CNBLX",
                  "name": "Honghai Pt",
                  "nameZh": "红海港",
                  "city": "Honghai Pt",
                  "lat": 23.1667,
                  "lng": 114.2667
                },
                {
                  "code": "CNBMJ",
                  "name": "Baimajing",
                  "nameZh": "白马井镇",
                  "city": "Baimajing",
                  "lat": 19.7,
                  "lng": 109.2167
                },
                {
                  "code": "CNBSD",
                  "name": "Baoshan Pt",
                  "nameZh": "宝山港",
                  "city": "Baoshan Pt",
                  "lat": 31.4167,
                  "lng": 121.4833
                },
                {
                  "code": "CNBSP",
                  "name": "Basuo Pt",
                  "nameZh": "八所港",
                  "city": "Basuo Pt",
                  "lat": 19,
                  "lng": 108.6167
                },
                {
                  "code": "CNBYA",
                  "name": "Bayan",
                  "nameZh": "巴彦",
                  "city": "Bayan",
                  "lat": 46.0833,
                  "lng": 127.4
                },
                {
                  "code": "CNBYG",
                  "name": "Baiyang",
                  "nameZh": "白洋",
                  "city": "Baiyang",
                  "lat": 30.4333,
                  "lng": 111.5167
                },
                {
                  "code": "CNBYN",
                  "name": "Binyang",
                  "nameZh": "宾阳",
                  "city": "Binyang",
                  "lat": 27.25,
                  "lng": 120.3333
                },
                {
                  "code": "CNBZG",
                  "name": "Bozhong",
                  "nameZh": "博中",
                  "city": "Bozhong",
                  "lat": 38.45,
                  "lng": 118.4333
                },
                {
                  "code": "CNCDH",
                  "name": "Changdianhekou",
                  "nameZh": "长淀河口",
                  "city": "Changdianhekou",
                  "lat": 40.4167,
                  "lng": 124.8
                },
                {
                  "code": "CNCFD",
                  "name": "Caofeidian Pt",
                  "nameZh": "曹妃甸港",
                  "city": "Caofeidian Pt",
                  "lat": 38.95,
                  "lng": 118.5333
                },
                {
                  "code": "CNCGM",
                  "name": "Chongming",
                  "nameZh": "崇明",
                  "city": "Chongming",
                  "lat": 31.6333,
                  "lng": 121.4
                },
                {
                  "code": "CNCGS",
                  "name": "Changshu Pt",
                  "nameZh": "常熟港",
                  "city": "Changshu Pt",
                  "lat": 31.65,
                  "lng": 120.7167
                },
                {
                  "code": "CNCGW",
                  "name": "Cangwu",
                  "nameZh": "苍梧",
                  "city": "Cangwu",
                  "lat": 23.4833,
                  "lng": 111.3167
                },
                {
                  "code": "CNCHI",
                  "name": "Chizhou",
                  "nameZh": "池州市",
                  "city": "Chizhou",
                  "lat": 30.65,
                  "lng": 117.4667
                },
                {
                  "code": "CNCHU",
                  "name": "Chaohu",
                  "nameZh": "巢湖",
                  "city": "Chaohu",
                  "lat": 31.6,
                  "lng": 117.85
                },
                {
                  "code": "CNCHX",
                  "name": "Chengxi",
                  "nameZh": "城西",
                  "city": "Chengxi",
                  "lat": 31.9167,
                  "lng": 120.2333
                },
                {
                  "code": "CNCHY",
                  "name": "Chaoyang Pt",
                  "nameZh": "朝阳港",
                  "city": "Chaoyang Pt",
                  "lat": 23.2667,
                  "lng": 116.6
                },
                {
                  "code": "CNCHZ",
                  "name": "Chuzhou",
                  "nameZh": "滁州",
                  "city": "Chuzhou",
                  "lat": 32.3167,
                  "lng": 118.2833
                },
                {
                  "code": "CNCIV",
                  "name": "Civet / Guandong",
                  "nameZh": "狮子山 / 官洞",
                  "city": "Civet / Guandong",
                  "lat": 22.2667,
                  "lng": 113.0667
                },
                {
                  "code": "CNCIX",
                  "name": "Cixi",
                  "nameZh": "慈溪市",
                  "city": "Cixi",
                  "lat": 30.1667,
                  "lng": 121.2333
                },
                {
                  "code": "CNCJG",
                  "name": "Caojing",
                  "nameZh": "漕泾镇",
                  "city": "Caojing",
                  "lat": 30.7833,
                  "lng": 121.4
                },
                {
                  "code": "CNCLJ",
                  "name": "Chenglingji Pt",
                  "nameZh": "城陵矶港",
                  "city": "Chenglingji Pt",
                  "lat": 29.4333,
                  "lng": 113.15
                },
                {
                  "code": "CNCNG",
                  "name": "Chengde",
                  "nameZh": "承德市",
                  "city": "Chengde",
                  "lat": 40.9667,
                  "lng": 117.9333
                },
                {
                  "code": "CNCOZ",
                  "name": "Chaozhou",
                  "nameZh": "潮州市",
                  "city": "Chaozhou",
                  "lat": 23.6667,
                  "lng": 116.6333
                },
                {
                  "code": "CNCUN",
                  "name": "Chencun",
                  "nameZh": "陈村",
                  "city": "Chencun",
                  "lat": 22.95,
                  "lng": 113.2333
                },
                {
                  "code": "CNCWN",
                  "name": "Chiwan Pt",
                  "nameZh": "赤湾港",
                  "city": "Chiwan Pt",
                  "lat": 22.4833,
                  "lng": 113.8833
                },
                {
                  "code": "CNDAN",
                  "name": "Daan",
                  "nameZh": "大安",
                  "city": "Daan",
                  "lat": 43.95,
                  "lng": 129.85
                },
                {
                  "code": "CNDAS",
                  "name": "Dashihuagang",
                  "nameZh": "大石花岗",
                  "city": "Dashihuagang",
                  "lat": 38.9,
                  "lng": 121.6
                },
                {
                  "code": "CNDAX",
                  "name": "Daxie Pt",
                  "nameZh": "大榭港",
                  "city": "Daxie Pt",
                  "lat": 29.8833,
                  "lng": 121.95
                },
                {
                  "code": "CNDAY",
                  "name": "Dayawan",
                  "nameZh": "大亚湾",
                  "city": "Dayawan",
                  "lat": 22.6667,
                  "lng": 114.6667
                },
                {
                  "code": "CNDBX",
                  "name": "Bohe",
                  "nameZh": "博贺",
                  "city": "Bohe",
                  "lat": 21.5167,
                  "lng": 111
                },
                {
                  "code": "CNDCB",
                  "name": "DA CHAN BAY",
                  "nameZh": "大长湾",
                  "city": "DA CHAN BAY",
                  "lat": 22.5333,
                  "lng": 113.8667
                },
                {
                  "code": "CNDDD",
                  "name": "Dadeng I.",
                  "nameZh": "丹东港",
                  "city": "Dadeng I.",
                  "lat": 24.5333,
                  "lng": 118.3167
                },
                {
                  "code": "CNDDW",
                  "name": "Dongdaiwan",
                  "nameZh": "东带湾",
                  "city": "Dongdaiwan",
                  "lat": 26.2333,
                  "lng": 119.6167
                },
                {
                  "code": "CNDDZ",
                  "name": "Dandong",
                  "nameZh": "丹东",
                  "city": "Dandong",
                  "lat": 40.1333,
                  "lng": 124.3667
                },
                {
                  "code": "CNDEF",
                  "name": "Defeng",
                  "nameZh": "德丰",
                  "city": "Defeng",
                  "lat": 26.2167,
                  "lng": 109.1167
                },
                {
                  "code": "CNDEZ",
                  "name": "Dezhou",
                  "nameZh": "德州",
                  "city": "Dezhou",
                  "lat": 37.4333,
                  "lng": 116.2833
                },
                {
                  "code": "CNDFA",
                  "name": "Dongfang",
                  "nameZh": "东方",
                  "city": "Dongfang",
                  "lat": 19.05,
                  "lng": 108.9333
                },
                {
                  "code": "CNDFG",
                  "name": "Dafeng",
                  "nameZh": "大丰",
                  "city": "Dafeng",
                  "lat": 33.1833,
                  "lng": 120.4667
                },
                {
                  "code": "CNDGG",
                  "name": "Dongguan",
                  "nameZh": "东莞市",
                  "city": "Dongguan",
                  "lat": 23.0333,
                  "lng": 113.75
                },
                {
                  "code": "CNDGN",
                  "name": "Donggang",
                  "nameZh": "东港市",
                  "city": "Donggang",
                  "lat": 39.8833,
                  "lng": 124.1333
                },
                {
                  "code": "CNDGP",
                  "name": "Dongping",
                  "nameZh": "东平",
                  "city": "Dongping",
                  "lat": 21.7167,
                  "lng": 112.2167
                },
                {
                  "code": "CNDHU",
                  "name": "Danzhou",
                  "nameZh": "儋州",
                  "city": "Danzhou",
                  "lat": 25.3667,
                  "lng": 109.4333
                },
                {
                  "code": "CNDJA",
                  "name": "Dongjiakou",
                  "nameZh": "东夹口",
                  "city": "Dongjiakou",
                  "lat": 35.6,
                  "lng": 119.7667
                },
                {
                  "code": "CNDJK",
                  "name": "Dongjiangkou",
                  "nameZh": "东江口",
                  "city": "Dongjiangkou",
                  "lat": 35.5833,
                  "lng": 119.7833
                },
                {
                  "code": "CNDJT",
                  "name": "Dongjiaotou Pt",
                  "nameZh": "东角头港",
                  "city": "Dongjiaotou Pt",
                  "lat": 20.3333,
                  "lng": 110.4167
                },
                {
                  "code": "CNDLD",
                  "name": "Dalu Island",
                  "nameZh": "大鹿岛",
                  "city": "Dalu Island",
                  "lat": 39.7333,
                  "lng": 123.7167
                },
                {
                  "code": "CNDMY",
                  "name": "Damaiyu",
                  "nameZh": "大麦屿",
                  "city": "Damaiyu",
                  "lat": 28.0833,
                  "lng": 121.15
                },
                {
                  "code": "CNDNG",
                  "name": "Donghai",
                  "nameZh": "东海",
                  "city": "Donghai",
                  "lat": 22.95,
                  "lng": 115.6333
                },
                {
                  "code": "CNDOP",
                  "name": "Donglian Port",
                  "nameZh": "东连港",
                  "city": "Donglian Port",
                  "lat": 23.25,
                  "lng": 115.0167
                },
                {
                  "code": "CNDOU",
                  "name": "Doumen Pt",
                  "nameZh": "斗门港",
                  "city": "Doumen Pt",
                  "lat": 22.2,
                  "lng": 113.2833
                },
                {
                  "code": "CNDOX",
                  "name": "Dongxing",
                  "nameZh": "东兴",
                  "city": "Dongxing",
                  "lat": 21.4833,
                  "lng": 107.9833
                },
                {
                  "code": "CNDPG",
                  "name": "Dapeng",
                  "nameZh": "大鹏",
                  "city": "Dapeng",
                  "lat": 22.6,
                  "lng": 114.5
                },
                {
                  "code": "CNDSH",
                  "name": "Dongshi",
                  "nameZh": "东狮",
                  "city": "Dongshi",
                  "lat": 24.6667,
                  "lng": 118.4667
                },
                {
                  "code": "CNDYN",
                  "name": "Dongying",
                  "nameZh": "东营市",
                  "city": "Dongying",
                  "lat": 37.4167,
                  "lng": 118.6833
                },
                {
                  "code": "CNENP",
                  "name": "Hengban",
                  "nameZh": "横坂",
                  "city": "Hengban",
                  "lat": 22.2,
                  "lng": 112.3167
                },
                {
                  "code": "CNEZH",
                  "name": "Ezhou",
                  "nameZh": "鄂州市",
                  "city": "Ezhou",
                  "lat": 30.4,
                  "lng": 114.8167
                },
                {
                  "code": "CNFAN",
                  "name": "Fangcheng Pt",
                  "nameZh": "防城港",
                  "city": "Fangcheng Pt",
                  "lat": 21.7667,
                  "lng": 108.35
                },
                {
                  "code": "CNFCH",
                  "name": "Fengcheng",
                  "nameZh": "丰城",
                  "city": "Fengcheng",
                  "lat": 36.7,
                  "lng": 121.2333
                },
                {
                  "code": "CNFEH",
                  "name": "Fenghua",
                  "nameZh": "奉化",
                  "city": "Fenghua",
                  "lat": 29.65,
                  "lng": 121.4
                },
                {
                  "code": "CNFKI",
                  "name": "Fengkai",
                  "nameZh": "封开",
                  "city": "Fengkai",
                  "lat": 23.05,
                  "lng": 112.45
                },
                {
                  "code": "CNFKJ",
                  "name": "Jiangkou",
                  "nameZh": "江口",
                  "city": "Jiangkou",
                  "lat": 23.45,
                  "lng": 111.5
                },
                {
                  "code": "CNFLG",
                  "name": "Fuling",
                  "nameZh": "涪陵",
                  "city": "Fuling",
                  "lat": 29.7,
                  "lng": 107.3333
                },
                {
                  "code": "CNFNG",
                  "name": "Fuyong",
                  "nameZh": "福永",
                  "city": "Fuyong",
                  "lat": 22.65,
                  "lng": 113.7833
                },
                {
                  "code": "CNFQX",
                  "name": "Xialong",
                  "nameZh": "下龙",
                  "city": "Xialong",
                  "lat": 25.7,
                  "lng": 119.3833
                },
                {
                  "code": "CNFUJ",
                  "name": "Fujin",
                  "nameZh": "富锦市",
                  "city": "Fujin",
                  "lat": 47.25,
                  "lng": 132.0333
                },
                {
                  "code": "CNFUY",
                  "name": "Fuyuan",
                  "nameZh": "抚远市",
                  "city": "Fuyuan",
                  "lat": 48.35,
                  "lng": 134.3
                },
                {
                  "code": "CNGAO",
                  "name": "Gaogang",
                  "nameZh": "高港",
                  "city": "Gaogang",
                  "lat": 32.3,
                  "lng": 119.85
                },
                {
                  "code": "CNGGK",
                  "name": "Gongkou",
                  "nameZh": "公口",
                  "city": "Gongkou",
                  "lat": 23.6333,
                  "lng": 117.2333
                },
                {
                  "code": "CNGHI",
                  "name": "Guanghai Pt",
                  "nameZh": "广海港",
                  "city": "Guanghai Pt",
                  "lat": 21.9667,
                  "lng": 112.8
                },
                {
                  "code": "CNGIS",
                  "name": "Guishan",
                  "nameZh": "桂山镇",
                  "city": "Guishan",
                  "lat": 22.1333,
                  "lng": 113.8167
                },
                {
                  "code": "CNGLN",
                  "name": "Gaolan",
                  "nameZh": "高栏",
                  "city": "Gaolan",
                  "lat": 36.3167,
                  "lng": 103.9333
                },
                {
                  "code": "CNGNA",
                  "name": "Guang'ao",
                  "nameZh": "广澳",
                  "city": "Guang'ao",
                  "lat": 23.2333,
                  "lng": 116.7667
                },
                {
                  "code": "CNGOG",
                  "name": "Gongming",
                  "nameZh": "公明",
                  "city": "Gongming",
                  "lat": 22.7833,
                  "lng": 113.8667
                },
                {
                  "code": "CNGOM",
                  "name": "Gaoming Pt",
                  "nameZh": "高明港",
                  "city": "Gaoming Pt",
                  "lat": 22.8833,
                  "lng": 112.8333
                },
                {
                  "code": "CNGON",
                  "name": "Gaolan",
                  "nameZh": "珠海高栏港经济区",
                  "city": "Gaolan",
                  "lat": 21.9167,
                  "lng": 113.25
                },
                {
                  "code": "CNGSA",
                  "name": "Cangshan",
                  "nameZh": "苍山",
                  "city": "Cangshan",
                  "lat": 34.85,
                  "lng": 118.05
                },
                {
                  "code": "CNGUG",
                  "name": "Guigang",
                  "nameZh": "贵港",
                  "city": "Guigang",
                  "lat": 23.1,
                  "lng": 109.6
                },
                {
                  "code": "CNGUI",
                  "name": "Guilin",
                  "nameZh": "桂林市",
                  "city": "Guilin",
                  "lat": 25.2667,
                  "lng": 110.2833
                },
                {
                  "code": "CNGUT",
                  "name": "Guangdong Terminal",
                  "nameZh": "广东码头",
                  "city": "Guangdong Terminal",
                  "lat": 22.5667,
                  "lng": 114.4333
                },
                {
                  "code": "CNGZE",
                  "name": "Guzhen",
                  "nameZh": "古镇",
                  "city": "Guzhen",
                  "lat": 22.6,
                  "lng": 113.1667
                },
                {
                  "code": "CNHCN",
                  "name": "Huachuan",
                  "nameZh": "化船",
                  "city": "Huachuan",
                  "lat": 47.0167,
                  "lng": 130.7
                },
                {
                  "code": "CNHEB",
                  "name": "Hebei",
                  "nameZh": "河北",
                  "city": "Hebei",
                  "lat": 39.8833,
                  "lng": 115.2833
                },
                {
                  "code": "CNHEK",
                  "name": "Heihe",
                  "nameZh": "黑河市",
                  "city": "Heihe",
                  "lat": 50.2333,
                  "lng": 127.4833
                },
                {
                  "code": "CNHGJ",
                  "name": "Huangjiang",
                  "nameZh": "黄江",
                  "city": "Huangjiang",
                  "lat": 25.1,
                  "lng": 107.3333
                },
                {
                  "code": "CNHID",
                  "name": "Huidong Pt",
                  "nameZh": "惠东港",
                  "city": "Huidong Pt",
                  "lat": 22.9833,
                  "lng": 114.7
                },
                {
                  "code": "CNHIJ",
                  "name": "Huaiji",
                  "nameZh": "怀集",
                  "city": "Huaiji",
                  "lat": 23.05,
                  "lng": 112.45
                },
                {
                  "code": "CNHLI",
                  "name": "Huailai",
                  "nameZh": "怀来",
                  "city": "Huailai",
                  "lat": 40.3667,
                  "lng": 115.5
                },
                {
                  "code": "CNHLJ",
                  "name": "Jinghai",
                  "nameZh": "静海",
                  "city": "Jinghai",
                  "lat": 23.0333,
                  "lng": 116.3
                },
                {
                  "code": "CNHME",
                  "name": "Haimen",
                  "nameZh": "海门",
                  "city": "Haimen",
                  "lat": 28.6667,
                  "lng": 121.4333
                },
                {
                  "code": "CNHMN",
                  "name": "Humen Pt",
                  "nameZh": "虎门港",
                  "city": "Humen Pt",
                  "lat": 22.8333,
                  "lng": 113.6667
                },
                {
                  "code": "CNHNI",
                  "name": "Hengli",
                  "nameZh": "横沥",
                  "city": "Hengli",
                  "lat": 23.1667,
                  "lng": 114.6167
                },
                {
                  "code": "CNHOU",
                  "name": "Houjie",
                  "nameZh": "厚街镇",
                  "city": "Houjie",
                  "lat": 22.9333,
                  "lng": 113.6333
                },
                {
                  "code": "CNHSC",
                  "name": "Shaoguan New Pt",
                  "nameZh": "韶关市",
                  "city": "Shaoguan New Pt",
                  "lat": 24.8,
                  "lng": 113.6167
                },
                {
                  "code": "CNHSI",
                  "name": "Huangshi Pt",
                  "nameZh": "黄石港",
                  "city": "Huangshi Pt",
                  "lat": 30.2,
                  "lng": 115.1
                },
                {
                  "code": "CNHSN",
                  "name": "Heshan Pt",
                  "nameZh": "鹤山港",
                  "city": "Heshan Pt",
                  "lat": 22.7667,
                  "lng": 112.95
                },
                {
                  "code": "CNHST",
                  "name": "Heishantou",
                  "nameZh": "黑山头镇",
                  "city": "Heishantou",
                  "lat": 50.2,
                  "lng": 119.3833
                },
                {
                  "code": "CNHTG",
                  "name": "Hetang",
                  "nameZh": "荷塘",
                  "city": "Hetang",
                  "lat": 22.65,
                  "lng": 113.1333
                },
                {
                  "code": "CNHUD",
                  "name": "Huludao",
                  "nameZh": "葫芦岛港",
                  "city": "Huludao",
                  "lat": 40.75,
                  "lng": 120.85
                },
                {
                  "code": "CNHUH",
                  "name": "Huanghua Pt",
                  "nameZh": "黄骅港",
                  "city": "Huanghua Pt",
                  "lat": 38.35,
                  "lng": 117.35
                },
                {
                  "code": "CNHUI",
                  "name": "Huizhou",
                  "nameZh": "惠州市",
                  "city": "Huizhou",
                  "lat": 23.0833,
                  "lng": 114.3667
                },
                {
                  "code": "CNHUL",
                  "name": "Hulin",
                  "nameZh": "虎林市",
                  "city": "Hulin",
                  "lat": 45.7833,
                  "lng": 132.95
                },
                {
                  "code": "CNHUM",
                  "name": "Huma",
                  "nameZh": "呼玛镇",
                  "city": "Huma",
                  "lat": 51.7,
                  "lng": 126.65
                },
                {
                  "code": "CNHUN",
                  "name": "Huangpu New Port",
                  "nameZh": "黄埔新港",
                  "city": "Huangpu New Port",
                  "lat": 23.0833,
                  "lng": 113.5
                },
                {
                  "code": "CNHYN",
                  "name": "Huangyan",
                  "nameZh": "黄岩",
                  "city": "Huangyan",
                  "lat": 28.6333,
                  "lng": 121.25
                },
                {
                  "code": "CNHZH",
                  "name": "Huzhou",
                  "nameZh": "湖州市",
                  "city": "Huzhou",
                  "lat": 30.8667,
                  "lng": 120.1
                },
                {
                  "code": "CNHZU",
                  "name": "Houzhu",
                  "nameZh": "厚竹",
                  "city": "Houzhu",
                  "lat": 24.8833,
                  "lng": 118.6667
                },
                {
                  "code": "CNIMA",
                  "name": "Baimao",
                  "nameZh": "白茅",
                  "city": "Baimao",
                  "lat": 35.0167,
                  "lng": 118.6
                },
                {
                  "code": "CNING",
                  "name": "Xinyang",
                  "nameZh": "信阳市",
                  "city": "Xinyang",
                  "lat": 32.1333,
                  "lng": 114.05
                },
                {
                  "code": "CNJAX",
                  "name": "Jiaxing",
                  "nameZh": "嘉兴市",
                  "city": "Jiaxing",
                  "lat": 30.7667,
                  "lng": 120.75
                },
                {
                  "code": "CNJAY",
                  "name": "Jiayin",
                  "nameZh": "加印",
                  "city": "Jiayin",
                  "lat": 48.8667,
                  "lng": 130.3667
                },
                {
                  "code": "CNJDR",
                  "name": "Quxi",
                  "nameZh": "曲溪",
                  "city": "Quxi",
                  "lat": 23.5833,
                  "lng": 116.4333
                },
                {
                  "code": "CNJGU",
                  "name": "Jinguzhou",
                  "nameZh": "金谷州",
                  "city": "Jinguzhou",
                  "lat": 22.5167,
                  "lng": 113.0167
                },
                {
                  "code": "CNJGY",
                  "name": "Jiangyin",
                  "nameZh": "江阴",
                  "city": "Jiangyin",
                  "lat": 25.4667,
                  "lng": 119.3
                },
                {
                  "code": "CNJIA",
                  "name": "Jiangyin Pt",
                  "nameZh": "江阴港",
                  "city": "Jiangyin Pt",
                  "lat": 31.9,
                  "lng": 120.2833
                },
                {
                  "code": "CNJIJ",
                  "name": "Jingjiang",
                  "nameZh": "靖江市",
                  "city": "Jingjiang",
                  "lat": 32.0333,
                  "lng": 120.2833
                },
                {
                  "code": "CNJIS",
                  "name": "Jiangshan Pt",
                  "nameZh": "江山港",
                  "city": "Jiangshan Pt",
                  "lat": 21.6333,
                  "lng": 108.2667
                },
                {
                  "code": "CNJIU",
                  "name": "Jiujiang",
                  "nameZh": "九江市",
                  "city": "Jiujiang",
                  "lat": 29.7167,
                  "lng": 115.9667
                },
                {
                  "code": "CNJIZ",
                  "name": "Jiazi",
                  "nameZh": "甲子镇",
                  "city": "Jiazi",
                  "lat": 22.8667,
                  "lng": 116.05
                },
                {
                  "code": "CNJMN",
                  "name": "Jiangmen",
                  "nameZh": "江门市",
                  "city": "Jiangmen",
                  "lat": 22.5833,
                  "lng": 113.0667
                },
                {
                  "code": "CNJNZ",
                  "name": "Jinzhou Pt",
                  "nameZh": "锦州港",
                  "city": "Jinzhou Pt",
                  "lat": 41.1167,
                  "lng": 121.15
                },
                {
                  "code": "CNJOG",
                  "name": "Jinghong",
                  "nameZh": "景洪市",
                  "city": "Jinghong",
                  "lat": 22.0167,
                  "lng": 100.8
                },
                {
                  "code": "CNJRG",
                  "name": "Jurong",
                  "nameZh": "句容市",
                  "city": "Jurong",
                  "lat": 31.9167,
                  "lng": 119.1667
                },
                {
                  "code": "CNJUJ",
                  "name": "Jiujiang",
                  "nameZh": "九江",
                  "city": "Jiujiang",
                  "lat": 22.8333,
                  "lng": 113
                },
                {
                  "code": "CNJUZ",
                  "name": "Jiuzhen",
                  "nameZh": "旧镇",
                  "city": "Jiuzhen",
                  "lat": 24.0333,
                  "lng": 117.7
                },
                {
                  "code": "CNJZK",
                  "name": "Jingzhou Pt",
                  "nameZh": "荆州港",
                  "city": "Jingzhou Pt",
                  "lat": 30.3,
                  "lng": 112.2667
                },
                {
                  "code": "CNKFG",
                  "name": "Kaifeng",
                  "nameZh": "开封市",
                  "city": "Kaifeng",
                  "lat": 34.7833,
                  "lng": 114.3333
                },
                {
                  "code": "CNLFN",
                  "name": "Lufeng",
                  "nameZh": "陆丰市",
                  "city": "Lufeng",
                  "lat": 22.95,
                  "lng": 115.6333
                },
                {
                  "code": "CNLGI",
                  "name": "Longhai",
                  "nameZh": "龙海",
                  "city": "Longhai",
                  "lat": 26.4667,
                  "lng": 113.2667
                },
                {
                  "code": "CNLGU",
                  "name": "Longguan",
                  "nameZh": "龙关镇",
                  "city": "Longguan",
                  "lat": 40.7667,
                  "lng": 115.5667
                },
                {
                  "code": "CNLGY",
                  "name": "Longyan Pt",
                  "nameZh": "龙岩港",
                  "city": "Longyan Pt",
                  "lat": 37.4333,
                  "lng": 122.6333
                },
                {
                  "code": "CNLIH",
                  "name": "Lianhuashan Pt",
                  "nameZh": "莲花山港",
                  "city": "Lianhuashan Pt",
                  "lat": 23.0167,
                  "lng": 115.2667
                },
                {
                  "code": "CNLIZ",
                  "name": "Lianzhou",
                  "nameZh": "连州市",
                  "city": "Lianzhou",
                  "lat": 24.7667,
                  "lng": 112.35
                },
                {
                  "code": "CNLJQ",
                  "name": "Qianyu",
                  "nameZh": "前屿",
                  "city": "Qianyu",
                  "lat": 26.2,
                  "lng": 119.5167
                },
                {
                  "code": "CNLJY",
                  "name": "Yingzai",
                  "nameZh": "营寨",
                  "city": "Yingzai",
                  "lat": 21.6167,
                  "lng": 110.2833
                },
                {
                  "code": "CNLKU",
                  "name": "Longkou Pt",
                  "nameZh": "龙口港",
                  "city": "Longkou Pt",
                  "lat": 37.65,
                  "lng": 120.35
                },
                {
                  "code": "CNLLI",
                  "name": "Liling",
                  "nameZh": "醴陵",
                  "city": "Liling",
                  "lat": 27.6667,
                  "lng": 113.4833
                },
                {
                  "code": "CNLMG",
                  "name": "Wenling Longmen Port",
                  "nameZh": "温岭龙门港",
                  "city": "Wenling Longmen Port",
                  "lat": 28.4167,
                  "lng": 121.9833
                },
                {
                  "code": "CNLNH",
                  "name": "Linhai",
                  "nameZh": "临海市",
                  "city": "Linhai",
                  "lat": 28.85,
                  "lng": 121.1167
                },
                {
                  "code": "CNLSH",
                  "name": "Lushun New Pt",
                  "nameZh": "旅顺港",
                  "city": "Lushun New Pt",
                  "lat": 38.6833,
                  "lng": 121.1833
                },
                {
                  "code": "CNLSN",
                  "name": "Lanshan Pt",
                  "nameZh": "岚山港",
                  "city": "Lanshan Pt",
                  "lat": 35.0667,
                  "lng": 119.3667
                },
                {
                  "code": "CNLSX",
                  "name": "Xincun",
                  "nameZh": "新村",
                  "city": "Xincun",
                  "lat": 18.5,
                  "lng": 110.0167
                },
                {
                  "code": "CNLUB",
                  "name": "Luobei",
                  "nameZh": "罗北",
                  "city": "Luobei",
                  "lat": 47.5667,
                  "lng": 130.8167
                },
                {
                  "code": "CNLUD",
                  "name": "Liudu",
                  "nameZh": "六都",
                  "city": "Liudu",
                  "lat": 23.0667,
                  "lng": 112
                },
                {
                  "code": "CNLUH",
                  "name": "Lü-hua Shan",
                  "nameZh": "绿化山",
                  "city": "Lü-hua Shan",
                  "lat": 30.8167,
                  "lng": 122.6167
                },
                {
                  "code": "CNLUI",
                  "name": "Lisui",
                  "nameZh": "李遂镇",
                  "city": "Lisui",
                  "lat": 40.0667,
                  "lng": 116.75
                },
                {
                  "code": "CNLUN",
                  "name": "Lu'an",
                  "nameZh": "六安市",
                  "city": "Lu'an",
                  "lat": 31.7333,
                  "lng": 116.4833
                },
                {
                  "code": "CNLUS",
                  "name": "Lusi",
                  "nameZh": "鹿寺",
                  "city": "Lusi",
                  "lat": 32.05,
                  "lng": 121.6167
                },
                {
                  "code": "CNLUZ",
                  "name": "Luzhou",
                  "nameZh": "泸州市",
                  "city": "Luzhou",
                  "lat": 28.9,
                  "lng": 105.4
                },
                {
                  "code": "CNLXI",
                  "name": "Lanxi",
                  "nameZh": "兰溪市",
                  "city": "Lanxi",
                  "lat": 29.2,
                  "lng": 119.4667
                },
                {
                  "code": "CNLZH",
                  "name": "Liuzhou",
                  "nameZh": "柳州市",
                  "city": "Liuzhou",
                  "lat": 23.3167,
                  "lng": 109.4
                },
                {
                  "code": "CNLZL",
                  "name": "Liusha",
                  "nameZh": "柳沙",
                  "city": "Liusha",
                  "lat": 20.9,
                  "lng": 110.0667
                },
                {
                  "code": "CNLZO",
                  "name": "Laizhou Pt",
                  "nameZh": "莱州港",
                  "city": "Laizhou Pt",
                  "lat": 37.1667,
                  "lng": 119.95
                },
                {
                  "code": "CNMAA",
                  "name": "Ma'anshan",
                  "nameZh": "马鞍山市",
                  "city": "Ma'anshan",
                  "lat": 31.7167,
                  "lng": 118.4667
                },
                {
                  "code": "CNMAC",
                  "name": "Macun",
                  "nameZh": "马村",
                  "city": "Macun",
                  "lat": 19.95,
                  "lng": 110.0167
                },
                {
                  "code": "CNMAJ",
                  "name": "Majistan/Zhoushan",
                  "nameZh": "马迹山/舟山",
                  "city": "Majistan/Zhoushan",
                  "lat": 30.0167,
                  "lng": 122.1
                },
                {
                  "code": "CNMAW",
                  "name": "Mawei Pt",
                  "nameZh": "马尾港",
                  "city": "Mawei Pt",
                  "lat": 25.9833,
                  "lng": 119.45
                },
                {
                  "code": "CNMBI",
                  "name": "Mabian Island",
                  "nameZh": "马边岛",
                  "city": "Mabian Island",
                  "lat": 23.1167,
                  "lng": 115.0833
                },
                {
                  "code": "CNMIY",
                  "name": "Miyun",
                  "nameZh": "密云",
                  "city": "Miyun",
                  "lat": 40.3667,
                  "lng": 116.8333
                },
                {
                  "code": "CNMJS",
                  "name": "Maji Shan",
                  "nameZh": "马迹山",
                  "city": "Maji Shan",
                  "lat": 30.6667,
                  "lng": 122.4
                },
                {
                  "code": "CNMOG",
                  "name": "Maogang",
                  "nameZh": "茂岗",
                  "city": "Maogang",
                  "lat": 23.05,
                  "lng": 112.7333
                },
                {
                  "code": "CNMOH",
                  "name": "Mohe",
                  "nameZh": "漠河",
                  "city": "Mohe",
                  "lat": 53.0167,
                  "lng": 122.45
                },
                {
                  "code": "CNMSA",
                  "name": "Meisha Pt",
                  "nameZh": "梅沙港",
                  "city": "Meisha Pt",
                  "lat": 24.7,
                  "lng": 117.0667
                },
                {
                  "code": "CNMWN",
                  "name": "Mawan Pt",
                  "nameZh": "码湾港",
                  "city": "Mawan Pt",
                  "lat": 22.45,
                  "lng": 113.8833
                },
                {
                  "code": "CNNAH",
                  "name": "Nanhai Pt",
                  "nameZh": "南海港",
                  "city": "Nanhai Pt",
                  "lat": 23.0167,
                  "lng": 113.15
                },
                {
                  "code": "CNNAN",
                  "name": "Nanao Pt",
                  "nameZh": "南澳港",
                  "city": "Nanao Pt",
                  "lat": 23.4333,
                  "lng": 117.6833
                },
                {
                  "code": "CNNDS",
                  "name": "Shacheng",
                  "nameZh": "沙城",
                  "city": "Shacheng",
                  "lat": 26.65,
                  "lng": 119.5167
                },
                {
                  "code": "CNNEG",
                  "name": "Neigang",
                  "nameZh": "内港",
                  "city": "Neigang",
                  "lat": 23.1,
                  "lng": 113.4167
                },
                {
                  "code": "CNNJK",
                  "name": "Nanjiangkou",
                  "nameZh": "南江口",
                  "city": "Nanjiangkou",
                  "lat": 23.1167,
                  "lng": 111.8
                },
                {
                  "code": "CNNSA",
                  "name": "Nansha Pt",
                  "nameZh": "南沙港",
                  "city": "Nansha Pt",
                  "lat": 22.75,
                  "lng": 113.5833
                },
                {
                  "code": "CNNTG",
                  "name": "Nantong",
                  "nameZh": "南通市",
                  "city": "Nantong",
                  "lat": 32.0167,
                  "lng": 120.85
                },
                {
                  "code": "CNNUD",
                  "name": "Nudao",
                  "nameZh": "弩岛",
                  "city": "Nudao",
                  "lat": 36.3833,
                  "lng": 120.8667
                },
                {
                  "code": "CNPAJ",
                  "name": "Panjin",
                  "nameZh": "盘锦",
                  "city": "Panjin",
                  "lat": 41.1167,
                  "lng": 122.05
                },
                {
                  "code": "CNPGZ",
                  "name": "Pingzhou",
                  "nameZh": "平洲",
                  "city": "Pingzhou",
                  "lat": 23.0333,
                  "lng": 113.2
                },
                {
                  "code": "CNPHB",
                  "name": "Bijia",
                  "nameZh": "碧嘉",
                  "city": "Bijia",
                  "lat": 22.6167,
                  "lng": 114.85
                },
                {
                  "code": "CNPJS",
                  "name": "Pizhou",
                  "nameZh": "邳州",
                  "city": "Pizhou",
                  "lat": 34.3333,
                  "lng": 118.0167
                },
                {
                  "code": "CNPLI",
                  "name": "Penglai Pt",
                  "nameZh": "蓬莱港",
                  "city": "Penglai Pt",
                  "lat": 37.8,
                  "lng": 120.75
                },
                {
                  "code": "CNPNY",
                  "name": "Shiqiao",
                  "nameZh": "石桥",
                  "city": "Shiqiao",
                  "lat": 22.95,
                  "lng": 113.3667
                },
                {
                  "code": "CNPTJ",
                  "name": "Jinjing",
                  "nameZh": "金井",
                  "city": "Jinjing",
                  "lat": 25.5,
                  "lng": 119.7833
                },
                {
                  "code": "CNPTN",
                  "name": "Pingtan",
                  "nameZh": "平潭",
                  "city": "Pingtan",
                  "lat": 25.5,
                  "lng": 119.7167
                },
                {
                  "code": "CNPUT",
                  "name": "Putian",
                  "nameZh": "莆田市",
                  "city": "Putian",
                  "lat": 24.4333,
                  "lng": 119.0167
                },
                {
                  "code": "CNPXM",
                  "name": "Pingshaxinmatou",
                  "nameZh": "平沙新码头",
                  "city": "Pingshaxinmatou",
                  "lat": 22.1,
                  "lng": 113.1667
                },
                {
                  "code": "CNPYG",
                  "name": "Puyang",
                  "nameZh": "濮阳市",
                  "city": "Puyang",
                  "lat": 35.7,
                  "lng": 115
                },
                {
                  "code": "CNQAW",
                  "name": "Qianwan",
                  "nameZh": "前湾",
                  "city": "Qianwan",
                  "lat": 36.05,
                  "lng": 120.2167
                },
                {
                  "code": "CNQGS",
                  "name": "Qingshi",
                  "nameZh": "青石",
                  "city": "Qingshi",
                  "lat": 41.3667,
                  "lng": 126.5167
                },
                {
                  "code": "CNQGY",
                  "name": "Qingyuan",
                  "nameZh": "清远市",
                  "city": "Qingyuan",
                  "lat": 23.7,
                  "lng": 113.0167
                },
                {
                  "code": "CNQIG",
                  "name": "Qingguji / Shangqiu",
                  "nameZh": "青谷集/商丘",
                  "city": "Qingguji / Shangqiu",
                  "lat": 34.6833,
                  "lng": 115.7667
                },
                {
                  "code": "CNQLN",
                  "name": "Qinglan Pt",
                  "nameZh": "青兰港",
                  "city": "Qinglan Pt",
                  "lat": 19.55,
                  "lng": 110.8167
                },
                {
                  "code": "CNQNH",
                  "name": "Tanmen",
                  "nameZh": "潭门",
                  "city": "Tanmen",
                  "lat": 19.2333,
                  "lng": 110.4667
                },
                {
                  "code": "CNQSA",
                  "name": "Qisha Pt",
                  "nameZh": "旗沙港",
                  "city": "Qisha Pt",
                  "lat": 21.5833,
                  "lng": 108.4667
                },
                {
                  "code": "CNQSN",
                  "name": "Qianshan/Zhuhai",
                  "nameZh": "前山/珠海",
                  "city": "Qianshan/Zhuhai",
                  "lat": 22.2333,
                  "lng": 113.5167
                },
                {
                  "code": "CNQUG",
                  "name": "Quangang,Quanzhou",
                  "nameZh": "泉港，泉州",
                  "city": "Quangang,Quanzhou",
                  "lat": 25.1333,
                  "lng": 118.9167
                },
                {
                  "code": "CNQZL",
                  "name": "Quanzhou",
                  "nameZh": "泉州市",
                  "city": "Quanzhou",
                  "lat": 24.9333,
                  "lng": 118.6
                },
                {
                  "code": "CNRCG",
                  "name": "Rongcheng",
                  "nameZh": "荣成",
                  "city": "Rongcheng",
                  "lat": 37.15,
                  "lng": 122.3833
                },
                {
                  "code": "CNROH",
                  "name": "Raohe",
                  "nameZh": "饶河",
                  "city": "Raohe",
                  "lat": 46.8,
                  "lng": 134
                },
                {
                  "code": "CNROQ",
                  "name": "Rongqi Pt",
                  "nameZh": "容奇港",
                  "city": "Rongqi Pt",
                  "lat": 22.7833,
                  "lng": 113.2667
                },
                {
                  "code": "CNRPG",
                  "name": "Raoping",
                  "nameZh": "饶平",
                  "city": "Raoping",
                  "lat": 23.6667,
                  "lng": 117
                },
                {
                  "code": "CNRZH",
                  "name": "Rizhao",
                  "nameZh": "日照市",
                  "city": "Rizhao",
                  "lat": 35.3833,
                  "lng": 119.5333
                },
                {
                  "code": "CNSAM",
                  "name": "Sanming / Shanming Shi",
                  "nameZh": "三明 / 三明市",
                  "city": "Sanming / Shanming Shi",
                  "lat": 26.2333,
                  "lng": 117.6167
                },
                {
                  "code": "CNSAN",
                  "name": "Shiwan",
                  "nameZh": "狮湾",
                  "city": "Shiwan",
                  "lat": 23,
                  "lng": 113.0833
                },
                {
                  "code": "CNSAT",
                  "name": "Shadi",
                  "nameZh": "沙堤",
                  "city": "Shadi",
                  "lat": 21.6,
                  "lng": 112.7833
                },
                {
                  "code": "CNSAW",
                  "name": "Shanwai",
                  "nameZh": "山外",
                  "city": "Shanwai",
                  "lat": 28.05,
                  "lng": 121.2
                },
                {
                  "code": "CNSBN",
                  "name": "Suibin",
                  "nameZh": "绥滨镇",
                  "city": "Suibin",
                  "lat": 47.3,
                  "lng": 131.85
                },
                {
                  "code": "CNSDG",
                  "name": "Shuidong Pt",
                  "nameZh": "水东港",
                  "city": "Shuidong Pt",
                  "lat": 21.5167,
                  "lng": 111
                },
                {
                  "code": "CNSEY",
                  "name": "Sheyang",
                  "nameZh": "射阳",
                  "city": "Sheyang",
                  "lat": 33.7667,
                  "lng": 120.25
                },
                {
                  "code": "CNSGJ",
                  "name": "Songjiang",
                  "nameZh": "松江",
                  "city": "Songjiang",
                  "lat": 31.0167,
                  "lng": 121.2333
                },
                {
                  "code": "CNSGU",
                  "name": "Shangyu",
                  "nameZh": "上虞",
                  "city": "Shangyu",
                  "lat": 30,
                  "lng": 120.8667
                },
                {
                  "code": "CNSHD",
                  "name": "Shidao Pt",
                  "nameZh": "石岛港",
                  "city": "Shidao Pt",
                  "lat": 36.8667,
                  "lng": 122.4333
                },
                {
                  "code": "CNSHH",
                  "name": "Shishi",
                  "nameZh": "石狮市",
                  "city": "Shishi",
                  "lat": 24.7333,
                  "lng": 118.6333
                },
                {
                  "code": "CNSHK",
                  "name": "Shekou Pt",
                  "nameZh": "蛇口工业区",
                  "city": "Shekou Pt",
                  "lat": 22.4833,
                  "lng": 113.9167
                },
                {
                  "code": "CNSHL",
                  "name": "Shuolong",
                  "nameZh": "硕龙",
                  "city": "Shuolong",
                  "lat": 22.8,
                  "lng": 106.8
                },
                {
                  "code": "CNSHM",
                  "name": "Mafang",
                  "nameZh": "马坊",
                  "city": "Mafang",
                  "lat": 23.35,
                  "lng": 112.6833
                },
                {
                  "code": "CNSHP",
                  "name": "Qinhuangdao Pt",
                  "nameZh": "秦皇岛港",
                  "city": "Qinhuangdao Pt",
                  "lat": 39.9167,
                  "lng": 119.5833
                },
                {
                  "code": "CNSHT",
                  "name": "Shating",
                  "nameZh": "沙亭",
                  "city": "Shating",
                  "lat": 23.05,
                  "lng": 113.4333
                },
                {
                  "code": "CNSIJ",
                  "name": "Shijing",
                  "nameZh": "石井",
                  "city": "Shijing",
                  "lat": 24.6167,
                  "lng": 118.4333
                },
                {
                  "code": "CNSIK",
                  "name": "Shuikou",
                  "nameZh": "水口镇",
                  "city": "Shuikou",
                  "lat": 22.2333,
                  "lng": 110.9333
                },
                {
                  "code": "CNSIQ",
                  "name": "Saiqi",
                  "nameZh": "赛岐",
                  "city": "Saiqi",
                  "lat": 26.9667,
                  "lng": 119.6833
                },
                {
                  "code": "CNSJQ",
                  "name": "Sanshui",
                  "nameZh": "三水区",
                  "city": "Sanshui",
                  "lat": 23.1667,
                  "lng": 112.8667
                },
                {
                  "code": "CNSJU",
                  "name": "Shijiu Pt",
                  "nameZh": "石臼港",
                  "city": "Shijiu Pt",
                  "lat": 36.3667,
                  "lng": 119.55
                },
                {
                  "code": "CNSKS",
                  "name": "Sikuaishi",
                  "nameZh": "四会石",
                  "city": "Sikuaishi",
                  "lat": 39.2833,
                  "lng": 122.5667
                },
                {
                  "code": "CNSLO",
                  "name": "Shilou",
                  "nameZh": "石楼",
                  "city": "Shilou",
                  "lat": 23.0167,
                  "lng": 113.5
                },
                {
                  "code": "CNSNH",
                  "name": "Shenhu",
                  "nameZh": "深沪镇",
                  "city": "Shenhu",
                  "lat": 24.6167,
                  "lng": 118.6667
                },
                {
                  "code": "CNSNN",
                  "name": "Suining",
                  "nameZh": "遂宁市",
                  "city": "Suining",
                  "lat": 30.5333,
                  "lng": 105.5333
                },
                {
                  "code": "CNSNS",
                  "name": "Sansha",
                  "nameZh": "三沙",
                  "city": "Sansha",
                  "lat": 26.9333,
                  "lng": 120.2167
                },
                {
                  "code": "CNSON",
                  "name": "Songxia Pt",
                  "nameZh": "松下港",
                  "city": "Songxia Pt",
                  "lat": 25.6833,
                  "lng": 119.5833
                },
                {
                  "code": "CNSPA",
                  "name": "Shapa",
                  "nameZh": "沙派",
                  "city": "Shapa",
                  "lat": 21.5,
                  "lng": 111.4833
                },
                {
                  "code": "CNSPI",
                  "name": "Shipai",
                  "nameZh": "石牌",
                  "city": "Shipai",
                  "lat": 30.3167,
                  "lng": 116.65
                },
                {
                  "code": "CNSTB",
                  "name": "Shitoubu Pt",
                  "nameZh": "石头埠港",
                  "city": "Shitoubu Pt",
                  "lat": 21.5833,
                  "lng": 109.55
                },
                {
                  "code": "CNSTG",
                  "name": "Shantou",
                  "nameZh": "汕头市",
                  "city": "Shantou",
                  "lat": 23.4167,
                  "lng": 116.7667
                },
                {
                  "code": "CNSTI",
                  "name": "Shatian",
                  "nameZh": "沙田",
                  "city": "Shatian",
                  "lat": 22.9167,
                  "lng": 113.6
                },
                {
                  "code": "CNSUD",
                  "name": "Shunde Pt",
                  "nameZh": "顺德港",
                  "city": "Shunde Pt",
                  "lat": 22.8333,
                  "lng": 113.25
                },
                {
                  "code": "CNSUW",
                  "name": "Sunwu",
                  "nameZh": "孙吴",
                  "city": "Sunwu",
                  "lat": 49.4167,
                  "lng": 127.3167
                },
                {
                  "code": "CNSWE",
                  "name": "Shanwei",
                  "nameZh": "汕尾市",
                  "city": "Shanwei",
                  "lat": 22.7833,
                  "lng": 115.35
                },
                {
                  "code": "CNSWI",
                  "name": "Shiwei",
                  "nameZh": "石围",
                  "city": "Shiwei",
                  "lat": 51.3,
                  "lng": 119.9167
                },
                {
                  "code": "CNSXB",
                  "name": "Beitan",
                  "nameZh": "北滩",
                  "city": "Beitan",
                  "lat": 21.3667,
                  "lng": 110.25
                },
                {
                  "code": "CNSXJ",
                  "name": "Shanshan",
                  "nameZh": "鄯善机场",
                  "city": "Shanshan",
                  "lat": 42.8667,
                  "lng": 90.1667
                },
                {
                  "code": "CNSYM",
                  "name": "Simao",
                  "nameZh": "思茅",
                  "city": "Simao",
                  "lat": 22.8,
                  "lng": 100.9667
                },
                {
                  "code": "CNSZA",
                  "name": "Sanzao",
                  "nameZh": "三灶镇",
                  "city": "Sanzao",
                  "lat": 22.05,
                  "lng": 113.35
                },
                {
                  "code": "CNTAC",
                  "name": "Taicang Pt",
                  "nameZh": "太仓港",
                  "city": "Taicang Pt",
                  "lat": 31.45,
                  "lng": 121.1
                },
                {
                  "code": "CNTAP",
                  "name": "Taiping",
                  "nameZh": "太平",
                  "city": "Taiping",
                  "lat": 21.0333,
                  "lng": 110.1667
                },
                {
                  "code": "CNTGG",
                  "name": "Tanggu",
                  "nameZh": "塘沽",
                  "city": "Tanggu",
                  "lat": 39.0167,
                  "lng": 117.65
                },
                {
                  "code": "CNTGS",
                  "name": "Tangshan Pt",
                  "nameZh": "唐山市",
                  "city": "Tangshan Pt",
                  "lat": 39.6,
                  "lng": 118.1833
                },
                {
                  "code": "CNTJG",
                  "name": "Taijiang",
                  "nameZh": "泰江",
                  "city": "Taijiang",
                  "lat": 26.0833,
                  "lng": 119.5
                },
                {
                  "code": "CNTOJ",
                  "name": "Tongjiang",
                  "nameZh": "同江市",
                  "city": "Tongjiang",
                  "lat": 47.65,
                  "lng": 132.5
                },
                {
                  "code": "CNTOL",
                  "name": "Tongling",
                  "nameZh": "铜陵市",
                  "city": "Tongling",
                  "lat": 30.9333,
                  "lng": 117.8
                },
                {
                  "code": "CNTPW",
                  "name": "Taipingwan",
                  "nameZh": "太平湾",
                  "city": "Taipingwan",
                  "lat": 37.2667,
                  "lng": 119.8333
                },
                {
                  "code": "CNTSG",
                  "name": "Gongyi",
                  "nameZh": "公益",
                  "city": "Gongyi",
                  "lat": 22.25,
                  "lng": 112.8
                },
                {
                  "code": "CNTXZ",
                  "name": "Tongxiang",
                  "nameZh": "桐乡",
                  "city": "Tongxiang",
                  "lat": 30.6333,
                  "lng": 120.5667
                },
                {
                  "code": "CNTZO",
                  "name": "Taizhou",
                  "nameZh": "台州市",
                  "city": "Taizhou",
                  "lat": 32.4833,
                  "lng": 119.9
                },
                {
                  "code": "CNTZU",
                  "name": "Taizhou",
                  "nameZh": "台州",
                  "city": "Taizhou",
                  "lat": 32.5,
                  "lng": 119.9
                },
                {
                  "code": "CNUIA",
                  "name": "Hui'an,Quanzhou",
                  "nameZh": "惠安，泉州",
                  "city": "Hui'an,Quanzhou",
                  "lat": 25.0333,
                  "lng": 118.9333
                },
                {
                  "code": "CNWAS",
                  "name": "Wanshan Pt",
                  "nameZh": "万山港",
                  "city": "Wanshan Pt",
                  "lat": 21.9333,
                  "lng": 113.7167
                },
                {
                  "code": "CNWAZ",
                  "name": "Wanzai",
                  "nameZh": "湾仔",
                  "city": "Wanzai",
                  "lat": 22.1833,
                  "lng": 113.5167
                },
                {
                  "code": "CNWEF",
                  "name": "Weifang",
                  "nameZh": "潍坊市",
                  "city": "Weifang",
                  "lat": 36.7167,
                  "lng": 119.1
                },
                {
                  "code": "CNWEG",
                  "name": "Weihai Pt",
                  "nameZh": "威海港",
                  "city": "Weihai Pt",
                  "lat": 37.5,
                  "lng": 122.1667
                },
                {
                  "code": "CNWEI",
                  "name": "Weihai",
                  "nameZh": "威海市",
                  "city": "Weihai",
                  "lat": 37.5167,
                  "lng": 122.1167
                },
                {
                  "code": "CNWHI",
                  "name": "Wuhu",
                  "nameZh": "芜湖市",
                  "city": "Wuhu",
                  "lat": 31.3167,
                  "lng": 118.3667
                },
                {
                  "code": "CNWHU",
                  "name": "Wuchuan",
                  "nameZh": "吴川市",
                  "city": "Wuchuan",
                  "lat": 21.45,
                  "lng": 110.75
                },
                {
                  "code": "CNWIH",
                  "name": "Waihai",
                  "nameZh": "外海",
                  "city": "Waihai",
                  "lat": 22.5833,
                  "lng": 113.1333
                },
                {
                  "code": "CNWIT",
                  "name": "Weitou",
                  "nameZh": "围头",
                  "city": "Weitou",
                  "lat": 24.5333,
                  "lng": 118.6
                },
                {
                  "code": "CNWSH",
                  "name": "Wenshan",
                  "nameZh": "文山",
                  "city": "Wenshan",
                  "lat": 23.3667,
                  "lng": 104.25
                },
                {
                  "code": "CNWUC",
                  "name": "Wu Chong Kou",
                  "nameZh": "乌冲口",
                  "city": "Wu Chong Kou",
                  "lat": 23.0833,
                  "lng": 113.4167
                },
                {
                  "code": "CNWUG",
                  "name": "Wusong Pt",
                  "nameZh": "吴淞港",
                  "city": "Wusong Pt",
                  "lat": 3.2,
                  "lng": 121.4833
                },
                {
                  "code": "CNWUK",
                  "name": "Wukan",
                  "nameZh": "吴坎",
                  "city": "Wukan",
                  "lat": 22.85,
                  "lng": 115.65
                },
                {
                  "code": "CNWUZ",
                  "name": "Wuzhou",
                  "nameZh": "梧州西江机场",
                  "city": "Wuzhou",
                  "lat": 23.4833,
                  "lng": 111.3333
                },
                {
                  "code": "CNWXS",
                  "name": "Wuxi",
                  "nameZh": "无锡市",
                  "city": "Wuxi",
                  "lat": 31.5667,
                  "lng": 120.3
                },
                {
                  "code": "CNWZO",
                  "name": "Wenzhou Pt",
                  "nameZh": "温州港",
                  "city": "Wenzhou Pt",
                  "lat": 28.0167,
                  "lng": 120.65
                },
                {
                  "code": "CNXAO",
                  "name": "Xiaolan",
                  "nameZh": "小榄镇",
                  "city": "Xiaolan",
                  "lat": 22.6667,
                  "lng": 113.2167
                },
                {
                  "code": "CNXCU",
                  "name": "Xiaocuo Pt",
                  "nameZh": "小厝港",
                  "city": "Xiaocuo Pt",
                  "lat": 25.2,
                  "lng": 119.95
                },
                {
                  "code": "CNXGA",
                  "name": "Xingang",
                  "nameZh": "新港",
                  "city": "Xingang",
                  "lat": 23.0333,
                  "lng": 113.1
                },
                {
                  "code": "CNXGD",
                  "name": "Xingdong",
                  "nameZh": "兴东",
                  "city": "Xingdong",
                  "lat": 47.9167,
                  "lng": 130.85
                },
                {
                  "code": "CNXHO",
                  "name": "Xiaohudao",
                  "nameZh": "小虎岛",
                  "city": "Xiaohudao",
                  "lat": 23.0833,
                  "lng": 113.4333
                },
                {
                  "code": "CNXHT",
                  "name": "Xilin Hot",
                  "nameZh": "锡林浩特",
                  "city": "Xilin Hot",
                  "lat": 43.9667,
                  "lng": 116.0333
                },
                {
                  "code": "CNXIA",
                  "name": "Xian",
                  "nameZh": "西安市",
                  "city": "Xian",
                  "lat": 34.2833,
                  "lng": 108.95
                },
                {
                  "code": "CNXIJ",
                  "name": "Xijiang",
                  "nameZh": "西江",
                  "city": "Xijiang",
                  "lat": 21.2833,
                  "lng": 114.8667
                },
                {
                  "code": "CNXIN",
                  "name": "Xinhui Pt",
                  "nameZh": "新会港",
                  "city": "Xinhui Pt",
                  "lat": 22.5333,
                  "lng": 113.0167
                },
                {
                  "code": "CNXIT",
                  "name": "Xintang Pt",
                  "nameZh": "新塘港",
                  "city": "Xintang Pt",
                  "lat": 23.1167,
                  "lng": 113.6167
                },
                {
                  "code": "CNXNA",
                  "name": "Xinsha",
                  "nameZh": "新沙",
                  "city": "Xinsha",
                  "lat": 22.9833,
                  "lng": 113.5333
                },
                {
                  "code": "CNXOT",
                  "name": "Xiaotang",
                  "nameZh": "小塘",
                  "city": "Xiaotang",
                  "lat": 23.0833,
                  "lng": 112.9833
                },
                {
                  "code": "CNXSP",
                  "name": "Shipu",
                  "nameZh": "石浦",
                  "city": "Shipu",
                  "lat": 29.4833,
                  "lng": 121.85
                },
                {
                  "code": "CNXTA",
                  "name": "Xiangtan",
                  "nameZh": "湘潭市",
                  "city": "Xiangtan",
                  "lat": 27.85,
                  "lng": 112.9
                },
                {
                  "code": "CNXTN",
                  "name": "Xiantan",
                  "nameZh": "仙潭",
                  "city": "Xiantan",
                  "lat": 29.3333,
                  "lng": 104.8833
                },
                {
                  "code": "CNXTO",
                  "name": "Xitou",
                  "nameZh": "西头",
                  "city": "Xitou",
                  "lat": 21.65,
                  "lng": 111.7833
                },
                {
                  "code": "CNXUK",
                  "name": "Xunke",
                  "nameZh": "寻课",
                  "city": "Xunke",
                  "lat": 49.55,
                  "lng": 128.4667
                },
                {
                  "code": "CNXYG",
                  "name": "Xiuyu Pt",
                  "nameZh": "秀屿港",
                  "city": "Xiuyu Pt",
                  "lat": 25.2333,
                  "lng": 118.95
                },
                {
                  "code": "CNXYI",
                  "name": "Xinying",
                  "nameZh": "新营",
                  "city": "Xinying",
                  "lat": 19.7333,
                  "lng": 109.2833
                },
                {
                  "code": "CNXZI",
                  "name": "Xiangzhi",
                  "nameZh": "祥芝",
                  "city": "Xiangzhi",
                  "lat": 24.7667,
                  "lng": 118.7667
                },
                {
                  "code": "CNYAT",
                  "name": "Yantai",
                  "nameZh": "烟台港",
                  "city": "Yantai",
                  "lat": 37.4667,
                  "lng": 121.3833
                },
                {
                  "code": "CNYFU",
                  "name": "Yongfu",
                  "nameZh": "永福镇",
                  "city": "Yongfu",
                  "lat": 24.9833,
                  "lng": 109.9833
                },
                {
                  "code": "CNYIK",
                  "name": "Yinkou",
                  "nameZh": "营口市",
                  "city": "Yinkou",
                  "lat": 40.65,
                  "lng": 122.2167
                },
                {
                  "code": "CNYIZ",
                  "name": "Yizheng",
                  "nameZh": "仪征市",
                  "city": "Yizheng",
                  "lat": 32.2667,
                  "lng": 119.1667
                },
                {
                  "code": "CNYJI",
                  "name": "Yangjiang",
                  "nameZh": "阳江市",
                  "city": "Yangjiang",
                  "lat": 21.8333,
                  "lng": 111.9667
                },
                {
                  "code": "CNYKG",
                  "name": "Yangkou Pt",
                  "nameZh": "洋口港",
                  "city": "Yangkou Pt",
                  "lat": 32.55,
                  "lng": 121.4
                },
                {
                  "code": "CNYNG",
                  "name": "Yangzhong",
                  "nameZh": "扬中市",
                  "city": "Yangzhong",
                  "lat": 32.2167,
                  "lng": 119.8167
                },
                {
                  "code": "CNYPG",
                  "name": "Yangpu Pt",
                  "nameZh": "洋浦港",
                  "city": "Yangpu Pt",
                  "lat": 19.7,
                  "lng": 109.2
                },
                {
                  "code": "CNYTG",
                  "name": "Yantai Pt",
                  "nameZh": "烟台港",
                  "city": "Yantai Pt",
                  "lat": 37.55,
                  "lng": 121.4167
                },
                {
                  "code": "CNYUH",
                  "name": "Yuhuan",
                  "nameZh": "玉环市",
                  "city": "Yuhuan",
                  "lat": 28.1333,
                  "lng": 121.2333
                },
                {
                  "code": "CNYYA",
                  "name": "Yueyang",
                  "nameZh": "岳阳市",
                  "city": "Yueyang",
                  "lat": 29.3667,
                  "lng": 113.1
                },
                {
                  "code": "CNYZH",
                  "name": "Yangzhou",
                  "nameZh": "扬州市",
                  "city": "Yangzhou",
                  "lat": 32.3833,
                  "lng": 119.4333
                },
                {
                  "code": "CNYZU",
                  "name": "Yuzhu",
                  "nameZh": "玉竹",
                  "city": "Yuzhu",
                  "lat": 23.1,
                  "lng": 113.4167
                },
                {
                  "code": "CNZDO",
                  "name": "Zhaodong",
                  "nameZh": "肇东市",
                  "city": "Zhaodong",
                  "lat": 46.0667,
                  "lng": 125.9833
                },
                {
                  "code": "CNZEL",
                  "name": "Zhelin",
                  "nameZh": "泽林",
                  "city": "Zhelin",
                  "lat": 23.5833,
                  "lng": 117.1
                },
                {
                  "code": "CNZGS",
                  "name": "Zhangshan",
                  "nameZh": "樟山",
                  "city": "Zhangshan",
                  "lat": 34.1167,
                  "lng": 118.3167
                },
                {
                  "code": "CNZGT",
                  "name": "Zhongtang",
                  "nameZh": "中塘",
                  "city": "Zhongtang",
                  "lat": 23.0833,
                  "lng": 113.65
                },
                {
                  "code": "CNZGW",
                  "name": "Zhangwan",
                  "nameZh": "樟湾",
                  "city": "Zhangwan",
                  "lat": 26.7,
                  "lng": 119.5833
                },
                {
                  "code": "CNZHE",
                  "name": "Zhenjiang",
                  "nameZh": "镇江市",
                  "city": "Zhenjiang",
                  "lat": 32.1833,
                  "lng": 119.45
                },
                {
                  "code": "CNZHG",
                  "name": "Zhaogang",
                  "nameZh": "赵岗",
                  "city": "Zhaogang",
                  "lat": 32.55,
                  "lng": 116.6333
                },
                {
                  "code": "CNZHH",
                  "name": "Zhuanghe Pt",
                  "nameZh": "庄河港",
                  "city": "Zhuanghe Pt",
                  "lat": 39.6833,
                  "lng": 122.9667
                },
                {
                  "code": "CNZJB",
                  "name": "Zhangjiabian",
                  "nameZh": "张家边",
                  "city": "Zhangjiabian",
                  "lat": 22.55,
                  "lng": 113.45
                },
                {
                  "code": "CNZLO",
                  "name": "Zhuliao",
                  "nameZh": "竹寮",
                  "city": "Zhuliao",
                  "lat": 23.3667,
                  "lng": 113.3333
                },
                {
                  "code": "CNZNG",
                  "name": "Zhanjiang Pt",
                  "nameZh": "湛江港",
                  "city": "Zhanjiang Pt",
                  "lat": 21.0833,
                  "lng": 110.5
                },
                {
                  "code": "CNZNZ",
                  "name": "Naozhou",
                  "nameZh": "瑙洲",
                  "city": "Naozhou",
                  "lat": 20.9167,
                  "lng": 110.5833
                },
                {
                  "code": "CNZPG",
                  "name": "zhengpugang Pt",
                  "nameZh": "正浦港",
                  "city": "zhengpugang Pt",
                  "lat": 31.6333,
                  "lng": 118.3833
                },
                {
                  "code": "CNZPO",
                  "name": "Zhapo",
                  "nameZh": "渣波",
                  "city": "Zhapo",
                  "lat": 21.5667,
                  "lng": 111.85
                },
                {
                  "code": "CNZPU",
                  "name": "Zhapu Pt",
                  "nameZh": "乍浦港",
                  "city": "Zhapu Pt",
                  "lat": 30.5833,
                  "lng": 121.0833
                },
                {
                  "code": "CNZQG",
                  "name": "Zhaoqing",
                  "nameZh": "肇庆市",
                  "city": "Zhaoqing",
                  "lat": 23.05,
                  "lng": 112.45
                },
                {
                  "code": "CNZSN",
                  "name": "Zhongshan",
                  "nameZh": "中山市",
                  "city": "Zhongshan",
                  "lat": 22.5167,
                  "lng": 113.3667
                },
                {
                  "code": "CNZUH",
                  "name": "Zhuhai",
                  "nameZh": "九洲港",
                  "city": "Zhuhai",
                  "lat": 22.2833,
                  "lng": 113.5667
                },
                {
                  "code": "CNZYO",
                  "name": "Zhuangyuanao",
                  "nameZh": "庄远澳",
                  "city": "Zhuangyuanao",
                  "lat": 27.8833,
                  "lng": 121.1167
                }
              ]
            },
            "HK": {
              "code": "HK",
              "name": "中国香港",
              "nameEn": "Hong Kong, China",
              "totalPorts": 8,
              "ports": [
                {
                  "code": "HKHKG",
                  "name": "Hong Kong",
                  "nameZh": "香港",
                  "city": "Hong Kong",
                  "lat": 22.3167,
                  "lng": 114.1667
                },
                {
                  "code": "HK9YM",
                  "name": "Yau Ma Tei",
                  "nameZh": "油麻地",
                  "city": "Yau Ma Tei",
                  "lat": 22.3167,
                  "lng": 114.1667
                },
                {
                  "code": "HKABD",
                  "name": "Aberdeen",
                  "nameZh": "香港仔",
                  "city": "Aberdeen",
                  "lat": 22.25,
                  "lng": 114.15
                },
                {
                  "code": "HKCWB",
                  "name": "Causeway Bay",
                  "nameZh": "铜锣湾",
                  "city": "Causeway Bay",
                  "lat": 22.2833,
                  "lng": 114.1833
                },
                {
                  "code": "HKHKC",
                  "name": "Ha Kwai Chung",
                  "nameZh": "下白泥",
                  "city": "Ha Kwai Chung",
                  "lat": 22.3667,
                  "lng": 114.1167
                },
                {
                  "code": "HKKWN",
                  "name": "Kowloon",
                  "nameZh": "九龙",
                  "city": "Kowloon",
                  "lat": 22.3,
                  "lng": 114.1667
                },
                {
                  "code": "HKTST",
                  "name": "Tsim Sha Tsui",
                  "nameZh": "尖沙咀",
                  "city": "Tsim Sha Tsui",
                  "lat": 22.3,
                  "lng": 114.1667
                },
                {
                  "code": "HKWNI",
                  "name": "Wan Chai",
                  "nameZh": "湾仔",
                  "city": "Wan Chai",
                  "lat": 22.2833,
                  "lng": 114.1667
                }
              ]
            },
            "MO": {
              "code": "MO",
              "name": "中国澳门",
              "nameEn": "Macao, China",
              "totalPorts": 1,
              "ports": [
                {
                  "code": "MOMFM",
                  "name": "Macau",
                  "nameZh": "澳门",
                  "city": "Macau",
                  "lat": 22.2,
                  "lng": 113.5333
                }
              ]
            },
            "TW": {
              "code": "TW",
              "name": "中国台湾",
              "nameEn": "Taiwan, China",
              "totalPorts": 10,
              "ports": [
                {
                  "code": "TWTPE",
                  "name": "Taipei",
                  "nameZh": "台北",
                  "city": "Taipei",
                  "lat": 25.0333,
                  "lng": 121.5167
                },
                {
                  "code": "TWBAL",
                  "name": "Bali",
                  "nameZh": "八里",
                  "city": "Bali",
                  "lat": 25.15,
                  "lng": 121.4
                },
                {
                  "code": "TWBDA",
                  "name": "Budai",
                  "nameZh": "布袋",
                  "city": "Budai",
                  "lat": 23.3667,
                  "lng": 120.1
                },
                {
                  "code": "TWHUK",
                  "name": "Hukou",
                  "nameZh": "湖口乡",
                  "city": "Hukou",
                  "lat": 24.9,
                  "lng": 121.05
                },
                {
                  "code": "TWLGM",
                  "name": "Lung-men",
                  "nameZh": "龙门",
                  "city": "Lung-men",
                  "lat": 23.5667,
                  "lng": 119.6667
                },
                {
                  "code": "TWMAL",
                  "name": "Mai-Liai",
                  "nameZh": "麦寮",
                  "city": "Mai-Liai",
                  "lat": 23.75,
                  "lng": 120.25
                },
                {
                  "code": "TWMLI",
                  "name": "Mai-liao",
                  "nameZh": "南投",
                  "city": "Mai-liao",
                  "lat": 23.1,
                  "lng": 120.1333
                },
                {
                  "code": "TWNAN",
                  "name": "Nantou",
                  "nameZh": "沙仑",
                  "city": "Nantou",
                  "lat": 23.9,
                  "lng": 120.6833
                },
                {
                  "code": "TWSHL",
                  "name": "Sha-lun",
                  "nameZh": "乌屯",
                  "city": "Sha-lun",
                  "lat": 25.1,
                  "lng": 121.2167
                },
                {
                  "code": "TWWTU",
                  "name": "Wu-tu",
                  "nameZh": "",
                  "city": "Wu-tu",
                  "lat": 25.0833,
                  "lng": 121.6667
                }
              ]
            },
            "JP": {
              "code": "JP",
              "name": "日本",
              "nameEn": "Japan",
              "totalPorts": 112,
              "ports": [
                {
                  "code": "JPTYO",
                  "name": "Tokyo",
                  "nameZh": "东京港",
                  "city": "Tokyo",
                  "lat": 35.6833,
                  "lng": 139.75
                },
                {
                  "code": "JPARI",
                  "name": "Ariake, Tokyo",
                  "nameZh": "有明，东京",
                  "city": "Ariake, Tokyo",
                  "lat": 35.6333,
                  "lng": 139.7833
                },
                {
                  "code": "JPNTO",
                  "name": "Nishitokyo",
                  "nameZh": "西东京市",
                  "city": "Nishitokyo",
                  "lat": 34.7333,
                  "lng": 139.5333
                },
                {
                  "code": "JPSHG",
                  "name": "Shinagawa, Tokyo",
                  "nameZh": "東京品川",
                  "city": "Shinagawa, Tokyo",
                  "lat": 35.6,
                  "lng": 139.7167
                },
                {
                  "code": "JPTOX",
                  "name": "Toshima/Tokyo",
                  "nameZh": "豊島/东京",
                  "city": "Toshima/Tokyo",
                  "lat": 34.5167,
                  "lng": 139.2667
                },