[
  {
    "id": "port-aeabu",
    "code": "AEABU",
    "name": "Abu al Bukhoosh",
    "country": "AE",
    "city": "Abu al Bukhoosh",
    "lat": 25.483333333333334,
    "lng": 53.13333333333333
  },
  {
    "id": "port-aeauh",
    "code": "AEAUH",
    "name": "Abu Dhabi",
    "country": "AE",
    "city": "Abu Dhabi",
    "lat": 24.466666666666665,
    "lng": 54.36666666666667
  },
  {
    "id": "port-aeamu",
    "code": "AEAMU",
    "name": "Abu Musa",
    "country": "AE",
    "city": "Abu Musa",
    "lat": 25.866666666666667,
    "lng": 55.016666666666666
  },
  {
    "id": "port-aearp",
    "code": "AEARP",
    "name": "Ahmed Bin Rashid Port",
    "country": "AE",
    "city": "Ahmed Bin Rashid Port",
    "lat": 25.533333333333335,
    "lng": 55.55
  },
  {
    "id": "port-aefjr",
    "code": "AEFJR",
    "name": "Al Fujayrah",
    "country": "AE",
    "city": "Al Fujayrah",
    "lat": 25.116666666666667,
    "lng": 56.333333333333336
  },
  {
    "id": "port-aejaz",
    "code": "AEJAZ",
    "name": "Al Jazeera Port",
    "country": "AE",
    "city": "Al Jazeera Port",
    "lat": 25.716666666666665,
    "lng": 55.8
  },
  {
    "id": "port-aeajp",
    "code": "AEAJP",
    "name": "Al Jeer Port",
    "country": "AE",
    "city": "Al Jeer Port",
    "lat": 26.033333333333335,
    "lng": 56.05
  },
  {
    "id": "port-aeruw",
    "code": "AERUW",
    "name": "Ar Ruways",
    "country": "AE",
    "city": "Ar Ruways",
    "lat": 24.116666666666667,
    "lng": 52.733333333333334
  },
  {
    "id": "port-aedbp",
    "code": "AEDBP",
    "name": "Dibba",
    "country": "AE",
    "city": "Dibba",
    "lat": 25.616666666666667,
    "lng": 56.266666666666666
  },
  {
    "id": "port-aedxb",
    "code": "AEDXB",
    "name": "Dubai",
    "country": "AE",
    "city": "Dubai",
    "lat": 25.25,
    "lng": 55.266666666666666
  },
  {
    "id": "port-aeend",
    "code": "AEEND",
    "name": "Esnnad",
    "country": "AE",
    "city": "Esnnad",
    "lat": 24.316666666666666,
    "lng": 54.45
  },
  {
    "id": "port-aefrp",
    "code": "AEFRP",
    "name": "Free Port",
    "country": "AE",
    "city": "Free Port",
    "lat": 25.25,
    "lng": 55.25
  },
  {
    "id": "port-aehzp",
    "code": "AEHZP",
    "name": "Hamriya Free Zone Port",
    "country": "AE",
    "city": "Hamriya Free Zone Port",
    "lat": 25.3,
    "lng": 55.31666666666667
  },
  {
    "id": "port-aehsn",
    "code": "AEHSN",
    "name": "Hassyan",
    "country": "AE",
    "city": "Hassyan",
    "lat": 24.9,
    "lng": 54.9
  },
  {
    "id": "port-aehtl",
    "code": "AEHTL",
    "name": "Hulaylah Terminal",
    "country": "AE",
    "city": "Hulaylah Terminal",
    "lat": 25.983333333333334,
    "lng": 55.93333333333333
  },
  {
    "id": "port-aeqwe",
    "code": "AEQWE",
    "name": "Jebel Ali Free Zone",
    "country": "AE",
    "city": "Jebel Ali Free Zone",
    "lat": 25,
    "lng": 55.05
  },
  {
    "id": "port-aeklb",
    "code": "AEKLB",
    "name": "Kalba",
    "country": "AE",
    "city": "Kalba",
    "lat": 25.066666666666666,
    "lng": 56.35
  },
  {
    "id": "port-aeklf",
    "code": "AEKLF",
    "name": "Khor al Fakkan",
    "country": "AE",
    "city": "Khor al Fakkan",
    "lat": 25.333333333333332,
    "lng": 56.35
  },
  {
    "id": "port-aemkh",
    "code": "AEMKH",
    "name": "Mina Khalid",
    "country": "AE",
    "city": "Mina Khalid",
    "lat": 25.35,
    "lng": 55.36666666666667
  },
  {
    "id": "port-aekhl",
    "code": "AEKHL",
    "name": "Mina Khalifa/Abu Dhabi",
    "country": "AE",
    "city": "Mina Khalifa/Abu Dhabi",
    "lat": 24.833333333333332,
    "lng": 54.666666666666664
  },
  {
    "id": "port-aemrp",
    "code": "AEMRP",
    "name": "Mina Rashid Port",
    "country": "AE",
    "city": "Mina Rashid Port",
    "lat": 25.266666666666666,
    "lng": 55.28333333333333
  },
  {
    "id": "port-aemsa",
    "code": "AEMSA",
    "name": "Mina Saqr",
    "country": "AE",
    "city": "Mina Saqr",
    "lat": 25.966666666666665,
    "lng": 56.06666666666667
  },
  {
    "id": "port-aemzd",
    "code": "AEMZD",
    "name": "Mina Zayed/Abu Dhabi",
    "country": "AE",
    "city": "Mina Zayed/Abu Dhabi",
    "lat": 24.516666666666666,
    "lng": 54.36666666666667
  },
  {
    "id": "port-aerfa",
    "code": "AERFA",
    "name": "Mirfa",
    "country": "AE",
    "city": "Mirfa",
    "lat": 25.466666666666665,
    "lng": 53.483333333333334
  },
  {
    "id": "port-aembs",
    "code": "AEMBS",
    "name": "Mubarras Island",
    "country": "AE",
    "city": "Mubarras Island",
    "lat": 24.583333333333332,
    "lng": 53.31666666666667
  },
  {
    "id": "port-aeamf",
    "code": "AEAMF",
    "name": "Musaffah",
    "country": "AE",
    "city": "Musaffah",
    "lat": 24.383333333333333,
    "lng": 54.483333333333334
  },
  {
    "id": "port-aerkp",
    "code": "AERKP",
    "name": "Rak Khor Port",
    "country": "AE",
    "city": "Rak Khor Port",
    "lat": 25.816666666666666,
    "lng": 55.95
  },
  {
    "id": "port-aermc",
    "code": "AERMC",
    "name": "Rak Maritime City",
    "country": "AE",
    "city": "Rak Maritime City",
    "lat": 25.95,
    "lng": 56.05
  },
  {
    "id": "port-aerkt",
    "code": "AERKT",
    "name": "Ras al Khaimah",
    "country": "AE",
    "city": "Ras al Khaimah",
    "lat": 25.783333333333335,
    "lng": 55.95
  },
  {
    "id": "port-aerwp",
    "code": "AERWP",
    "name": "Ruwais Port",
    "country": "AE",
    "city": "Ruwais Port",
    "lat": 24.1,
    "lng": 52.71666666666667
  },
  {
    "id": "port-aesid",
    "code": "AESID",
    "name": "Sadiyat Island",
    "country": "AE",
    "city": "Sadiyat Island",
    "lat": 24.533333333333335,
    "lng": 54.4
  },
  {
    "id": "port-aeshj",
    "code": "AESHJ",
    "name": "Sharjah",
    "country": "AE",
    "city": "Sharjah",
    "lat": 25.35,
    "lng": 55.38333333333333
  },
  {
    "id": "port-aeulr",
    "code": "AEULR",
    "name": "Umm Al Nar",
    "country": "AE",
    "city": "Umm Al Nar",
    "lat": 24.433333333333334,
    "lng": 54.5
  },
  {
    "id": "port-aeqiw",
    "code": "AEQIW",
    "name": "Umm al Quwain",
    "country": "AE",
    "city": "Umm al Quwain",
    "lat": 25.583333333333332,
    "lng": 55.583333333333336
  },
  {
    "id": "port-aeyas",
    "code": "AEYAS",
    "name": "Yas Island",
    "country": "AE",
    "city": "Yas Island",
    "lat": 24.316666666666666,
    "lng": 52.6
  },
  {
    "id": "port-aezur",
    "code": "AEZUR",
    "name": "Zirku Island",
    "country": "AE",
    "city": "Zirku Island",
    "lat": 24.883333333333333,
    "lng": 53.06666666666667
  },
  {
    "id": "port-afdhd",
    "code": "AFDHD",
    "name": "Dehdadi",
    "country": "AF",
    "city": "Dehdadi",
    "lat": 36.65,
    "lng": 66.98333333333333
  },
  {
    "id": "port-afqlt",
    "code": "AFQLT",
    "name": "Qalat",
    "country": "AF",
    "city": "Qalat",
    "lat": 32.1,
    "lng": 66.88333333333334
  },
  {
    "id": "port-afrkh",
    "code": "AFRKH",
    "name": "Torkham",
    "country": "AF",
    "city": "Torkham",
    "lat": 34.88333333333333,
    "lng": 71.91666666666667
  },
  {
    "id": "port-agfam",
    "code": "AGFAM",
    "name": "Falmouth",
    "country": "AG",
    "city": "Falmouth",
    "lat": 17.016666666666666,
    "lng": -61.78333333333333
  },
  {
    "id": "port-agphm",
    "code": "AGPHM",
    "name": "Parham",
    "country": "AG",
    "city": "Parham",
    "lat": 17.083333333333332,
    "lng": -61.75
  },
  {
    "id": "port-agsjo",
    "code": "AGSJO",
    "name": "Saint John's",
    "country": "AG",
    "city": "Saint John's",
    "lat": 17.116666666666667,
    "lng": -61.85
  },
  {
    "id": "port-aimbb",
    "code": "AIMBB",
    "name": "Meads Bay Beach",
    "country": "AI",
    "city": "Meads Bay Beach",
    "lat": 18.166666666666668,
    "lng": -63.13333333333333
  },
  {
    "id": "port-aisom",
    "code": "AISOM",
    "name": "Sombrero",
    "country": "AI",
    "city": "Sombrero",
    "lat": 18.6,
    "lng": -63.46666666666667
  },
  {
    "id": "port-albut",
    "code": "ALBUT",
    "name": "Butrint",
    "country": "AL",
    "city": "Butrint",
    "lat": 39.75,
    "lng": 20.016666666666666
  },
  {
    "id": "port-alhmr",
    "code": "ALHMR",
    "name": "Himare",
    "country": "AL",
    "city": "Himare",
    "lat": 40.13333333333333,
    "lng": 19.716666666666665
  },
  {
    "id": "port-alrom",
    "code": "ALROM",
    "name": "Romano Port",
    "country": "AL",
    "city": "Romano Port",
    "lat": 41.36666666666667,
    "lng": 19.416666666666668
  },
  {
    "id": "port-alsar",
    "code": "ALSAR",
    "name": "Sarandë",
    "country": "AL",
    "city": "Sarandë",
    "lat": 39.88333333333333,
    "lng": 20
  },
  {
    "id": "port-alshg",
    "code": "ALSHG",
    "name": "Shëngjin",
    "country": "AL",
    "city": "Shëngjin",
    "lat": 41.8,
    "lng": 19.566666666666666
  },
  {
    "id": "port-alvoa",
    "code": "ALVOA",
    "name": "Vlorë",
    "country": "AL",
    "city": "Vlorë",
    "lat": 40.46666666666667,
    "lng": 19.483333333333334
  },
  {
    "id": "port-aobab",
    "code": "AOBAB",
    "name": "Baba",
    "country": "AO",
    "city": "Baba",
    "lat": -14.833333333333334,
    "lng": 12.233333333333333
  },
  {
    "id": "port-aobdt",
    "code": "AOBDT",
    "name": "Baía dos Tigres",
    "country": "AO",
    "city": "Baía dos Tigres",
    "lat": -16.6,
    "lng": 11.733333333333333
  },
  {
    "id": "port-aocpo",
    "code": "AOCPO",
    "name": "Capulo",
    "country": "AO",
    "city": "Capulo",
    "lat": -7.983333333333333,
    "lng": 13.166666666666666
  },
  {
    "id": "port-aocui",
    "code": "AOCUI",
    "name": "Cuio",
    "country": "AO",
    "city": "Cuio",
    "lat": -12.983333333333333,
    "lng": 12.983333333333333
  },
  {
    "id": "port-aodal",
    "code": "AODAL",
    "name": "Dalia",
    "country": "AO",
    "city": "Dalia",
    "lat": -7.683333333333334,
    "lng": 11.783333333333333
  },
  {
    "id": "port-aoetn",
    "code": "AOETN",
    "name": "Essungo Terminal",
    "country": "AO",
    "city": "Essungo Terminal",
    "lat": -6.333333333333333,
    "lng": 12.166666666666666
  },
  {
    "id": "port-aofby",
    "code": "AOFBY",
    "name": "Farta Bay",
    "country": "AO",
    "city": "Farta Bay",
    "lat": -12.616666666666667,
    "lng": 13.2
  },
  {
    "id": "port-aoflt",
    "code": "AOFLT",
    "name": "Futila Terminal",
    "country": "AO",
    "city": "Futila Terminal",
    "lat": -5.45,
    "lng": 12.183333333333334
  },
  {
    "id": "port-aogim",
    "code": "AOGIM",
    "name": "Gimboa",
    "country": "AO",
    "city": "Gimboa",
    "lat": -7.533333333333333,
    "lng": 12.166666666666666
  },
  {
    "id": "port-aogir",
    "code": "AOGIR",
    "name": "Girassol Terminal",
    "country": "AO",
    "city": "Girassol Terminal",
    "lat": -7.633333333333333,
    "lng": 11.683333333333334
  },
  {
    "id": "port-aogpo",
    "code": "AOGPO",
    "name": "Greater Plutonio",
    "country": "AO",
    "city": "Greater Plutonio",
    "lat": -7.833333333333333,
    "lng": 12.116666666666667
  },
  {
    "id": "port-aokot",
    "code": "AOKOT",
    "name": "Kuito Terminal",
    "country": "AO",
    "city": "Kuito Terminal",
    "lat": -5.433333333333334,
    "lng": 11.483333333333333
  },
  {
    "id": "port-aolbt",
    "code": "AOLBT",
    "name": "Lombo Terminal",
    "country": "AO",
    "city": "Lombo Terminal",
    "lat": -6.983333333333333,
    "lng": 12.35
  },
  {
    "id": "port-aonqi",
    "code": "AONQI",
    "name": "Nóqui",
    "country": "AO",
    "city": "Nóqui",
    "lat": -5.85,
    "lng": 13.433333333333334
  },
  {
    "id": "port-aonto",
    "code": "AONTO",
    "name": "N'Zeto (Ambrizete)",
    "country": "AO",
    "city": "N'Zeto (Ambrizete)",
    "lat": -7.266666666666667,
    "lng": 12.85
  },
  {
    "id": "port-aopsa",
    "code": "AOPSA",
    "name": "Porto Saco (Portosalazar)",
    "country": "AO",
    "city": "Porto Saco (Portosalazar)",
    "lat": -15.133333333333333,
    "lng": 12.133333333333333
  },
  {
    "id": "port-aorsn",
    "code": "AORSN",
    "name": "River Sao Nicolau",
    "country": "AO",
    "city": "River Sao Nicolau",
    "lat": -14.25,
    "lng": 12.333333333333334
  },
  {
    "id": "port-aostl",
    "code": "AOSTL",
    "name": "Sazaire Terminal",
    "country": "AO",
    "city": "Sazaire Terminal",
    "lat": -6.083333333333333,
    "lng": 12.383333333333333
  },
  {
    "id": "port-aqaba",
    "code": "AQABA",
    "name": "Aboa",
    "country": "AQ",
    "city": "Aboa",
    "lat": -73.05,
    "lng": -13.416666666666666
  },
  {
    "id": "port-aqarc",
    "code": "AQARC",
    "name": "Arctowski",
    "country": "AQ",
    "city": "Arctowski",
    "lat": -62.15,
    "lng": -58.46666666666667
  },
  {
    "id": "port-aqart",
    "code": "AQART",
    "name": "Artigas",
    "country": "AQ",
    "city": "Artigas",
    "lat": -62.18333333333333,
    "lng": -58.9
  },
  {
    "id": "port-aqapt",
    "code": "AQAPT",
    "name": "Arturo Prat",
    "country": "AQ",
    "city": "Arturo Prat",
    "lat": -62.5,
    "lng": -59.68333333333333
  },
  {
    "id": "port-aqbhn",
    "code": "AQBHN",
    "name": "Bellingshausen",
    "country": "AQ",
    "city": "Bellingshausen",
    "lat": -62.18333333333333,
    "lng": -58.95
  },
  {
    "id": "port-aqcas",
    "code": "AQCAS",
    "name": "Casey Station",
    "country": "AQ",
    "city": "Casey Station",
    "lat": -66.28333333333333,
    "lng": 110.51666666666667
  },
  {
    "id": "port-aqcfz",
    "code": "AQCFZ",
    "name": "Comandante Ferraz",
    "country": "AQ",
    "city": "Comandante Ferraz",
    "lat": -62.083333333333336,
    "lng": -58.38333333333333
  },
  {
    "id": "port-aqdav",
    "code": "AQDAV",
    "name": "Davis Station",
    "country": "AQ",
    "city": "Davis Station",
    "lat": -68.56666666666666,
    "lng": 77.96666666666667
  },
  {
    "id": "port-aqddu",
    "code": "AQDDU",
    "name": "Dumont d'Urville Station",
    "country": "AQ",
    "city": "Dumont d'Urville Station",
    "lat": -66.65,
    "lng": 140
  },
  {
    "id": "port-aqesc",
    "code": "AQESC",
    "name": "Escudero",
    "country": "AQ",
    "city": "Escudero",
    "lat": -62.2,
    "lng": -58.95
  },
  {
    "id": "port-aqesp",
    "code": "AQESP",
    "name": "Esperanza",
    "country": "AQ",
    "city": "Esperanza",
    "lat": -63.38333333333333,
    "lng": -56.983333333333334
  },
  {
    "id": "port-aqohg",
    "code": "AQOHG",
    "name": "General Bernardo O'higgins",
    "country": "AQ",
    "city": "General Bernardo O'higgins",
    "lat": -63.31666666666667,
    "lng": -57.9
  },
  {
    "id": "port-aqgwl",
    "code": "AQGWL",
    "name": "Great Wall",
    "country": "AQ",
    "city": "Great Wall",
    "lat": -62.21666666666667,
    "lng": -58.96666666666667
  },
  {
    "id": "port-aqhly",
    "code": "AQHLY",
    "name": "Halley",
    "country": "AQ",
    "city": "Halley",
    "lat": -75.56666666666666,
    "lng": -26.533333333333335
  },
  {
    "id": "port-aqjbs",
    "code": "AQJBS",
    "name": "Jang Bogo Station",
    "country": "AQ",
    "city": "Jang Bogo Station",
    "lat": -74.6,
    "lng": 164.2
  },
  {
    "id": "port-aqjcp",
    "code": "AQJCP",
    "name": "Juan Carlos Primero",
    "country": "AQ",
    "city": "Juan Carlos Primero",
    "lat": -62.65,
    "lng": -60.38333333333333
  },
  {
    "id": "port-aqjub",
    "code": "AQJUB",
    "name": "Jubany",
    "country": "AQ",
    "city": "Jubany",
    "lat": -62.233333333333334,
    "lng": -58.65
  },
  {
    "id": "port-aqksg",
    "code": "AQKSG",
    "name": "King Sejong",
    "country": "AQ",
    "city": "King Sejong",
    "lat": -62.21666666666667,
    "lng": -58.78333333333333
  },
  {
    "id": "port-aqkhn",
    "code": "AQKHN",
    "name": "Kohnen",
    "country": "AQ",
    "city": "Kohnen",
    "lat": -75,
    "lng": 0.06666666666666667
  },
  {
    "id": "port-aqlaw",
    "code": "AQLAW",
    "name": "Law Base",
    "country": "AQ",
    "city": "Law Base",
    "lat": -69.38333333333334,
    "lng": 76.38333333333334
  },
  {
    "id": "port-aqmrb",
    "code": "AQMRB",
    "name": "Marambio",
    "country": "AQ",
    "city": "Marambio",
    "lat": -64.23333333333333,
    "lng": -56.65
  },
  {
    "id": "port-aqmzu",
    "code": "AQMZU",
    "name": "Mario Zucchelli",
    "country": "AQ",
    "city": "Mario Zucchelli",
    "lat": -74.68333333333334,
    "lng": 164.11666666666667
  },
  {
    "id": "port-aqmaw",
    "code": "AQMAW",
    "name": "Mawson Station",
    "country": "AQ",
    "city": "Mawson Station",
    "lat": -67.6,
    "lng": 62.86666666666667
  },
  {
    "id": "port-aqmcm",
    "code": "AQMCM",
    "name": "McMurdo",
    "country": "AQ",
    "city": "McMurdo",
    "lat": -77.83333333333333,
    "lng": 166.66666666666666
  },
  {
    "id": "port-aqmir",
    "code": "AQMIR",
    "name": "Mirny",
    "country": "AQ",
    "city": "Mirny",
    "lat": -66.55,
    "lng": 93
  },
  {
    "id": "port-aqorc",
    "code": "AQORC",
    "name": "Orcadas",
    "country": "AQ",
    "city": "Orcadas",
    "lat": -60.733333333333334,
    "lng": -44.733333333333334
  },
  {
    "id": "port-aqplm",
    "code": "AQPLM",
    "name": "Palmer",
    "country": "AQ",
    "city": "Palmer",
    "lat": -64.76666666666667,
    "lng": -64.05
  },
  {
    "id": "port-aqpfs",
    "code": "AQPFS",
    "name": "Port Foster",
    "country": "AQ",
    "city": "Port Foster",
    "lat": -63,
    "lng": -60.56666666666667
  },
  {
    "id": "port-aqpro",
    "code": "AQPRO",
    "name": "Progress",
    "country": "AQ",
    "city": "Progress",
    "lat": -69.4,
    "lng": 76.38333333333334
  },
  {
    "id": "port-aqrot",
    "code": "AQROT",
    "name": "Rothera",
    "country": "AQ",
    "city": "Rothera",
    "lat": -67.56666666666666,
    "lng": -68.11666666666666
  },
  {
    "id": "port-aqsmt",
    "code": "AQSMT",
    "name": "San Martín",
    "country": "AQ",
    "city": "San Martín",
    "lat": -68.11666666666666,
    "lng": -67.1
  },
  {
    "id": "port-aqsgn",
    "code": "AQSGN",
    "name": "Signy",
    "country": "AQ",
    "city": "Signy",
    "lat": -60.71666666666667,
    "lng": -45.6
  },
  {
    "id": "port-aqsyw",
    "code": "AQSYW",
    "name": "Syowa",
    "country": "AQ",
    "city": "Syowa",
    "lat": -69,
    "lng": 39.583333333333336
  },
  {
    "id": "port-aqvky",
    "code": "AQVKY",
    "name": "Vernadsky",
    "country": "AQ",
    "city": "Vernadsky",
    "lat": -65.23333333333333,
    "lng": -64.25
  },
  {
    "id": "port-aqwsa",
    "code": "AQWSA",
    "name": "Wasa",
    "country": "AQ",
    "city": "Wasa",
    "lat": -73.05,
    "lng": -13.416666666666666
  },
  {
    "id": "port-aqzgn",
    "code": "AQZGN",
    "name": "Zhongshan",
    "country": "AQ",
    "city": "Zhongshan",
    "lat": -69.36666666666666,
    "lng": 76.38333333333334
  },
  {
    "id": "port-argeo",
    "code": "ARGEO",
    "name": "Agrelo",
    "country": "AR",
    "city": "Agrelo",
    "lat": -33.11666666666667,
    "lng": -68.88333333333334
  },
  {
    "id": "port-aracf",
    "code": "ARACF",
    "name": "Arrecifes",
    "country": "AR",
    "city": "Arrecifes",
    "lat": -34.083333333333336,
    "lng": -60.11666666666667
  },
  {
    "id": "port-araso",
    "code": "ARASO",
    "name": "Arroyo Seco",
    "country": "AR",
    "city": "Arroyo Seco",
    "lat": -33.13333333333333,
    "lng": -60.43333333333333
  },
  {
    "id": "port-arbhi",
    "code": "ARBHI",
    "name": "Bahía Blanca",
    "country": "AR",
    "city": "Bahía Blanca",
    "lat": -38.71666666666667,
    "lng": -62.28333333333333
  },
  {
    "id": "port-arbvc",
    "code": "ARBVC",
    "name": "Bella Vista",
    "country": "AR",
    "city": "Bella Vista",
    "lat": -28.5,
    "lng": -59.05
  },
  {
    "id": "port-arbue",
    "code": "ARBUE",
    "name": "Buenos Aires",
    "country": "AR",
    "city": "Buenos Aires",
    "lat": -34.583333333333336,
    "lng": -58.666666666666664
  },
  {
    "id": "port-arcsa",
    "code": "ARCSA",
    "name": "Cabo San Antonio",
    "country": "AR",
    "city": "Cabo San Antonio",
    "lat": -36.03333333333333,
    "lng": -56.56666666666667
  },
  {
    "id": "port-arclc",
    "code": "ARCLC",
    "name": "Caleta Córdoba",
    "country": "AR",
    "city": "Caleta Córdoba",
    "lat": -45.733333333333334,
    "lng": -67.06666666666666
  },
  {
    "id": "port-arcmp",
    "code": "ARCMP",
    "name": "Campana",
    "country": "AR",
    "city": "Campana",
    "lat": -34.15,
    "lng": -58.95
  },
  {
    "id": "port-arcdl",
    "code": "ARCDL",
    "name": "Candelaria",
    "country": "AR",
    "city": "Candelaria",
    "lat": -27.45,
    "lng": -55.75
  },
  {
    "id": "port-archo",
    "code": "ARCHO",
    "name": "Chilecito",
    "country": "AR",
    "city": "Chilecito",
    "lat": -29.166666666666668,
    "lng": -67.5
  },
  {
    "id": "port-arcbs",
    "code": "ARCBS",
    "name": "Chimbas",
    "country": "AR",
    "city": "Chimbas",
    "lat": -31.483333333333334,
    "lng": -68.53333333333333
  },
  {
    "id": "port-arcol",
    "code": "ARCOL",
    "name": "Colón",
    "country": "AR",
    "city": "Colón",
    "lat": -32.21666666666667,
    "lng": -58.13333333333333
  },
  {
    "id": "port-arcou",
    "code": "ARCOU",
    "name": "Concepción del Uruguay",
    "country": "AR",
    "city": "Concepción del Uruguay",
    "lat": -32.483333333333334,
    "lng": -58.233333333333334
  },
  {
    "id": "port-ariqo",
    "code": "ARIQO",
    "name": "Coquimbito",
    "country": "AR",
    "city": "Coquimbito",
    "lat": -32.96666666666667,
    "lng": -68.75
  },
  {
    "id": "port-ardgu",
    "code": "ARDGU",
    "name": "Del Guazu",
    "country": "AR",
    "city": "Del Guazu",
    "lat": -33.9,
    "lng": -58.86666666666667
  },
  {
    "id": "port-ardme",
    "code": "ARDME",
    "name": "Diamante",
    "country": "AR",
    "city": "Diamante",
    "lat": -32.06666666666667,
    "lng": -60.65
  },
  {
    "id": "port-ardsu",
    "code": "ARDSU",
    "name": "Dock Sur",
    "country": "AR",
    "city": "Dock Sur",
    "lat": -34.65,
    "lng": -58.333333333333336
  },
  {
    "id": "port-arghu",
    "code": "ARGHU",
    "name": "Gualeguaychú",
    "country": "AR",
    "city": "Gualeguaychú",
    "lat": -33.016666666666666,
    "lng": -58.516666666666666
  },
  {
    "id": "port-ariby",
    "code": "ARIBY",
    "name": "Ibicuy",
    "country": "AR",
    "city": "Ibicuy",
    "lat": -33.733333333333334,
    "lng": -59.166666666666664
  },
  {
    "id": "port-arbui",
    "code": "ARBUI",
    "name": "Ingeniero Buitrago",
    "country": "AR",
    "city": "Ingeniero Buitrago",
    "lat": -33.35,
    "lng": -60.13333333333333
  },
  {
    "id": "port-arinw",
    "code": "ARINW",
    "name": "Ingeniero White/Bahia Blanca",
    "country": "AR",
    "city": "Ingeniero White/Bahia Blanca",
    "lat": -38.78333333333333,
    "lng": -62.266666666666666
  },
  {
    "id": "port-arlpm",
    "code": "ARLPM",
    "name": "La Paz",
    "country": "AR",
    "city": "La Paz",
    "lat": -33.46666666666667,
    "lng": -67.55
  },
  {
    "id": "port-arlpg",
    "code": "ARLPG",
    "name": "La Plata",
    "country": "AR",
    "city": "La Plata",
    "lat": -34.85,
    "lng": -57.88333333333333
  },
  {
    "id": "port-arlps",
    "code": "ARLPS",
    "name": "Las Palmas",
    "country": "AR",
    "city": "Las Palmas",
    "lat": -34.016666666666666,
    "lng": -59.11666666666667
  },
  {
    "id": "port-arlav",
    "code": "ARLAV",
    "name": "Lavalle",
    "country": "AR",
    "city": "Lavalle",
    "lat": -28.2,
    "lng": -65.13333333333334
  },
  {
    "id": "port-arluj",
    "code": "ARLUJ",
    "name": "Luján",
    "country": "AR",
    "city": "Luján",
    "lat": -34.56666666666667,
    "lng": -59.1
  },
  {
    "id": "port-arlcu",
    "code": "ARLCU",
    "name": "Lujan de Cuyo",
    "country": "AR",
    "city": "Lujan de Cuyo",
    "lat": -33.05,
    "lng": -68.86666666666666
  },
  {
    "id": "port-arlzg",
    "code": "ARLZG",
    "name": "Luzuriaga",
    "country": "AR",
    "city": "Luzuriaga",
    "lat": -32.95,
    "lng": -68.81666666666666
  },
  {
    "id": "port-armdq",
    "code": "ARMDQ",
    "name": "Mar del Plata",
    "country": "AR",
    "city": "Mar del Plata",
    "lat": -38.05,
    "lng": -57.53333333333333
  },
  {
    "id": "port-arnos",
    "code": "ARNOS",
    "name": "Molinos",
    "country": "AR",
    "city": "Molinos",
    "lat": -25.416666666666668,
    "lng": -66.31666666666666
  },
  {
    "id": "port-arovi",
    "code": "AROVI",
    "name": "Olavarría",
    "country": "AR",
    "city": "Olavarría",
    "lat": -36.88333333333333,
    "lng": -60.333333333333336
  },
  {
    "id": "port-arpp9",
    "code": "ARPP9",
    "name": "Pablo Podestá",
    "country": "AR",
    "city": "Pablo Podestá",
    "lat": -34.6,
    "lng": -58.516666666666666
  },
  {
    "id": "port-arpra",
    "code": "ARPRA",
    "name": "Paraná",
    "country": "AR",
    "city": "Paraná",
    "lat": -31.733333333333334,
    "lng": -60.53333333333333
  },
  {
    "id": "port-arpal",
    "code": "ARPAL",
    "name": "Puerto Alumbrera",
    "country": "AR",
    "city": "Puerto Alumbrera",
    "lat": -32.65,
    "lng": -60.75
  },
  {
    "id": "port-arpud",
    "code": "ARPUD",
    "name": "Puerto Deseado",
    "country": "AR",
    "city": "Puerto Deseado",
    "lat": -47.75,
    "lng": -65.9
  },
  {
    "id": "port-arpel",
    "code": "ARPEL",
    "name": "Puerto Eldorado",
    "country": "AR",
    "city": "Puerto Eldorado",
    "lat": -26.35,
    "lng": -54.68333333333333
  },
  {
    "id": "port-arroc",
    "code": "ARROC",
    "name": "Puerto Ingeniero M. Rocca",
    "country": "AR",
    "city": "Puerto Ingeniero M. Rocca",
    "lat": -34.85,
    "lng": -57.93333333333333
  },
  {
    "id": "port-arpla",
    "code": "ARPLA",
    "name": "Puerto Lavalle",
    "country": "AR",
    "city": "Puerto Lavalle",
    "lat": -29.016666666666666,
    "lng": -59.18333333333333
  },
  {
    "id": "port-arpmy",
    "code": "ARPMY",
    "name": "Puerto Madryn",
    "country": "AR",
    "city": "Puerto Madryn",
    "lat": -42.75,
    "lng": -65.03333333333333
  },
  {
    "id": "port-arprs",
    "code": "ARPRS",
    "name": "Puerto Rosales/Bahia Blanca",
    "country": "AR",
    "city": "Puerto Rosales/Bahia Blanca",
    "lat": -38.93333333333333,
    "lng": -62.06666666666667
  },
  {
    "id": "port-arpwa",
    "code": "ARPWA",
    "name": "Puerto Wanda",
    "country": "AR",
    "city": "Puerto Wanda",
    "lat": -25.966666666666665,
    "lng": -54.6
  },
  {
    "id": "port-arpco",
    "code": "ARPCO",
    "name": "Punta Colorada",
    "country": "AR",
    "city": "Punta Colorada",
    "lat": -41.7,
    "lng": -65
  },
  {
    "id": "port-arpme",
    "code": "ARPME",
    "name": "Punta Medanos",
    "country": "AR",
    "city": "Punta Medanos",
    "lat": -36.833333333333336,
    "lng": -56.666666666666664
  },
  {
    "id": "port-arqbr",
    "code": "ARQBR",
    "name": "Quebracho/San Lorenzo",
    "country": "AR",
    "city": "Quebracho/San Lorenzo",
    "lat": -32.65,
    "lng": -60.71666666666667
  },
  {
    "id": "port-arqqn",
    "code": "ARQQN",
    "name": "Quequén",
    "country": "AR",
    "city": "Quequén",
    "lat": -38.53333333333333,
    "lng": -58.7
  },
  {
    "id": "port-arrwo",
    "code": "ARRWO",
    "name": "Rawson",
    "country": "AR",
    "city": "Rawson",
    "lat": -43.3,
    "lng": -65.1
  },
  {
    "id": "port-arrsf",
    "code": "ARRSF",
    "name": "Resinfor",
    "country": "AR",
    "city": "Resinfor",
    "lat": -32.65,
    "lng": -60.733333333333334
  },
  {
    "id": "port-arric",
    "code": "ARRIC",
    "name": "Rio Cullen",
    "country": "AR",
    "city": "Rio Cullen",
    "lat": -52.8,
    "lng": -68.18333333333334
  },
  {
    "id": "port-arrgl",
    "code": "ARRGL",
    "name": "Río Gallegos",
    "country": "AR",
    "city": "Río Gallegos",
    "lat": -51.63333333333333,
    "lng": -69.21666666666667
  },
  {
    "id": "port-arrga",
    "code": "ARRGA",
    "name": "Río Grande",
    "country": "AR",
    "city": "Río Grande",
    "lat": -53.78333333333333,
    "lng": -67.7
  },
  {
    "id": "port-arriv",
    "code": "ARRIV",
    "name": "Rivadavia",
    "country": "AR",
    "city": "Rivadavia",
    "lat": -33.18333333333333,
    "lng": -68.46666666666667
  },
  {
    "id": "port-arros",
    "code": "ARROS",
    "name": "Rosario",
    "country": "AR",
    "city": "Rosario",
    "lat": -32.95,
    "lng": -60.65
  },
  {
    "id": "port-arrfo",
    "code": "ARRFO",
    "name": "Rosario de la Frontera",
    "country": "AR",
    "city": "Rosario de la Frontera",
    "lat": -25.8,
    "lng": -64.96666666666667
  },
  {
    "id": "port-arsae",
    "code": "ARSAE",
    "name": "San Antonio Este",
    "country": "AR",
    "city": "San Antonio Este",
    "lat": -40.8,
    "lng": -64.73333333333333
  },
  {
    "id": "port-arsca",
    "code": "ARSCA",
    "name": "San Carlos",
    "country": "AR",
    "city": "San Carlos",
    "lat": -33.766666666666666,
    "lng": -69.03333333333333
  },
  {
    "id": "port-arsig",
    "code": "ARSIG",
    "name": "San Ignacio",
    "country": "AR",
    "city": "San Ignacio",
    "lat": -27.266666666666666,
    "lng": -55.56666666666667
  },
  {
    "id": "port-arula",
    "code": "ARULA",
    "name": "San Julian",
    "country": "AR",
    "city": "San Julian",
    "lat": -49.3,
    "lng": -67.71666666666667
  },
  {
    "id": "port-arsmr",
    "code": "ARSMR",
    "name": "San Martin",
    "country": "AR",
    "city": "San Martin",
    "lat": -33.06666666666667,
    "lng": -68.46666666666667
  },
  {
    "id": "port-arsma",
    "code": "ARSMA",
    "name": "San Martin",
    "country": "AR",
    "city": "San Martin",
    "lat": -32.71666666666667,
    "lng": -60.733333333333334
  },
  {
    "id": "port-arsns",
    "code": "ARSNS",
    "name": "San Nicolás de los Arroyos",
    "country": "AR",
    "city": "San Nicolás de los Arroyos",
    "lat": -33.333333333333336,
    "lng": -60.233333333333334
  },
  {
    "id": "port-arspd",
    "code": "ARSPD",
    "name": "San Pedro",
    "country": "AR",
    "city": "San Pedro",
    "lat": -33.68333333333333,
    "lng": -59.166666666666664
  },
  {
    "id": "port-arssj",
    "code": "ARSSJ",
    "name": "San Salvador de Jujuy",
    "country": "AR",
    "city": "San Salvador de Jujuy",
    "lat": -24.183333333333334,
    "lng": -65.3
  },
  {
    "id": "port-arssn",
    "code": "ARSSN",
    "name": "San Sebastián",
    "country": "AR",
    "city": "San Sebastián",
    "lat": -53.3,
    "lng": -68.46666666666667
  },
  {
    "id": "port-arsan",
    "code": "ARSAN",
    "name": "Santa Ana",
    "country": "AR",
    "city": "Santa Ana",
    "lat": -27.333333333333332,
    "lng": -55.583333333333336
  },
  {
    "id": "port-arrza",
    "code": "ARRZA",
    "name": "Santa Cruz",
    "country": "AR",
    "city": "Santa Cruz",
    "lat": -50.016666666666666,
    "lng": -68.41666666666667
  },
  {
    "id": "port-arsfn",
    "code": "ARSFN",
    "name": "Santa Fe",
    "country": "AR",
    "city": "Santa Fe",
    "lat": -31.6,
    "lng": -60.68333333333333
  },
  {
    "id": "port-arsta",
    "code": "ARSTA",
    "name": "Santa Rosa",
    "country": "AR",
    "city": "Santa Rosa",
    "lat": -33.25,
    "lng": -68.15
  },
  {
    "id": "port-artim",
    "code": "ARTIM",
    "name": "Timbúes",
    "country": "AR",
    "city": "Timbúes",
    "lat": -32.63333333333333,
    "lng": -60.78333333333333
  },
  {
    "id": "port-aroyo",
    "code": "AROYO",
    "name": "Tres Arroyos",
    "country": "AR",
    "city": "Tres Arroyos",
    "lat": -38.38333333333333,
    "lng": -60.28333333333333
  },
  {
    "id": "port-artuc",
    "code": "ARTUC",
    "name": "Tucumán",
    "country": "AR",
    "city": "Tucumán",
    "lat": -26.816666666666666,
    "lng": -65.21666666666667
  },
  {
    "id": "port-artun",
    "code": "ARTUN",
    "name": "Tunuyan",
    "country": "AR",
    "city": "Tunuyan",
    "lat": -33.56666666666667,
    "lng": -69.01666666666667
  },
  {
    "id": "port-arurd",
    "code": "ARURD",
    "name": "Urdurrain",
    "country": "AR",
    "city": "Urdurrain",
    "lat": -32.68333333333333,
    "lng": -58.88333333333333
  },
  {
    "id": "port-arush",
    "code": "ARUSH",
    "name": "Ushuaia",
    "country": "AR",
    "city": "Ushuaia",
    "lat": -54.8,
    "lng": -68.3
  },
  {
    "id": "port-arvlo",
    "code": "ARVLO",
    "name": "Vicente López",
    "country": "AR",
    "city": "Vicente López",
    "lat": -34.516666666666666,
    "lng": -58.483333333333334
  },
  {
    "id": "port-arvcn",
    "code": "ARVCN",
    "name": "Villa Constitución",
    "country": "AR",
    "city": "Villa Constitución",
    "lat": -33.233333333333334,
    "lng": -60.333333333333336
  },
  {
    "id": "port-arvhe",
    "code": "ARVHE",
    "name": "Villa Hernandarias",
    "country": "AR",
    "city": "Villa Hernandarias",
    "lat": -31.233333333333334,
    "lng": -59.983333333333334
  },
  {
    "id": "port-arzae",
    "code": "ARZAE",
    "name": "Zárate",
    "country": "AR",
    "city": "Zárate",
    "lat": -34.1,
    "lng": -59.03333333333333
  },
  {
    "id": "port-asppg",
    "code": "ASPPG",
    "name": "Pago Pago",
    "country": "AS",
    "city": "Pago Pago",
    "lat": 14.266666666666667,
    "lng": -170.7
  },
  {
    "id": "port-atfg7",
    "code": "ATFG7",
    "name": "Achau",
    "country": "AT",
    "city": "Achau",
    "lat": 48.666666666666664,
    "lng": -162.5
  },
  {
    "id": "port-atawh",
    "code": "ATAWH",
    "name": "Altenwörth",
    "country": "AT",
    "city": "Altenwörth",
    "lat": 48.38333333333333,
    "lng": 15.85
  },
  {
    "id": "port-atatn",
    "code": "ATATN",
    "name": "Asten",
    "country": "AT",
    "city": "Asten",
    "lat": 48.21666666666667,
    "lng": 14.4
  },
  {
    "id": "port-atsxa",
    "code": "ATSXA",
    "name": "Bernhardsthal",
    "country": "AT",
    "city": "Bernhardsthal",
    "lat": 48.68333333333333,
    "lng": 16.866666666666667
  },
  {
    "id": "port-atbfs",
    "code": "ATBFS",
    "name": "Bischofshofen",
    "country": "AT",
    "city": "Bischofshofen",
    "lat": 47.416666666666664,
    "lng": 13.216666666666667
  },
  {
    "id": "port-atboe",
    "code": "ATBOE",
    "name": "Böhlerwenk",
    "country": "AT",
    "city": "Böhlerwenk",
    "lat": 47.983333333333334,
    "lng": 14.75
  },
  {
    "id": "port-atbrz",
    "code": "ATBRZ",
    "name": "Bregenz",
    "country": "AT",
    "city": "Bregenz",
    "lat": 47.5,
    "lng": 9.766666666666667
  },
  {
    "id": "port-atdwa",
    "code": "ATDWA",
    "name": "Deutsch Wagram",
    "country": "AT",
    "city": "Deutsch Wagram",
    "lat": 48.3,
    "lng": 16.566666666666666
  },
  {
    "id": "port-atdkz",
    "code": "ATDKZ",
    "name": "Deutschkreutz",
    "country": "AT",
    "city": "Deutschkreutz",
    "lat": 47.6,
    "lng": 16.633333333333333
  },
  {
    "id": "port-aterr",
    "code": "ATERR",
    "name": "Dobermannsdorf",
    "country": "AT",
    "city": "Dobermannsdorf",
    "lat": 48.6,
    "lng": 16.816666666666666
  },
  {
    "id": "port-atnnn",
    "code": "ATNNN",
    "name": "Donnerskirchen",
    "country": "AT",
    "city": "Donnerskirchen",
    "lat": 47.9,
    "lng": 16.633333333333333
  },
  {
    "id": "port-atdra",
    "code": "ATDRA",
    "name": "Drasenhofen",
    "country": "AT",
    "city": "Drasenhofen",
    "lat": 48.75,
    "lng": -16.65
  },
  {
    "id": "port-atdro",
    "code": "ATDRO",
    "name": "Dross",
    "country": "AT",
    "city": "Dross",
    "lat": 48.45,
    "lng": 15.566666666666666
  },
  {
    "id": "port-atdue",
    "code": "ATDUE",
    "name": "Dürnstein",
    "country": "AT",
    "city": "Dürnstein",
    "lat": 48.38333333333333,
    "lng": 15.516666666666667
  },
  {
    "id": "port-atebr",
    "code": "ATEBR",
    "name": "Ebreichsdorf",
    "country": "AT",
    "city": "Ebreichsdorf",
    "lat": 47.95,
    "lng": 16.4
  },
  {
    "id": "port-atewd",
    "code": "ATEWD",
    "name": "Eibiswald",
    "country": "AT",
    "city": "Eibiswald",
    "lat": 46.68333333333333,
    "lng": 15.833333333333334
  },
  {
    "id": "port-atbri",
    "code": "ATBRI",
    "name": "Engabrunn",
    "country": "AT",
    "city": "Engabrunn",
    "lat": 48.45,
    "lng": 15.75
  },
  {
    "id": "port-atero",
    "code": "ATERO",
    "name": "Engelmannsbrunn",
    "country": "AT",
    "city": "Engelmannsbrunn",
    "lat": 48.45,
    "lng": 15.883333333333333
  },
  {
    "id": "port-atdfc",
    "code": "ATDFC",
    "name": "Engerwitzdorf",
    "country": "AT",
    "city": "Engerwitzdorf",
    "lat": 48.35,
    "lng": 14.45
  },
  {
    "id": "port-aterl",
    "code": "ATERL",
    "name": "Erl",
    "country": "AT",
    "city": "Erl",
    "lat": 47.666666666666664,
    "lng": 12.166666666666666
  },
  {
    "id": "port-atepd",
    "code": "ATEPD",
    "name": "Erpersdorf",
    "country": "AT",
    "city": "Erpersdorf",
    "lat": 48.333333333333336,
    "lng": 15.9
  },
  {
    "id": "port-atfsu",
    "code": "ATFSU",
    "name": "Faistenau",
    "country": "AT",
    "city": "Faistenau",
    "lat": 47.766666666666666,
    "lng": 13.216666666666667
  },
  {
    "id": "port-atlkn",
    "code": "ATLKN",
    "name": "Falkenstein",
    "country": "AT",
    "city": "Falkenstein",
    "lat": 48.71666666666667,
    "lng": 13.583333333333334
  },
  {
    "id": "port-atfhr",
    "code": "ATFHR",
    "name": "Fehring",
    "country": "AT",
    "city": "Fehring",
    "lat": 46.93333333333333,
    "lng": 16
  },
  {
    "id": "port-atfna",
    "code": "ATFNA",
    "name": "Freudenau",
    "country": "AT",
    "city": "Freudenau",
    "lat": 48.18333333333333,
    "lng": 16.433333333333334
  },
  {
    "id": "port-atfps",
    "code": "ATFPS",
    "name": "Fulpmes",
    "country": "AT",
    "city": "Fulpmes",
    "lat": 47.15,
    "lng": 11.35
  },
  {
    "id": "port-atga6",
    "code": "ATGA6",
    "name": "Gamlitz",
    "country": "AT",
    "city": "Gamlitz",
    "lat": 46.71666666666667,
    "lng": 15.55
  },
  {
    "id": "port-atgdn",
    "code": "ATGDN",
    "name": "Gmunden",
    "country": "AT",
    "city": "Gmunden",
    "lat": 47.916666666666664,
    "lng": 13.8
  },
  {
    "id": "port-atgfs",
    "code": "ATGFS",
    "name": "Greifenstein",
    "country": "AT",
    "city": "Greifenstein",
    "lat": 48.333333333333336,
    "lng": 16.233333333333334
  },
  {
    "id": "port-atgrn",
    "code": "ATGRN",
    "name": "Grein",
    "country": "AT",
    "city": "Grein",
    "lat": 48.21666666666667,
    "lng": 14.833333333333334
  },
  {
    "id": "port-atswh",
    "code": "ATSWH",
    "name": "Gross-Schweinbarth",
    "country": "AT",
    "city": "Gross-Schweinbarth",
    "lat": 48.4,
    "lng": 16.616666666666667
  },
  {
    "id": "port-atgsn",
    "code": "ATGSN",
    "name": "Gutenstein",
    "country": "AT",
    "city": "Gutenstein",
    "lat": 47.86666666666667,
    "lng": 15.883333333333333
  },
  {
    "id": "port-atdof",
    "code": "ATDOF",
    "name": "Hadersdorf",
    "country": "AT",
    "city": "Hadersdorf",
    "lat": 48.45,
    "lng": 15.716666666666667
  },
  {
    "id": "port-athkm",
    "code": "ATHKM",
    "name": "Hadersdorf-Kammern",
    "country": "AT",
    "city": "Hadersdorf-Kammern",
    "lat": 48.45,
    "lng": 15.716666666666667
  },
  {
    "id": "port-atltx",
    "code": "ATLTX",
    "name": "Hainfeld",
    "country": "AT",
    "city": "Hainfeld",
    "lat": 48.03333333333333,
    "lng": 15.766666666666667
  },
  {
    "id": "port-atghh",
    "code": "ATGHH",
    "name": "Haugsdorf",
    "country": "AT",
    "city": "Haugsdorf",
    "lat": 48.7,
    "lng": 16.066666666666666
  },
  {
    "id": "port-atitn",
    "code": "ATITN",
    "name": "Hausleiten",
    "country": "AT",
    "city": "Hausleiten",
    "lat": 48.38333333333333,
    "lng": 16.1
  },
  {
    "id": "port-atten",
    "code": "ATTEN",
    "name": "Hausmannstatten",
    "country": "AT",
    "city": "Hausmannstatten",
    "lat": 46.983333333333334,
    "lng": 15.5
  },
  {
    "id": "port-atbnn",
    "code": "ATBNN",
    "name": "Hobersbrunn",
    "country": "AT",
    "city": "Hobersbrunn",
    "lat": 48.5,
    "lng": 16.566666666666666
  },
  {
    "id": "port-atein",
    "code": "ATEIN",
    "name": "Hoflein",
    "country": "AT",
    "city": "Hoflein",
    "lat": 48.06666666666667,
    "lng": 16.783333333333335
  },
  {
    "id": "port-atzin",
    "code": "ATZIN",
    "name": "Inzersdorf an der Traisen",
    "country": "AT",
    "city": "Inzersdorf an der Traisen",
    "lat": 48.31666666666667,
    "lng": 15.666666666666666
  },
  {
    "id": "port-atjps",
    "code": "ATJPS",
    "name": "Japons",
    "country": "AT",
    "city": "Japons",
    "lat": 48.78333333333333,
    "lng": 15.566666666666666
  },
  {
    "id": "port-atzlf",
    "code": "ATZLF",
    "name": "Jetzelsdorf",
    "country": "AT",
    "city": "Jetzelsdorf",
    "lat": 48.7,
    "lng": 16.05
  },
  {
    "id": "port-atjdd",
    "code": "ATJDD",
    "name": "Judendorf",
    "country": "AT",
    "city": "Judendorf",
    "lat": 47.11666666666667,
    "lng": 15.35
  },
  {
    "id": "port-atkam",
    "code": "ATKAM",
    "name": "Kammern im Liesingtal",
    "country": "AT",
    "city": "Kammern im Liesingtal",
    "lat": 47.4,
    "lng": 14.9
  },
  {
    "id": "port-atktt",
    "code": "ATKTT",
    "name": "Kematen in Tirol",
    "country": "AT",
    "city": "Kematen in Tirol",
    "lat": 47.25,
    "lng": 11.266666666666667
  },
  {
    "id": "port-atzrf",
    "code": "ATZRF",
    "name": "Ketzelsdorf",
    "country": "AT",
    "city": "Ketzelsdorf",
    "lat": 48.65,
    "lng": 16.65
  },
  {
    "id": "port-atkfd",
    "code": "ATKFD",
    "name": "Knittelfeld",
    "country": "AT",
    "city": "Knittelfeld",
    "lat": 47.2,
    "lng": 14.816666666666666
  },
  {
    "id": "port-atkmb",
    "code": "ATKMB",
    "name": "Krummnussbaum",
    "country": "AT",
    "city": "Krummnussbaum",
    "lat": 48.21666666666667,
    "lng": 15.166666666666666
  },
  {
    "id": "port-atghj",
    "code": "ATGHJ",
    "name": "Krustetten",
    "country": "AT",
    "city": "Krustetten",
    "lat": 48.36666666666667,
    "lng": -154
  },
  {
    "id": "port-atlzd",
    "code": "ATLZD",
    "name": "Langenzersdorf",
    "country": "AT",
    "city": "Langenzersdorf",
    "lat": 48.3,
    "lng": 16.35
  },
  {
    "id": "port-atlua",
    "code": "ATLUA",
    "name": "Lembach",
    "country": "AT",
    "city": "Lembach",
    "lat": 48.483333333333334,
    "lng": 13.883333333333333
  },
  {
    "id": "port-atlts",
    "code": "ATLTS",
    "name": "Leutschach",
    "country": "AT",
    "city": "Leutschach",
    "lat": 46.666666666666664,
    "lng": 15.466666666666667
  },
  {
    "id": "port-atieg",
    "code": "ATIEG",
    "name": "Limberg",
    "country": "AT",
    "city": "Limberg",
    "lat": 48.583333333333336,
    "lng": 15.866666666666667
  },
  {
    "id": "port-atman",
    "code": "ATMAN",
    "name": "Manning",
    "country": "AT",
    "city": "Manning",
    "lat": 48.083333333333336,
    "lng": 13.666666666666666
  },
  {
    "id": "port-atmab",
    "code": "ATMAB",
    "name": "Marbach an der Donau",
    "country": "AT",
    "city": "Marbach an der Donau",
    "lat": 48.21666666666667,
    "lng": 15.15
  },
  {
    "id": "port-atmka",
    "code": "ATMKA",
    "name": "Markt Allhau",
    "country": "AT",
    "city": "Markt Allhau",
    "lat": 47.233333333333334,
    "lng": 16.083333333333332
  },
  {
    "id": "port-atmkc",
    "code": "ATMKC",
    "name": "Mitterkirchen",
    "country": "AT",
    "city": "Mitterkirchen",
    "lat": 48.18333333333333,
    "lng": 14.7
  },
  {
    "id": "port-atmbs",
    "code": "ATMBS",
    "name": "Morbisch am See",
    "country": "AT",
    "city": "Morbisch am See",
    "lat": 47.75,
    "lng": 16.666666666666668
  },
  {
    "id": "port-atnt9",
    "code": "ATNT9",
    "name": "Muthmannsdorf",
    "country": "AT",
    "city": "Muthmannsdorf",
    "lat": 47.833333333333336,
    "lng": 16.1
  },
  {
    "id": "port-atngg",
    "code": "ATNGG",
    "name": "Neudegg",
    "country": "AT",
    "city": "Neudegg",
    "lat": 48.483333333333334,
    "lng": 15.883333333333333
  },
  {
    "id": "port-atnfn",
    "code": "ATNFN",
    "name": "Neufelden",
    "country": "AT",
    "city": "Neufelden",
    "lat": 48.483333333333334,
    "lng": 13.983333333333333
  },
  {
    "id": "port-atnad",
    "code": "ATNAD",
    "name": "Neuhofen an der Ybbs",
    "country": "AT",
    "city": "Neuhofen an der Ybbs",
    "lat": 48.05,
    "lng": 14.85
  },
  {
    "id": "port-atnd2",
    "code": "ATND2",
    "name": "Nickelsdorf",
    "country": "AT",
    "city": "Nickelsdorf",
    "lat": 47.93333333333333,
    "lng": 17.066666666666666
  },
  {
    "id": "port-atnuz",
    "code": "ATNUZ",
    "name": "Nüziders",
    "country": "AT",
    "city": "Nüziders",
    "lat": 47.18333333333333,
    "lng": 9.8
  },
  {
    "id": "port-atxae",
    "code": "ATXAE",
    "name": "Oehling",
    "country": "AT",
    "city": "Oehling",
    "lat": 48.1,
    "lng": 14.8
  },
  {
    "id": "port-atggu",
    "code": "ATGGU",
    "name": "Oggau",
    "country": "AT",
    "city": "Oggau",
    "lat": 47.833333333333336,
    "lng": 16.666666666666668
  },
  {
    "id": "port-atosh",
    "code": "ATOSH",
    "name": "Ottensheim",
    "country": "AT",
    "city": "Ottensheim",
    "lat": 48.333333333333336,
    "lng": 14.183333333333334
  },
  {
    "id": "port-atatk",
    "code": "ATATK",
    "name": "Paternion",
    "country": "AT",
    "city": "Paternion",
    "lat": 46.7,
    "lng": 13.633333333333333
  },
  {
    "id": "port-atpbu",
    "code": "ATPBU",
    "name": "Persenbeug",
    "country": "AT",
    "city": "Persenbeug",
    "lat": 48.18333333333333,
    "lng": 15.066666666666666
  },
  {
    "id": "port-atpet",
    "code": "ATPET",
    "name": "Petzenkirchen",
    "country": "AT",
    "city": "Petzenkirchen",
    "lat": 48.13333333333333,
    "lng": 15.15
  },
  {
    "id": "port-atpas",
    "code": "ATPAS",
    "name": "Podersdorf am See",
    "country": "AT",
    "city": "Podersdorf am See",
    "lat": 47.85,
    "lng": 16.833333333333332
  },
  {
    "id": "port-at7pz",
    "code": "AT7PZ",
    "name": "Prinzersdorf",
    "country": "AT",
    "city": "Prinzersdorf",
    "lat": 48.2,
    "lng": 15.516666666666667
  },
  {
    "id": "port-atrad",
    "code": "ATRAD",
    "name": "Radstadt",
    "country": "AT",
    "city": "Radstadt",
    "lat": 47.38333333333333,
    "lng": 13.45
  },
  {
    "id": "port-atrhn",
    "code": "ATRHN",
    "name": "Ranshofen",
    "country": "AT",
    "city": "Ranshofen",
    "lat": 48.233333333333334,
    "lng": 13
  },
  {
    "id": "port-atreg",
    "code": "ATREG",
    "name": "Regau",
    "country": "AT",
    "city": "Regau",
    "lat": 48.083333333333336,
    "lng": 14.133333333333333
  },
  {
    "id": "port-atetz",
    "code": "ATETZ",
    "name": "Rietz",
    "country": "AT",
    "city": "Rietz",
    "lat": 47.28333333333333,
    "lng": 11.05
  },
  {
    "id": "port-atrhr",
    "code": "ATRHR",
    "name": "Rohrau",
    "country": "AT",
    "city": "Rohrau",
    "lat": 48.06666666666667,
    "lng": 16.85
  },
  {
    "id": "port-atrrf",
    "code": "ATRRF",
    "name": "Ruhrsdorf",
    "country": "AT",
    "city": "Ruhrsdorf",
    "lat": 48.4,
    "lng": 15.5
  },
  {
    "id": "port-atsak",
    "code": "ATSAK",
    "name": "Sankt Aegidi",
    "country": "AT",
    "city": "Sankt Aegidi",
    "lat": 48.483333333333334,
    "lng": 13.75
  },
  {
    "id": "port-atsgs",
    "code": "ATSGS",
    "name": "Sankt Georgen bei Salzburg",
    "country": "AT",
    "city": "Sankt Georgen bei Salzburg",
    "lat": 47.983333333333334,
    "lng": 12.883333333333333
  },
  {
    "id": "port-atsmr",
    "code": "ATSMR",
    "name": "Sankt Margarethen an der Raab",
    "country": "AT",
    "city": "Sankt Margarethen an der Raab",
    "lat": 47.05,
    "lng": 15.75
  },
  {
    "id": "port-atsk3",
    "code": "ATSK3",
    "name": "Sankt Margrethen",
    "country": "AT",
    "city": "Sankt Margrethen",
    "lat": 46.63333333333333,
    "lng": 14.383333333333333
  },
  {
    "id": "port-atfbz",
    "code": "ATFBZ",
    "name": "Sankt Stefan ob Stainz",
    "country": "AT",
    "city": "Sankt Stefan ob Stainz",
    "lat": 46.916666666666664,
    "lng": 15.25
  },
  {
    "id": "port-atsuh",
    "code": "ATSUH",
    "name": "Sankt Ulrich",
    "country": "AT",
    "city": "Sankt Ulrich",
    "lat": 48.6,
    "lng": 16.766666666666666
  },
  {
    "id": "port-atsvm",
    "code": "ATSVM",
    "name": "Sankt Veit im Mühlkreis",
    "country": "AT",
    "city": "Sankt Veit im Mühlkreis",
    "lat": 48.46666666666667,
    "lng": 14.15
  },
  {
    "id": "port-atsmk",
    "code": "ATSMK",
    "name": "Schönau im Mühlkreis",
    "country": "AT",
    "city": "Schönau im Mühlkreis",
    "lat": 48.38333333333333,
    "lng": 14.733333333333333
  },
  {
    "id": "port-atttl",
    "code": "ATTTL",
    "name": "Schrattenthal",
    "country": "AT",
    "city": "Schrattenthal",
    "lat": 48.7,
    "lng": 15.9
  },
  {
    "id": "port-atsag",
    "code": "ATSAG",
    "name": "Schutzen am Gebirge",
    "country": "AT",
    "city": "Schutzen am Gebirge",
    "lat": 47.85,
    "lng": 16.616666666666667
  },
  {
    "id": "port-atsft",
    "code": "ATSFT",
    "name": "Senftenberg",
    "country": "AT",
    "city": "Senftenberg",
    "lat": 48.43333333333333,
    "lng": 15.55
  },
  {
    "id": "port-atspg",
    "code": "ATSPG",
    "name": "Spannberg",
    "country": "AT",
    "city": "Spannberg",
    "lat": 48.45,
    "lng": 16.733333333333334
  },
  {
    "id": "port-atspz",
    "code": "ATSPZ",
    "name": "Spitz",
    "country": "AT",
    "city": "Spitz",
    "lat": 48.36666666666667,
    "lng": 15.416666666666666
  },
  {
    "id": "port-atstd",
    "code": "ATSTD",
    "name": "Steeg",
    "country": "AT",
    "city": "Steeg",
    "lat": 47.6,
    "lng": 13.633333333333333
  },
  {
    "id": "port-atsss",
    "code": "ATSSS",
    "name": "Steinberg",
    "country": "AT",
    "city": "Steinberg",
    "lat": 47.483333333333334,
    "lng": 16.483333333333334
  },
  {
    "id": "port-atsus",
    "code": "ATSUS",
    "name": "Steinhaus",
    "country": "AT",
    "city": "Steinhaus",
    "lat": 48.11666666666667,
    "lng": 14.016666666666667
  },
  {
    "id": "port-atst6",
    "code": "ATST6",
    "name": "Straden",
    "country": "AT",
    "city": "Straden",
    "lat": 46.8,
    "lng": 15.866666666666667
  },
  {
    "id": "port-attam",
    "code": "ATTAM",
    "name": "Tamsweg",
    "country": "AT",
    "city": "Tamsweg",
    "lat": 47.13333333333333,
    "lng": 13.8
  },
  {
    "id": "port-attkp",
    "code": "ATTKP",
    "name": "Taufkirchen an der Pram",
    "country": "AT",
    "city": "Taufkirchen an der Pram",
    "lat": 48.416666666666664,
    "lng": 13.533333333333333
  },
  {
    "id": "port-attfs",
    "code": "ATTFS",
    "name": "Terfens",
    "country": "AT",
    "city": "Terfens",
    "lat": 47.31666666666667,
    "lng": 11.65
  },
  {
    "id": "port-atths",
    "code": "ATTHS",
    "name": "Theiss",
    "country": "AT",
    "city": "Theiss",
    "lat": 48.38333333333333,
    "lng": 15.683333333333334
  },
  {
    "id": "port-attmr",
    "code": "ATTMR",
    "name": "Traismauer",
    "country": "AT",
    "city": "Traismauer",
    "lat": 48.333333333333336,
    "lng": 15.733333333333333
  },
  {
    "id": "port-atvel",
    "code": "ATVEL",
    "name": "Velden",
    "country": "AT",
    "city": "Velden",
    "lat": 46.61666666666667,
    "lng": 14.05
  },
  {
    "id": "port-aterm",
    "code": "ATERM",
    "name": "Vordernberg",
    "country": "AT",
    "city": "Vordernberg",
    "lat": 47.46666666666667,
    "lng": 15
  },
  {
    "id": "port-atwse",
    "code": "ATWSE",
    "name": "Wallsee",
    "country": "AT",
    "city": "Wallsee",
    "lat": 48.166666666666664,
    "lng": 14.716666666666667
  },
  {
    "id": "port-atweu",
    "code": "ATWEU",
    "name": "Weinburg",
    "country": "AT",
    "city": "Weinburg",
    "lat": 48.1,
    "lng": 15.516666666666667
  },
  {
    "id": "port-atwdf",
    "code": "ATWDF",
    "name": "Weitendorf",
    "country": "AT",
    "city": "Weitendorf",
    "lat": 46.88333333333333,
    "lng": 15.466666666666667
  },
  {
    "id": "port-atwul",
    "code": "ATWUL",
    "name": "Wulkaprodersdorf",
    "country": "AT",
    "city": "Wulkaprodersdorf",
    "lat": 47.8,
    "lng": 16.5
  },
  {
    "id": "port-atzng",
    "code": "ATZNG",
    "name": "Zobing",
    "country": "AT",
    "city": "Zobing",
    "lat": 48.483333333333334,
    "lng": 15.683333333333334
  },
  {
    "id": "port-auabp",
    "code": "AUABP",
    "name": "Abbot Point",
    "country": "AU",
    "city": "Abbot Point",
    "lat": -19.9,
    "lng": 148.08333333333334
  },
  {
    "id": "port-aualp",
    "code": "AUALP",
    "name": "Abell Point",
    "country": "AU",
    "city": "Abell Point",
    "lat": -20.266666666666666,
    "lng": 148.71666666666667
  },
  {
    "id": "port-auadl",
    "code": "AUADL",
    "name": "Adelaide",
    "country": "AU",
    "city": "Adelaide",
    "lat": -34.916666666666664,
    "lng": 138.58333333333334
  },
  {
    "id": "port-auair",
    "code": "AUAIR",
    "name": "Airlie Terminal",
    "country": "AU",
    "city": "Airlie Terminal",
    "lat": -21.333333333333332,
    "lng": 115.16666666666667
  },
  {
    "id": "port-auald",
    "code": "AUALD",
    "name": "Aldgate",
    "country": "AU",
    "city": "Aldgate",
    "lat": -35.016666666666666,
    "lng": 138.73333333333332
  },
  {
    "id": "port-auamr",
    "code": "AUAMR",
    "name": "Amrun",
    "country": "AU",
    "city": "Amrun",
    "lat": -12.916666666666666,
    "lng": 141.61666666666667
  },
  {
    "id": "port-auann",
    "code": "AUANN",
    "name": "Annandale",
    "country": "AU",
    "city": "Annandale",
    "lat": -33.88333333333333,
    "lng": 151.16666666666666
  },
  {
    "id": "port-auapp",
    "code": "AUAPP",
    "name": "Applecross",
    "country": "AU",
    "city": "Applecross",
    "lat": -32.016666666666666,
    "lng": 115.83333333333333
  },
  {
    "id": "port-auaua",
    "code": "AUAUA",
    "name": "Armadale",
    "country": "AU",
    "city": "Armadale",
    "lat": -32.15,
    "lng": 116
  },
  {
    "id": "port-audlp",
    "code": "AUDLP",
    "name": "Arndell Park",
    "country": "AU",
    "city": "Arndell Park",
    "lat": -33.78333333333333,
    "lng": 150.86666666666667
  },
  {
    "id": "port-auasb",
    "code": "AUASB",
    "name": "Ashburton",
    "country": "AU",
    "city": "Ashburton",
    "lat": -21.683333333333334,
    "lng": 115
  },
  {
    "id": "port-auash",
    "code": "AUASH",
    "name": "Ashton",
    "country": "AU",
    "city": "Ashton",
    "lat": -34.93333333333333,
    "lng": 138.73333333333332
  },
  {
    "id": "port-aup6d",
    "code": "AUP6D",
    "name": "Aspendale",
    "country": "AU",
    "city": "Aspendale",
    "lat": -38.03333333333333,
    "lng": 145.1
  },
  {
    "id": "port-auatt",
    "code": "AUATT",
    "name": "Attadale",
    "country": "AU",
    "city": "Attadale",
    "lat": -32.016666666666666,
    "lng": 115.78333333333333
  },
  {
    "id": "port-auags",
    "code": "AUAGS",
    "name": "Augusta",
    "country": "AU",
    "city": "Augusta",
    "lat": -34.31666666666667,
    "lng": 115.16666666666667
  },
  {
    "id": "port-auali",
    "code": "AUALI",
    "name": "Australind",
    "country": "AU",
    "city": "Australind",
    "lat": -33.28333333333333,
    "lng": 115.71666666666667
  },
  {
    "id": "port-aubae",
    "code": "AUBAE",
    "name": "Baerami",
    "country": "AU",
    "city": "Baerami",
    "lat": -32.4,
    "lng": 150.48333333333332
  },
  {
    "id": "port-aubaa",
    "code": "AUBAA",
    "name": "Balhannah",
    "country": "AU",
    "city": "Balhannah",
    "lat": -34.983333333333334,
    "lng": 138.83333333333334
  },
  {
    "id": "port-aubal",
    "code": "AUBAL",
    "name": "Balnarring",
    "country": "AU",
    "city": "Balnarring",
    "lat": -38.36666666666667,
    "lng": 145.13333333333333
  },
  {
    "id": "port-aubnn",
    "code": "AUBNN",
    "name": "Bannockburn",
    "country": "AU",
    "city": "Bannockburn",
    "lat": -38.05,
    "lng": 144.16666666666666
  },
  {
    "id": "port-aubar",
    "code": "AUBAR",
    "name": "Barry Beach",
    "country": "AU",
    "city": "Barry Beach",
    "lat": -38.7,
    "lng": 146.38333333333333
  },
  {
    "id": "port-aubbl",
    "code": "AUBBL",
    "name": "Beelbangera",
    "country": "AU",
    "city": "Beelbangera",
    "lat": -34.266666666666666,
    "lng": 146.1
  },
  {
    "id": "port-aube9",
    "code": "AUBE9",
    "name": "Belrose",
    "country": "AU",
    "city": "Belrose",
    "lat": -33.733333333333334,
    "lng": 151.21666666666667
  },
  {
    "id": "port-aubvd",
    "code": "AUBVD",
    "name": "Belvidere",
    "country": "AU",
    "city": "Belvidere",
    "lat": -35.3,
    "lng": 138.93333333333334
  },
  {
    "id": "port-aubfd",
    "code": "AUBFD",
    "name": "Beresfield",
    "country": "AU",
    "city": "Beresfield",
    "lat": -32.8,
    "lng": 151.65
  },
  {
    "id": "port-aubke",
    "code": "AUBKE",
    "name": "Berkeley Vale",
    "country": "AU",
    "city": "Berkeley Vale",
    "lat": -33.35,
    "lng": 151.43333333333334
  },
  {
    "id": "port-aubrr",
    "code": "AUBRR",
    "name": "Berrys Creek",
    "country": "AU",
    "city": "Berrys Creek",
    "lat": -38.416666666666664,
    "lng": 146.06666666666666
  },
  {
    "id": "port-aubic",
    "code": "AUBIC",
    "name": "Bicheno",
    "country": "AU",
    "city": "Bicheno",
    "lat": -41.86666666666667,
    "lng": 148.28333333333333
  },
  {
    "id": "port-aubbg",
    "code": "AUBBG",
    "name": "Bing Bong",
    "country": "AU",
    "city": "Bing Bong",
    "lat": -15.6,
    "lng": 136.35
  },
  {
    "id": "port-aublp",
    "code": "AUBLP",
    "name": "Black Point",
    "country": "AU",
    "city": "Black Point",
    "lat": -11.15,
    "lng": 132.15
  },
  {
    "id": "port-autts",
    "code": "AUTTS",
    "name": "Blackmans Bay",
    "country": "AU",
    "city": "Blackmans Bay",
    "lat": -42.983333333333334,
    "lng": 147.31666666666666
  },
  {
    "id": "port-aubov",
    "code": "AUBOV",
    "name": "Blacktip Terminal",
    "country": "AU",
    "city": "Blacktip Terminal",
    "lat": -14.4,
    "lng": 129.35
  },
  {
    "id": "port-aubny",
    "code": "AUBNY",
    "name": "Blayney",
    "country": "AU",
    "city": "Blayney",
    "lat": -33.53333333333333,
    "lng": 149.25
  },
  {
    "id": "port-aubob",
    "code": "AUBOB",
    "name": "Bobin",
    "country": "AU",
    "city": "Bobin",
    "lat": -31.716666666666665,
    "lng": 152.28333333333333
  },
  {
    "id": "port-aubdy",
    "code": "AUBDY",
    "name": "Bomaderry",
    "country": "AU",
    "city": "Bomaderry",
    "lat": -34.85,
    "lng": 150.61666666666667
  },
  {
    "id": "port-auboo",
    "code": "AUBOO",
    "name": "Booby Island",
    "country": "AU",
    "city": "Booby Island",
    "lat": -10.6,
    "lng": 141.91666666666666
  },
  {
    "id": "port-aubod",
    "code": "AUBOD",
    "name": "Boondall",
    "country": "AU",
    "city": "Boondall",
    "lat": -27.333333333333332,
    "lng": 153.05
  },
  {
    "id": "port-aubot",
    "code": "AUBOT",
    "name": "Boort",
    "country": "AU",
    "city": "Boort",
    "lat": -36.11666666666667,
    "lng": 143.71666666666667
  },
  {
    "id": "port-aubou",
    "code": "AUBOU",
    "name": "Boundary Bend",
    "country": "AU",
    "city": "Boundary Bend",
    "lat": -34.7,
    "lng": 143.15
  },
  {
    "id": "port-auboy",
    "code": "AUBOY",
    "name": "Boyer",
    "country": "AU",
    "city": "Boyer",
    "lat": -42.833333333333336,
    "lng": 147.3
  },
  {
    "id": "port-aubby",
    "code": "AUBBY",
    "name": "Bremer Bay",
    "country": "AU",
    "city": "Bremer Bay",
    "lat": -34.38333333333333,
    "lng": 119.36666666666666
  },
  {
    "id": "port-aubol",
    "code": "AUBOL",
    "name": "Bridgewater-on-Loddon",
    "country": "AU",
    "city": "Bridgewater-on-Loddon",
    "lat": -36.6,
    "lng": 143.95
  },
  {
    "id": "port-aubpo",
    "code": "AUBPO",
    "name": "Bridport",
    "country": "AU",
    "city": "Bridport",
    "lat": -41,
    "lng": 147.4
  },
  {
    "id": "port-aubsa",
    "code": "AUBSA",
    "name": "Brighton-Le-Sands",
    "country": "AU",
    "city": "Brighton-Le-Sands",
    "lat": -33.95,
    "lng": 151.15
  },
  {
    "id": "port-aubne",
    "code": "AUBNE",
    "name": "Brisbane",
    "country": "AU",
    "city": "Brisbane",
    "lat": -27.466666666666665,
    "lng": 153.01666666666668
  },
  {
    "id": "port-aunsb",
    "code": "AUNSB",
    "name": "Broke",
    "country": "AU",
    "city": "Broke",
    "lat": -32.75,
    "lng": 151.1
  },
  {
    "id": "port-aubul",
    "code": "AUBUL",
    "name": "Bulli",
    "country": "AU",
    "city": "Bulli",
    "lat": -34.3,
    "lng": 150.91666666666666
  },
  {
    "id": "port-aubll",
    "code": "AUBLL",
    "name": "Bullsbrook",
    "country": "AU",
    "city": "Bullsbrook",
    "lat": -31.666666666666668,
    "lng": 116
  },
  {
    "id": "port-aubwi",
    "code": "AUBWI",
    "name": "Bulwer",
    "country": "AU",
    "city": "Bulwer",
    "lat": -27.066666666666666,
    "lng": 153.36666666666667
  },
  {
    "id": "port-aubuc",
    "code": "AUBUC",
    "name": "Burketown",
    "country": "AU",
    "city": "Burketown",
    "lat": -17.733333333333334,
    "lng": 139.53333333333333
  },
  {
    "id": "port-aubyy",
    "code": "AUBYY",
    "name": "Bushy Park",
    "country": "AU",
    "city": "Bushy Park",
    "lat": -37.86666666666667,
    "lng": 147.03333333333333
  },
  {
    "id": "port-aucmb",
    "code": "AUCMB",
    "name": "Cambridge",
    "country": "AU",
    "city": "Cambridge",
    "lat": -42.833333333333336,
    "lng": 147.45
  },
  {
    "id": "port-aucmp",
    "code": "AUCMP",
    "name": "Camperdown",
    "country": "AU",
    "city": "Camperdown",
    "lat": -33.88333333333333,
    "lng": 151.16666666666666
  },
  {
    "id": "port-aucap",
    "code": "AUCAP",
    "name": "Capalaba",
    "country": "AU",
    "city": "Capalaba",
    "lat": -27.516666666666666,
    "lng": 153.18333333333334
  },
  {
    "id": "port-audon",
    "code": "AUDON",
    "name": "Cape Don",
    "country": "AU",
    "city": "Cape Don",
    "lat": -11.316666666666666,
    "lng": 131.75
  },
  {
    "id": "port-aucbo",
    "code": "AUCBO",
    "name": "Carboor",
    "country": "AU",
    "city": "Carboor",
    "lat": -36.63333333333333,
    "lng": 146.55
  },
  {
    "id": "port-aucar",
    "code": "AUCAR",
    "name": "Carina Heights",
    "country": "AU",
    "city": "Carina Heights",
    "lat": -27.5,
    "lng": 153.08333333333334
  },
  {
    "id": "port-auclf",
    "code": "AUCLF",
    "name": "Carlingford",
    "country": "AU",
    "city": "Carlingford",
    "lat": -33.78333333333333,
    "lng": 151.05
  },
  {
    "id": "port-aucun",
    "code": "AUCUN",
    "name": "Caufield North",
    "country": "AU",
    "city": "Caufield North",
    "lat": -37.86666666666667,
    "lng": 14.85
  },
  {
    "id": "port-aucvs",
    "code": "AUCVS",
    "name": "Caversham",
    "country": "AU",
    "city": "Caversham",
    "lat": -31.883333333333333,
    "lng": 115.96666666666667
  },
  {
    "id": "port-auchv",
    "code": "AUCHV",
    "name": "Challis Venture (oil Terminal)",
    "country": "AU",
    "city": "Challis Venture (oil Terminal)",
    "lat": -12.116666666666667,
    "lng": 125.01666666666667
  },
  {
    "id": "port-auche",
    "code": "AUCHE",
    "name": "Chermside",
    "country": "AU",
    "city": "Chermside",
    "lat": -27.383333333333333,
    "lng": 153.16666666666666
  },
  {
    "id": "port-aucn6",
    "code": "AUCN6",
    "name": "Chinderah",
    "country": "AU",
    "city": "Chinderah",
    "lat": -28.233333333333334,
    "lng": 153.55
  },
  {
    "id": "port-aucht",
    "code": "AUCHT",
    "name": "Chittering",
    "country": "AU",
    "city": "Chittering",
    "lat": -31.483333333333334,
    "lng": 116.1
  },
  {
    "id": "port-auscl",
    "code": "AUSCL",
    "name": "Clare",
    "country": "AU",
    "city": "Clare",
    "lat": -33.833333333333336,
    "lng": 138.6
  },
  {
    "id": "port-auclm",
    "code": "AUCLM",
    "name": "Claremont",
    "country": "AU",
    "city": "Claremont",
    "lat": -31.983333333333334,
    "lng": 115.78333333333333
  },
  {
    "id": "port-aucdn",
    "code": "AUCDN",
    "name": "Clarendon",
    "country": "AU",
    "city": "Clarendon",
    "lat": -35.11666666666667,
    "lng": 138.63333333333333
  },
  {
    "id": "port-aucvn",
    "code": "AUCVN",
    "name": "Cleveland",
    "country": "AU",
    "city": "Cleveland",
    "lat": -27.533333333333335,
    "lng": 153.26666666666668
  },
  {
    "id": "port-aucvl",
    "code": "AUCVL",
    "name": "Clovelly",
    "country": "AU",
    "city": "Clovelly",
    "lat": -33.9,
    "lng": 151.25
  },
  {
    "id": "port-aucti",
    "code": "AUCTI",
    "name": "Cockatoo Island",
    "country": "AU",
    "city": "Cockatoo Island",
    "lat": -16.1,
    "lng": 123.61666666666666
  },
  {
    "id": "port-aucst",
    "code": "AUCST",
    "name": "Coldstream",
    "country": "AU",
    "city": "Coldstream",
    "lat": -37.71666666666667,
    "lng": 145.36666666666667
  },
  {
    "id": "port-aucmo",
    "code": "AUCMO",
    "name": "Como",
    "country": "AU",
    "city": "Como",
    "lat": -34,
    "lng": 151.06666666666666
  },
  {
    "id": "port-aucde",
    "code": "AUCDE",
    "name": "Condamine",
    "country": "AU",
    "city": "Condamine",
    "lat": -26.933333333333334,
    "lng": 150.13333333333333
  },
  {
    "id": "port-aucou",
    "code": "AUCOU",
    "name": "Coolum",
    "country": "AU",
    "city": "Coolum",
    "lat": -26.55,
    "lng": 153.08333333333334
  },
  {
    "id": "port-aucoo",
    "code": "AUCOO",
    "name": "Coomera",
    "country": "AU",
    "city": "Coomera",
    "lat": -27.883333333333333,
    "lng": 153.3
  },
  {
    "id": "port-aucnw",
    "code": "AUCNW",
    "name": "Coonawarra",
    "country": "AU",
    "city": "Coonawarra",
    "lat": -37.3,
    "lng": 140.81666666666666
  },
  {
    "id": "port-aucpr",
    "code": "AUCPR",
    "name": "Coorparoo",
    "country": "AU",
    "city": "Coorparoo",
    "lat": -27.5,
    "lng": 153.05
  },
  {
    "id": "port-aucrl",
    "code": "AUCRL",
    "name": "Coral Bay",
    "country": "AU",
    "city": "Coral Bay",
    "lat": -23.133333333333333,
    "lng": 113.76666666666667
  },
  {
    "id": "port-aucrs",
    "code": "AUCRS",
    "name": "Coral Sea",
    "country": "AU",
    "city": "Coral Sea",
    "lat": -19.083333333333332,
    "lng": 150.9
  },
  {
    "id": "port-aucba",
    "code": "AUCBA",
    "name": "Corio Bay",
    "country": "AU",
    "city": "Corio Bay",
    "lat": -38.11666666666667,
    "lng": 144.43333333333334
  },
  {
    "id": "port-aucrv",
    "code": "AUCRV",
    "name": "Coromandel Valley",
    "country": "AU",
    "city": "Coromandel Valley",
    "lat": -35.05,
    "lng": 138.61666666666667
  },
  {
    "id": "port-aucop",
    "code": "AUCOP",
    "name": "Cossack Pioneer (oil Terminal)",
    "country": "AU",
    "city": "Cossack Pioneer (oil Terminal)",
    "lat": -19.583333333333332,
    "lng": 116.45
  },
  {
    "id": "port-aucte",
    "code": "AUCTE",
    "name": "Cottesloe",
    "country": "AU",
    "city": "Cottesloe",
    "lat": -32,
    "lng": 115.76666666666667
  },
  {
    "id": "port-auctt",
    "code": "AUCTT",
    "name": "Cottles Bridge",
    "country": "AU",
    "city": "Cottles Bridge",
    "lat": -37.63333333333333,
    "lng": 145.21666666666667
  },
  {
    "id": "port-audil",
    "code": "AUDIL",
    "name": "Cowandilla",
    "country": "AU",
    "city": "Cowandilla",
    "lat": -34.916666666666664,
    "lng": 138.55
  },
  {
    "id": "port-aucow",
    "code": "AUCOW",
    "name": "Cowaramup",
    "country": "AU",
    "city": "Cowaramup",
    "lat": -33.86666666666667,
    "lng": 115.08333333333333
  },
  {
    "id": "port-aucrf",
    "code": "AUCRF",
    "name": "Crafers",
    "country": "AU",
    "city": "Crafers",
    "lat": -35,
    "lng": 138.7
  },
  {
    "id": "port-aucre",
    "code": "AUCRE",
    "name": "Crestmead",
    "country": "AU",
    "city": "Crestmead",
    "lat": -27.683333333333334,
    "lng": 153.08333333333334
  },
  {
    "id": "port-auc8r",
    "code": "AUC8R",
    "name": "Cromer",
    "country": "AU",
    "city": "Cromer",
    "lat": -34.766666666666666,
    "lng": 139
  },
  {
    "id": "port-aucru",
    "code": "AUCRU",
    "name": "Cronulla",
    "country": "AU",
    "city": "Cronulla",
    "lat": -34.05,
    "lng": 151.15
  },
  {
    "id": "port-audit",
    "code": "AUDIT",
    "name": "Dalrymple Islet",
    "country": "AU",
    "city": "Dalrymple Islet",
    "lat": -9.6,
    "lng": 143.3
  },
  {
    "id": "port-audal",
    "code": "AUDAL",
    "name": "Dalton",
    "country": "AU",
    "city": "Dalton",
    "lat": -34.71666666666667,
    "lng": 149.18333333333334
  },
  {
    "id": "port-audar",
    "code": "AUDAR",
    "name": "Dardanup",
    "country": "AU",
    "city": "Dardanup",
    "lat": -33.4,
    "lng": 115.75
  },
  {
    "id": "port-audrw",
    "code": "AUDRW",
    "name": "Darwin",
    "country": "AU",
    "city": "Darwin",
    "lat": -12.45,
    "lng": 130.83333333333334
  },
  {
    "id": "port-audhi",
    "code": "AUDHI",
    "name": "Dhipirrinjura",
    "country": "AU",
    "city": "Dhipirrinjura",
    "lat": -12.25,
    "lng": 135.08333333333334
  },
  {
    "id": "port-audia",
    "code": "AUDIA",
    "name": "Diamond Creek",
    "country": "AU",
    "city": "Diamond Creek",
    "lat": -37.666666666666664,
    "lng": 145.15
  },
  {
    "id": "port-audry",
    "code": "AUDRY",
    "name": "Drysdale",
    "country": "AU",
    "city": "Drysdale",
    "lat": -38.166666666666664,
    "lng": 144.56666666666666
  },
  {
    "id": "port-auede",
    "code": "AUEDE",
    "name": "Eden Valley",
    "country": "AU",
    "city": "Eden Valley",
    "lat": -34.65,
    "lng": 139.1
  },
  {
    "id": "port-auelb",
    "code": "AUELB",
    "name": "Elizabeth Bay",
    "country": "AU",
    "city": "Elizabeth Bay",
    "lat": -11.9,
    "lng": 136.55
  },
  {
    "id": "port-auelt",
    "code": "AUELT",
    "name": "Eltham",
    "country": "AU",
    "city": "Eltham",
    "lat": -37.733333333333334,
    "lng": 145.15
  },
  {
    "id": "port-auevl",
    "code": "AUEVL",
    "name": "Evans Landing",
    "country": "AU",
    "city": "Evans Landing",
    "lat": -12.666666666666666,
    "lng": 141.85
  },
  {
    "id": "port-aufin",
    "code": "AUFIN",
    "name": "Findon",
    "country": "AU",
    "city": "Findon",
    "lat": -34.9,
    "lng": 138.53333333333333
  },
  {
    "id": "port-aufln",
    "code": "AUFLN",
    "name": "Flynn",
    "country": "AU",
    "city": "Flynn",
    "lat": -38.166666666666664,
    "lng": 146.68333333333334
  },
  {
    "id": "port-aufld",
    "code": "AUFLD",
    "name": "Frankland",
    "country": "AU",
    "city": "Frankland",
    "lat": -34.36666666666667,
    "lng": 114.06666666666666
  },
  {
    "id": "port-aufwt",
    "code": "AUFWT",
    "name": "Freshwater",
    "country": "AU",
    "city": "Freshwater",
    "lat": -33.766666666666666,
    "lng": 151.28333333333333
  },
  {
    "id": "port-augbt",
    "code": "AUGBT",
    "name": "Garbutt",
    "country": "AU",
    "city": "Garbutt",
    "lat": -19.266666666666666,
    "lng": 146.76666666666668
  },
  {
    "id": "port-augem",
    "code": "AUGEM",
    "name": "Gembrook",
    "country": "AU",
    "city": "Gembrook",
    "lat": -37.95,
    "lng": 145.55
  },
  {
    "id": "port-augoa",
    "code": "AUGOA",
    "name": "Goolwa",
    "country": "AU",
    "city": "Goolwa",
    "lat": -35.5,
    "lng": 138.78333333333333
  },
  {
    "id": "port-augor",
    "code": "AUGOR",
    "name": "Gordon",
    "country": "AU",
    "city": "Gordon",
    "lat": -37.583333333333336,
    "lng": 144.1
  },
  {
    "id": "port-augoh",
    "code": "AUGOH",
    "name": "Gove Harbour",
    "country": "AU",
    "city": "Gove Harbour",
    "lat": -12.216666666666667,
    "lng": 136.66666666666666
  },
  {
    "id": "port-augth",
    "code": "AUGTH",
    "name": "Grantham",
    "country": "AU",
    "city": "Grantham",
    "lat": -27.583333333333332,
    "lng": 152.2
  },
  {
    "id": "port-augrb",
    "code": "AUGRB",
    "name": "Gravelly Beach",
    "country": "AU",
    "city": "Gravelly Beach",
    "lat": -41.3,
    "lng": 146.96666666666667
  },
  {
    "id": "port-augtw",
    "code": "AUGTW",
    "name": "Great Western",
    "country": "AU",
    "city": "Great Western",
    "lat": -37.15,
    "lng": 142.85
  },
  {
    "id": "port-augrk",
    "code": "AUGRK",
    "name": "Greenock",
    "country": "AU",
    "city": "Greenock",
    "lat": -34.46666666666667,
    "lng": 138.91666666666666
  },
  {
    "id": "port-augrv",
    "code": "AUGRV",
    "name": "Griffin Venture (oil Terminal)",
    "country": "AU",
    "city": "Griffin Venture (oil Terminal)",
    "lat": -21.216666666666665,
    "lng": 114.63333333333334
  },
  {
    "id": "port-augru",
    "code": "AUGRU",
    "name": "Gruyere",
    "country": "AU",
    "city": "Gruyere",
    "lat": -37.733333333333334,
    "lng": 145.45
  },
  {
    "id": "port-augum",
    "code": "AUGUM",
    "name": "Gumeracha",
    "country": "AU",
    "city": "Gumeracha",
    "lat": -34.833333333333336,
    "lng": 138.88333333333333
  },
  {
    "id": "port-auhah",
    "code": "AUHAH",
    "name": "Hahndorf",
    "country": "AU",
    "city": "Hahndorf",
    "lat": -35.03333333333333,
    "lng": 138.8
  },
  {
    "id": "port-auhtt",
    "code": "AUHTT",
    "name": "Halletts Cove",
    "country": "AU",
    "city": "Halletts Cove",
    "lat": -35.06666666666667,
    "lng": 138.5
  },
  {
    "id": "port-auham",
    "code": "AUHAM",
    "name": "Hampton",
    "country": "AU",
    "city": "Hampton",
    "lat": -38.333333333333336,
    "lng": 145.25
  },
  {
    "id": "port-auhwd",
    "code": "AUHWD",
    "name": "Hanwood",
    "country": "AU",
    "city": "Hanwood",
    "lat": -34.333333333333336,
    "lng": 146.03333333333333
  },
  {
    "id": "port-auhpp",
    "code": "AUHPP",
    "name": "Happy Valley",
    "country": "AU",
    "city": "Happy Valley",
    "lat": -35.083333333333336,
    "lng": 138.53333333333333
  },
  {
    "id": "port-auhas",
    "code": "AUHAS",
    "name": "Hastings",
    "country": "AU",
    "city": "Hastings",
    "lat": -38.3,
    "lng": 145.25
  },
  {
    "id": "port-auhth",
    "code": "AUHTH",
    "name": "Heathcote",
    "country": "AU",
    "city": "Heathcote",
    "lat": -36.916666666666664,
    "lng": 144.71666666666667
  },
  {
    "id": "port-auhbe",
    "code": "AUHBE",
    "name": "Heatherbrae",
    "country": "AU",
    "city": "Heatherbrae",
    "lat": -32.78333333333333,
    "lng": 151.73333333333332
  },
  {
    "id": "port-auhfr",
    "code": "AUHFR",
    "name": "Henderson",
    "country": "AU",
    "city": "Henderson",
    "lat": -32.166666666666664,
    "lng": 115.76666666666667
  },
  {
    "id": "port-auhnk",
    "code": "AUHNK",
    "name": "Hinchinbrook Island",
    "country": "AU",
    "city": "Hinchinbrook Island",
    "lat": -18.383333333333333,
    "lng": 146.28333333333333
  },
  {
    "id": "port-auhba",
    "code": "AUHBA",
    "name": "Hobart",
    "country": "AU",
    "city": "Hobart",
    "lat": -42.86666666666667,
    "lng": 147.3
  },
  {
    "id": "port-auhdd",
    "code": "AUHDD",
    "name": "Hoddles Creek",
    "country": "AU",
    "city": "Hoddles Creek",
    "lat": -37.833333333333336,
    "lng": 145.58333333333334
  },
  {
    "id": "port-auigf",
    "code": "AUIGF",
    "name": "Ingle Farm",
    "country": "AU",
    "city": "Ingle Farm",
    "lat": -34.833333333333336,
    "lng": 138.63333333333333
  },
  {
    "id": "port-auiry",
    "code": "AUIRY",
    "name": "Irymple",
    "country": "AU",
    "city": "Irymple",
    "lat": -34.25,
    "lng": 142.16666666666666
  },
  {
    "id": "port-aujar",
    "code": "AUJAR",
    "name": "Jarrahdale",
    "country": "AU",
    "city": "Jarrahdale",
    "lat": -32.35,
    "lng": 116.06666666666666
  },
  {
    "id": "port-aukan",
    "code": "AUKAN",
    "name": "Kangarilla",
    "country": "AU",
    "city": "Kangarilla",
    "lat": -35.15,
    "lng": 138.65
  },
  {
    "id": "port-aukrb",
    "code": "AUKRB",
    "name": "Karumba",
    "country": "AU",
    "city": "Karumba",
    "lat": -17.483333333333334,
    "lng": 140.83333333333334
  },
  {
    "id": "port-aukay",
    "code": "AUKAY",
    "name": "Kayena",
    "country": "AU",
    "city": "Kayena",
    "lat": -41.18333333333333,
    "lng": 146.88333333333333
  },
  {
    "id": "port-aukei",
    "code": "AUKEI",
    "name": "Keith",
    "country": "AU",
    "city": "Keith",
    "lat": -36.1,
    "lng": 140.35
  },
  {
    "id": "port-aukng",
    "code": "AUKNG",
    "name": "Kensington Gardens",
    "country": "AU",
    "city": "Kensington Gardens",
    "lat": -35.53333333333333,
    "lng": 139.1
  },
  {
    "id": "port-aukey",
    "code": "AUKEY",
    "name": "Keyneton",
    "country": "AU",
    "city": "Keyneton",
    "lat": -34.56666666666667,
    "lng": 139.13333333333333
  },
  {
    "id": "port-aulmq",
    "code": "AULMQ",
    "name": "Lake Macquarie",
    "country": "AU",
    "city": "Lake Macquarie",
    "lat": -33.06666666666667,
    "lng": 151.6
  },
  {
    "id": "port-aulen",
    "code": "AULEN",
    "name": "Lakes Entrance",
    "country": "AU",
    "city": "Lakes Entrance",
    "lat": -37.88333333333333,
    "lng": 147.98333333333332
  },
  {
    "id": "port-aulan",
    "code": "AULAN",
    "name": "Langarra",
    "country": "AU",
    "city": "Langarra",
    "lat": -12.083333333333334,
    "lng": 135.35
  },
  {
    "id": "port-aujml",
    "code": "AUJML",
    "name": "Laurieton",
    "country": "AU",
    "city": "Laurieton",
    "lat": -31.65,
    "lng": 152.8
  },
  {
    "id": "port-aulyd",
    "code": "AULYD",
    "name": "Lilydale",
    "country": "AU",
    "city": "Lilydale",
    "lat": -37.75,
    "lng": 145.36666666666667
  },
  {
    "id": "port-aulow",
    "code": "AULOW",
    "name": "Lisarow",
    "country": "AU",
    "city": "Lisarow",
    "lat": -33.38333333333333,
    "lng": 151.36666666666667
  },
  {
    "id": "port-aulub",
    "code": "AULUB",
    "name": "Lucky Bay",
    "country": "AU",
    "city": "Lucky Bay",
    "lat": -33.68333333333333,
    "lng": 136.91666666666666
  },
  {
    "id": "port-aumky",
    "code": "AUMKY",
    "name": "Mackay",
    "country": "AU",
    "city": "Mackay",
    "lat": -21.15,
    "lng": 149.2
  },
  {
    "id": "port-aumqi",
    "code": "AUMQI",
    "name": "Macquarie Island",
    "country": "AU",
    "city": "Macquarie Island",
    "lat": -54.483333333333334,
    "lng": 158.93333333333334
  },
  {
    "id": "port-aumrk",
    "code": "AUMRK",
    "name": "Macquarie Park",
    "country": "AU",
    "city": "Macquarie Park",
    "lat": -33.766666666666666,
    "lng": 151.11666666666667
  },
  {
    "id": "port-aumby",
    "code": "AUMBY",
    "name": "Maribyrnong",
    "country": "AU",
    "city": "Maribyrnong",
    "lat": -37.78333333333333,
    "lng": 144.88333333333333
  },
  {
    "id": "port-aumar",
    "code": "AUMAR",
    "name": "Marrickville",
    "country": "AU",
    "city": "Marrickville",
    "lat": -33.916666666666664,
    "lng": 151.16666666666666
  },
  {
    "id": "port-ausad",
    "code": "AUSAD",
    "name": "Maryborough",
    "country": "AU",
    "city": "Maryborough",
    "lat": -37.5,
    "lng": 143.75
  },
  {
    "id": "port-aukll",
    "code": "AUKLL",
    "name": "Maryknoll",
    "country": "AU",
    "city": "Maryknoll",
    "lat": -38.916666666666664,
    "lng": 145.6
  },
  {
    "id": "port-aumel",
    "code": "AUMEL",
    "name": "Melbourne",
    "country": "AU",
    "city": "Melbourne",
    "lat": -37.81666666666667,
    "lng": 144.96666666666667
  },
  {
    "id": "port-aumli",
    "code": "AUMLI",
    "name": "Melville Island",
    "country": "AU",
    "city": "Melville Island",
    "lat": -11.55,
    "lng": 130.93333333333334
  },
  {
    "id": "port-aumid",
    "code": "AUMID",
    "name": "Midland",
    "country": "AU",
    "city": "Midland",
    "lat": 31.883333333333333,
    "lng": -115.98333333333333
  },
  {
    "id": "port-aumon",
    "code": "AUMON",
    "name": "Montara Field",
    "country": "AU",
    "city": "Montara Field",
    "lat": -13.083333333333334,
    "lng": 124.08333333333333
  },
  {
    "id": "port-aumll",
    "code": "AUMLL",
    "name": "Mooloolaba",
    "country": "AU",
    "city": "Mooloolaba",
    "lat": -26.683333333333334,
    "lng": 153.13333333333333
  },
  {
    "id": "port-aumok",
    "code": "AUMOK",
    "name": "Moorook",
    "country": "AU",
    "city": "Moorook",
    "lat": -34.28333333333333,
    "lng": 140.35
  },
  {
    "id": "port-aumdc",
    "code": "AUMDC",
    "name": "Mordialloc",
    "country": "AU",
    "city": "Mordialloc",
    "lat": -38.016666666666666,
    "lng": 145.08333333333334
  },
  {
    "id": "port-aumge",
    "code": "AUMGE",
    "name": "Mount Gravatt",
    "country": "AU",
    "city": "Mount Gravatt",
    "lat": -27.533333333333335,
    "lng": 153.08333333333334
  },
  {
    "id": "port-aumhw",
    "code": "AUMHW",
    "name": "Mount Hawthorn",
    "country": "AU",
    "city": "Mount Hawthorn",
    "lat": -31.916666666666668,
    "lng": 115.83333333333333
  },
  {
    "id": "port-aumow",
    "code": "AUMOW",
    "name": "Mowbray Heights",
    "country": "AU",
    "city": "Mowbray Heights",
    "lat": -41.38333333333333,
    "lng": 147.13333333333333
  },
  {
    "id": "port-aumwa",
    "code": "AUMWA",
    "name": "Mulwala",
    "country": "AU",
    "city": "Mulwala",
    "lat": -36,
    "lng": 146
  },
  {
    "id": "port-auneq",
    "code": "AUNEQ",
    "name": "Nericon",
    "country": "AU",
    "city": "Nericon",
    "lat": -34.2,
    "lng": 146.03333333333333
  },
  {
    "id": "port-aunlk",
    "code": "AUNLK",
    "name": "New Norfolk",
    "country": "AU",
    "city": "New Norfolk",
    "lat": -42.78333333333333,
    "lng": 147.06666666666666
  },
  {
    "id": "port-auvic",
    "code": "AUVIC",
    "name": "Newtown",
    "country": "AU",
    "city": "Newtown",
    "lat": -37.7,
    "lng": 143.65
  },
  {
    "id": "port-aungh",
    "code": "AUNGH",
    "name": "Nganhurra",
    "country": "AU",
    "city": "Nganhurra",
    "lat": -21.483333333333334,
    "lng": 114
  },
  {
    "id": "port-aunhu",
    "code": "AUNHU",
    "name": "Nhulunbuy",
    "country": "AU",
    "city": "Nhulunbuy",
    "lat": -12.183333333333334,
    "lng": 136.78333333333333
  },
  {
    "id": "port-auniv",
    "code": "AUNIV",
    "name": "Ningaloo Vision",
    "country": "AU",
    "city": "Ningaloo Vision",
    "lat": -21.4,
    "lng": 114.08333333333333
  },
  {
    "id": "port-aunb2",
    "code": "AUNB2",
    "name": "North Bridge",
    "country": "AU",
    "city": "North Bridge",
    "lat": -33.8,
    "lng": 151.21666666666667
  },
  {
    "id": "port-auokf",
    "code": "AUOKF",
    "name": "Oak Flats",
    "country": "AU",
    "city": "Oak Flats",
    "lat": -34.55,
    "lng": 150.81666666666666
  },
  {
    "id": "port-auons",
    "code": "AUONS",
    "name": "Onslow",
    "country": "AU",
    "city": "Onslow",
    "lat": -21.65,
    "lng": 115.1
  },
  {
    "id": "port-aupag",
    "code": "AUPAG",
    "name": "Paddington",
    "country": "AU",
    "city": "Paddington",
    "lat": -33.88333333333333,
    "lng": 151.21666666666667
  },
  {
    "id": "port-audsw",
    "code": "AUDSW",
    "name": "Padstow",
    "country": "AU",
    "city": "Padstow",
    "lat": -33.95,
    "lng": 151.03333333333333
  },
  {
    "id": "port-aupal",
    "code": "AUPAL",
    "name": "Palmerston",
    "country": "AU",
    "city": "Palmerston",
    "lat": -12.466666666666667,
    "lng": 130.83333333333334
  },
  {
    "id": "port-aupen",
    "code": "AUPEN",
    "name": "Pendle Hills",
    "country": "AU",
    "city": "Pendle Hills",
    "lat": -33.8,
    "lng": 150.95
  },
  {
    "id": "port-auper",
    "code": "AUPER",
    "name": "Perth",
    "country": "AU",
    "city": "Perth",
    "lat": -31.95,
    "lng": 115.85
  },
  {
    "id": "port-aupis",
    "code": "AUPIS",
    "name": "Phillip Island",
    "country": "AU",
    "city": "Phillip Island",
    "lat": -38.483333333333334,
    "lng": 145.23333333333332
  },
  {
    "id": "port-aupic",
    "code": "AUPIC",
    "name": "Picton",
    "country": "AU",
    "city": "Picton",
    "lat": -34.18333333333333,
    "lng": 150.6
  },
  {
    "id": "port-aupyt",
    "code": "AUPYT",
    "name": "Pleystowe",
    "country": "AU",
    "city": "Pleystowe",
    "lat": -21.15,
    "lng": 149.01666666666668
  },
  {
    "id": "port-auphp",
    "code": "AUPHP",
    "name": "Point Henry Pier/Melbourne",
    "country": "AU",
    "city": "Point Henry Pier/Melbourne",
    "lat": -38.11666666666667,
    "lng": 144.43333333333334
  },
  {
    "id": "port-aupdi",
    "code": "AUPDI",
    "name": "Port Denison",
    "country": "AU",
    "city": "Port Denison",
    "lat": -29.266666666666666,
    "lng": 114.93333333333334
  },
  {
    "id": "port-aufry",
    "code": "AUFRY",
    "name": "Port Fairy",
    "country": "AU",
    "city": "Port Fairy",
    "lat": -38.36666666666667,
    "lng": 142.23333333333332
  },
  {
    "id": "port-aut3p",
    "code": "AUT3P",
    "name": "Port Hacking",
    "country": "AU",
    "city": "Port Hacking",
    "lat": -34.06666666666667,
    "lng": 151.13333333333333
  },
  {
    "id": "port-aupky",
    "code": "AUPKY",
    "name": "Port Kenny",
    "country": "AU",
    "city": "Port Kenny",
    "lat": -33.166666666666664,
    "lng": 134.68333333333334
  },
  {
    "id": "port-aupor",
    "code": "AUPOR",
    "name": "Port Melbourne",
    "country": "AU",
    "city": "Port Melbourne",
    "lat": -37.833333333333336,
    "lng": 144.93333333333334
  },
  {
    "id": "port-aupbn",
    "code": "AUPBN",
    "name": "Port of Brisbane",
    "country": "AU",
    "city": "Port of Brisbane",
    "lat": -27.383333333333333,
    "lng": 153.16666666666666
  },
  {
    "id": "port-auptw",
    "code": "AUPTW",
    "name": "Port Willunga",
    "country": "AU",
    "city": "Port Willunga",
    "lat": -35.266666666666666,
    "lng": 138.45
  },
  {
    "id": "port-auphr",
    "code": "AUPHR",
    "name": "Prahran",
    "country": "AU",
    "city": "Prahran",
    "lat": -37.85,
    "lng": 145
  },
  {
    "id": "port-aupye",
    "code": "AUPYE",
    "name": "Pyrenees",
    "country": "AU",
    "city": "Pyrenees",
    "lat": -37.083333333333336,
    "lng": 143.48333333333332
  },
  {
    "id": "port-aupyr",
    "code": "AUPYR",
    "name": "Pyrmont",
    "country": "AU",
    "city": "Pyrmont",
    "lat": -33.86666666666667,
    "lng": 151.18333333333334
  },
  {
    "id": "port-auraf",
    "code": "AURAF",
    "name": "Raffles Bay",
    "country": "AU",
    "city": "Raffles Bay",
    "lat": -11.266666666666667,
    "lng": 132.38333333333333
  },
  {
    "id": "port-aurev",
    "code": "AUREV",
    "name": "Revesby",
    "country": "AU",
    "city": "Revesby",
    "lat": -33.95,
    "lng": 151
  },
  {
    "id": "port-aurll",
    "code": "AURLL",
    "name": "Reynella",
    "country": "AU",
    "city": "Reynella",
    "lat": -36.1,
    "lng": 138.53333333333333
  },
  {
    "id": "port-aurds",
    "code": "AURDS",
    "name": "Rhodes",
    "country": "AU",
    "city": "Rhodes",
    "lat": -33.833333333333336,
    "lng": 151.08333333333334
  },
  {
    "id": "port-aurob",
    "code": "AUROB",
    "name": "Robe",
    "country": "AU",
    "city": "Robe",
    "lat": -37.18333333333333,
    "lng": 139.75
  },
  {
    "id": "port-auryp",
    "code": "AURYP",
    "name": "Rocky Point",
    "country": "AU",
    "city": "Rocky Point",
    "lat": -33.5,
    "lng": 123.98333333333333
  },
  {
    "id": "port-aurnb",
    "code": "AURNB",
    "name": "Rosslyn Bay",
    "country": "AU",
    "city": "Rosslyn Bay",
    "lat": -23.166666666666668,
    "lng": 150.78333333333333
  },
  {
    "id": "port-auroz",
    "code": "AUROZ",
    "name": "Rozelle",
    "country": "AU",
    "city": "Rozelle",
    "lat": -33.85,
    "lng": 151.16666666666666
  },
  {
    "id": "port-ausgt",
    "code": "AUSGT",
    "name": "Sandgate",
    "country": "AU",
    "city": "Sandgate",
    "lat": -32.86666666666667,
    "lng": 151.7
  },
  {
    "id": "port-auscy",
    "code": "AUSCY",
    "name": "Scoresby",
    "country": "AU",
    "city": "Scoresby",
    "lat": -37.9,
    "lng": 145.21666666666667
  },
  {
    "id": "port-au5ci",
    "code": "AU5CI",
    "name": "Selby",
    "country": "AU",
    "city": "Selby",
    "lat": -37.916666666666664,
    "lng": 145.38333333333333
  },
  {
    "id": "port-ausmr",
    "code": "AUSMR",
    "name": "Seventeen Mile Rocks/Brisbane",
    "country": "AU",
    "city": "Seventeen Mile Rocks/Brisbane",
    "lat": -27.55,
    "lng": 152.95
  },
  {
    "id": "port-ausol",
    "code": "AUSOL",
    "name": "Shea Oak Log",
    "country": "AU",
    "city": "Shea Oak Log",
    "lat": -34.516666666666666,
    "lng": 138.81666666666666
  },
  {
    "id": "port-auska",
    "code": "AUSKA",
    "name": "Skardon River",
    "country": "AU",
    "city": "Skardon River",
    "lat": -11.75,
    "lng": 142.01666666666668
  },
  {
    "id": "port-ausbn",
    "code": "AUSBN",
    "name": "South Brisbane",
    "country": "AU",
    "city": "South Brisbane",
    "lat": -27.466666666666665,
    "lng": 153.01666666666668
  },
  {
    "id": "port-austr",
    "code": "AUSTR",
    "name": "South Trees",
    "country": "AU",
    "city": "South Trees",
    "lat": -23.9,
    "lng": 151.28333333333333
  },
  {
    "id": "port-auspo",
    "code": "AUSPO",
    "name": "Spreyton",
    "country": "AU",
    "city": "Spreyton",
    "lat": -41.21666666666667,
    "lng": 146.35
  },
  {
    "id": "port-ausuh",
    "code": "AUSUH",
    "name": "Surry Hills",
    "country": "AU",
    "city": "Surry Hills",
    "lat": -33.88333333333333,
    "lng": 151.21666666666667
  },
  {
    "id": "port-ausyd",
    "code": "AUSYD",
    "name": "Sydney",
    "country": "AU",
    "city": "Sydney",
    "lat": -33.85,
    "lng": 151.2
  },
  {
    "id": "port-ausyl",
    "code": "AUSYL",
    "name": "Sylvania",
    "country": "AU",
    "city": "Sylvania",
    "lat": -34.016666666666666,
    "lng": 151.1
  },
  {
    "id": "port-audga",
    "code": "AUDGA",
    "name": "Tea Gardens",
    "country": "AU",
    "city": "Tea Gardens",
    "lat": -32.666666666666664,
    "lng": 152.15
  },
  {
    "id": "port-augur",
    "code": "AUGUR",
    "name": "The Gurdies",
    "country": "AU",
    "city": "The Gurdies",
    "lat": -38.36666666666667,
    "lng": 145.55
  },
  {
    "id": "port-aucth",
    "code": "AUCTH",
    "name": "Thevenard Island",
    "country": "AU",
    "city": "Thevenard Island",
    "lat": -21.45,
    "lng": 114.98333333333333
  },
  {
    "id": "port-autol",
    "code": "AUTOL",
    "name": "Toombul",
    "country": "AU",
    "city": "Toombul",
    "lat": -27.4,
    "lng": 153.05
  },
  {
    "id": "port-autrd",
    "code": "AUTRD",
    "name": "Tooradin",
    "country": "AU",
    "city": "Tooradin",
    "lat": -38.21666666666667,
    "lng": 145.38333333333333
  },
  {
    "id": "port-autor",
    "code": "AUTOR",
    "name": "Toronto",
    "country": "AU",
    "city": "Toronto",
    "lat": -33,
    "lng": 151.6
  },
  {
    "id": "port-autri",
    "code": "AUTRI",
    "name": "Troughton Island",
    "country": "AU",
    "city": "Troughton Island",
    "lat": -13.75,
    "lng": 126.13333333333334
  },
  {
    "id": "port-auths",
    "code": "AUTHS",
    "name": "Tweed Heads South",
    "country": "AU",
    "city": "Tweed Heads South",
    "lat": -28.2,
    "lng": 153.53333333333333
  },
  {
    "id": "port-auda5",
    "code": "AUDA5",
    "name": "Twowells",
    "country": "AU",
    "city": "Twowells",
    "lat": -34.6,
    "lng": 138.5
  },
  {
    "id": "port-auula",
    "code": "AUULA",
    "name": "Ulladulla",
    "country": "AU",
    "city": "Ulladulla",
    "lat": -35.35,
    "lng": 150.41666666666666
  },
  {
    "id": "port-auumb",
    "code": "AUUMB",
    "name": "Umbakumba",
    "country": "AU",
    "city": "Umbakumba",
    "lat": -13.85,
    "lng": 136.8
  },
  {
    "id": "port-auvgh",
    "code": "AUVGH",
    "name": "Van Gogh Terminal",
    "country": "AU",
    "city": "Van Gogh Terminal",
    "lat": -21.4,
    "lng": 114.08333333333333
  },
  {
    "id": "port-auwsn",
    "code": "AUWSN",
    "name": "Warners Bay",
    "country": "AU",
    "city": "Warners Bay",
    "lat": -32.96666666666667,
    "lng": 151.65
  },
  {
    "id": "port-auwtw",
    "code": "AUWTW",
    "name": "Waterways",
    "country": "AU",
    "city": "Waterways",
    "lat": -38,
    "lng": 145.11666666666667
  },
  {
    "id": "port-auwtn",
    "code": "AUWTN",
    "name": "Webberton",
    "country": "AU",
    "city": "Webberton",
    "lat": -28.75,
    "lng": 114.61666666666666
  },
  {
    "id": "port-aukjh",
    "code": "AUKJH",
    "name": "Welland",
    "country": "AU",
    "city": "Welland",
    "lat": -34.9,
    "lng": 138.53333333333333
  },
  {
    "id": "port-auwhl",
    "code": "AUWHL",
    "name": "Welshpool",
    "country": "AU",
    "city": "Welshpool",
    "lat": -38.666666666666664,
    "lng": 146.43333333333334
  },
  {
    "id": "port-auwwp",
    "code": "AUWWP",
    "name": "Wentworth Point",
    "country": "AU",
    "city": "Wentworth Point",
    "lat": -33.833333333333336,
    "lng": 151.06666666666666
  },
  {
    "id": "port-auwrb",
    "code": "AUWRB",
    "name": "Werribee",
    "country": "AU",
    "city": "Werribee",
    "lat": -37.9,
    "lng": 144.65
  },
  {
    "id": "port-auwsi",
    "code": "AUWSI",
    "name": "Whitsunday Island",
    "country": "AU",
    "city": "Whitsunday Island",
    "lat": -20.25,
    "lng": 149.01666666666668
  },
  {
    "id": "port-auwih",
    "code": "AUWIH",
    "name": "Wingham",
    "country": "AU",
    "city": "Wingham",
    "lat": -31.866666666666667,
    "lng": 152.36666666666667
  },
  {
    "id": "port-auwnb",
    "code": "AUWNB",
    "name": "Withnell Bay",
    "country": "AU",
    "city": "Withnell Bay",
    "lat": -20.583333333333332,
    "lng": 116.78333333333333
  },
  {
    "id": "port-auwoo",
    "code": "AUWOO",
    "name": "Woolloomooloo",
    "country": "AU",
    "city": "Woolloomooloo",
    "lat": -33.86666666666667,
    "lng": 151.21666666666667
  },
  {
    "id": "port-auwbt",
    "code": "AUWBT",
    "name": "Woollybutt (Oil facility)",
    "country": "AU",
    "city": "Woollybutt (Oil facility)",
    "lat": -21.05,
    "lng": 114.86666666666666
  },
  {
    "id": "port-auyrr",
    "code": "AUYRR",
    "name": "Yarra Junction",
    "country": "AU",
    "city": "Yarra Junction",
    "lat": -37.78333333333333,
    "lng": 145.61666666666667
  },
  {
    "id": "port-awaua",
    "code": "AWAUA",
    "name": "Aruba",
    "country": "AW",
    "city": "Aruba",
    "lat": 12.5,
    "lng": -69.96666666666667
  },
  {
    "id": "port-awbar",
    "code": "AWBAR",
    "name": "Barcadera",
    "country": "AW",
    "city": "Barcadera",
    "lat": 12.483333333333333,
    "lng": -69.98333333333333
  },
  {
    "id": "port-awbus",
    "code": "AWBUS",
    "name": "Bushiribana",
    "country": "AW",
    "city": "Bushiribana",
    "lat": 12.55,
    "lng": -69.96666666666667
  },
  {
    "id": "port-axmhq",
    "code": "AXMHQ",
    "name": "Maarianhamina (Mariehamn)",
    "country": "AX",
    "city": "Maarianhamina (Mariehamn)",
    "lat": 60.1,
    "lng": 19.95
  },
  {
    "id": "port-axmhq",
    "code": "AXMHQ",
    "name": "Mariehamn (Maarianhamina)",
    "country": "AX",
    "city": "Mariehamn (Maarianhamina)",
    "lat": 60.1,
    "lng": 19.95
  },
  {
    "id": "port-azala",
    "code": "AZALA",
    "name": "Alat",
    "country": "AZ",
    "city": "Alat",
    "lat": 39.95,
    "lng": 49.4
  },
  {
    "id": "port-azkmz",
    "code": "AZKMZ",
    "name": "Khachmaz",
    "country": "AZ",
    "city": "Khachmaz",
    "lat": 41.983333333333334,
    "lng": 47.583333333333336
  },
  {
    "id": "port-azqdg",
    "code": "AZQDG",
    "name": "Qaradag",
    "country": "AZ",
    "city": "Qaradag",
    "lat": 40.25,
    "lng": 49.6
  },
  {
    "id": "port-azshi",
    "code": "AZSHI",
    "name": "Shirvan",
    "country": "AZ",
    "city": "Shirvan",
    "lat": 39.916666666666664,
    "lng": 48.916666666666664
  },
  {
    "id": "port-azsuq",
    "code": "AZSUQ",
    "name": "Sumqayit",
    "country": "AZ",
    "city": "Sumqayit",
    "lat": 40.583333333333336,
    "lng": 49.666666666666664
  },
  {
    "id": "port-ba4ca",
    "code": "BA4CA",
    "name": "Cazin",
    "country": "BA",
    "city": "Cazin",
    "lat": 44.96666666666667,
    "lng": 15.933333333333334
  },
  {
    "id": "port-badoj",
    "code": "BADOJ",
    "name": "Domaljevac",
    "country": "BA",
    "city": "Domaljevac",
    "lat": 45.05,
    "lng": 18.566666666666666
  },
  {
    "id": "port-bafoj",
    "code": "BAFOJ",
    "name": "Fojnica",
    "country": "BA",
    "city": "Fojnica",
    "lat": 43.95,
    "lng": 17.9
  },
  {
    "id": "port-bajba",
    "code": "BAJBA",
    "name": "Jablanica",
    "country": "BA",
    "city": "Jablanica",
    "lat": 43.65,
    "lng": 17.75
  },
  {
    "id": "port-bamag",
    "code": "BAMAG",
    "name": "Maglaj",
    "country": "BA",
    "city": "Maglaj",
    "lat": 44.53333333333333,
    "lng": 18.083333333333332
  },
  {
    "id": "port-banem",
    "code": "BANEM",
    "name": "Neum",
    "country": "BA",
    "city": "Neum",
    "lat": 42.916666666666664,
    "lng": 17.616666666666667
  },
  {
    "id": "port-basmt",
    "code": "BASMT",
    "name": "Sanski Most",
    "country": "BA",
    "city": "Sanski Most",
    "lat": 44.766666666666666,
    "lng": 16.666666666666668
  },
  {
    "id": "port-bavgs",
    "code": "BAVGS",
    "name": "Vogosca",
    "country": "BA",
    "city": "Vogosca",
    "lat": 43.9,
    "lng": 18.35
  },
  {
    "id": "port-baznk",
    "code": "BAZNK",
    "name": "Zvornik",
    "country": "BA",
    "city": "Zvornik",
    "lat": 44.38333333333333,
    "lng": 19.1
  },
  {
    "id": "port-bbstm",
    "code": "BBSTM",
    "name": "Saint Michael",
    "country": "BB",
    "city": "Saint Michael",
    "lat": 13.116666666666667,
    "lng": -59.6
  },
  {
    "id": "port-bdasj",
    "code": "BDASJ",
    "name": "Ashuganj",
    "country": "BD",
    "city": "Ashuganj",
    "lat": 24.033333333333335,
    "lng": 91.01666666666667
  },
  {
    "id": "port-bdbnp",
    "code": "BDBNP",
    "name": "Benapole",
    "country": "BD",
    "city": "Benapole",
    "lat": 23.05,
    "lng": 88.9
  },
  {
    "id": "port-bdcgp",
    "code": "BDCGP",
    "name": "Chattogram",
    "country": "BD",
    "city": "Chattogram",
    "lat": 22.333333333333332,
    "lng": 91.83333333333333
  },
  {
    "id": "port-bdmun",
    "code": "BDMUN",
    "name": "Munshiganj",
    "country": "BD",
    "city": "Munshiganj",
    "lat": 23.55,
    "lng": 90.53333333333333
  },
  {
    "id": "port-bdpcr",
    "code": "BDPCR",
    "name": "Panchashar",
    "country": "BD",
    "city": "Panchashar",
    "lat": 23.566666666666666,
    "lng": 90.5
  },
  {
    "id": "port-bdpgn",
    "code": "BDPGN",
    "name": "Pangaon",
    "country": "BD",
    "city": "Pangaon",
    "lat": 23.65,
    "lng": 90.45
  },
  {
    "id": "port-bdpay",
    "code": "BDPAY",
    "name": "Payra Port",
    "country": "BD",
    "city": "Payra Port",
    "lat": 21.933333333333334,
    "lng": 90.26666666666667
  },