{
  "version": "2026.01",
  "lastUpdated": "2026-01-27",
  "totalPorts": 11802,
  "continents": {
    "AS": {
      "code": "AS",
      "name": "亚洲",
      "nameEn": "Asia",
      "totalPorts": 267,
      "regions": {
        "EA": {
          "code": "EA",
          "name": "东亚",
          "nameEn": "East Asia",
          "totalPorts": 108,
          "countries": {
            "CN": {
              "code": "CN",
              "name": "中国",
              "nameEn": "China",
              "totalPorts": 93,
              "ports": [
                {
                  "code": "CNNBG",
                  "name": "Ningbo Pt",
                  "nameZh": "宁波港",
                  "city": "Ningbo Pt",
                  "lat": 29.9461,
                  "lng": 121.8175,
                  "intl": true
                },
                {
                  "code": "CNSHG",
                  "name": "Shanghai Pt",
                  "nameZh": "上海港",
                  "city": "Shanghai Pt",
                  "lat": 30.6097,
                  "lng": 122.06,
                  "intl": true
                },
                {
                  "code": "CNGZG",
                  "name": "Guangzhou Pt",
                  "nameZh": "广州港",
                  "city": "Guangzhou Pt",
                  "lat": 23.1333,
                  "lng": 113.2333,
                  "intl": true
                },
                {
                  "code": "CNSZP",
                  "name": "Shenzhen Pt",
                  "nameZh": "深圳港",
                  "city": "Shenzhen Pt",
                  "lat": 22.5362,
                  "lng": 114.0584,
                  "intl": true
                },
                {
                  "code": "CNYTN",
                  "name": "Yantian",
                  "nameZh": "盐田港",
                  "city": "Yantian",
                  "lat": 22.56,
                  "lng": 114.28,
                  "intl": true
                },
                {
                  "code": "CNTNG",
                  "name": "Tianjin Pt",
                  "nameZh": "天津港",
                  "city": "Tianjin Pt",
                  "lat": 38.9833,
                  "lng": 117.75,
                  "intl": true
                },
                {
                  "code": "CNTXG",
                  "name": "Tianjin Xingang Pt",
                  "nameZh": "天津港",
                  "city": "Tianjin Xingang Pt",
                  "lat": 38.98,
                  "lng": 117.75,
                  "intl": true
                },
                {
                  "code": "CNYAT",
                  "name": "Yantai",
                  "nameZh": "烟台港",
                  "city": "Yantai",
                  "lat": 37.4667,
                  "lng": 121.3833,
                  "intl": true
                },
                {
                  "code": "CNYTG",
                  "name": "Yantai Pt",
                  "nameZh": "烟台港",
                  "city": "Yantai Pt",
                  "lat": 37.55,
                  "lng": 121.4167,
                  "intl": true
                },
                {
                  "code": "CNDAL",
                  "name": "Dalian",
                  "nameZh": "大连港",
                  "city": "Dalian",
                  "lat": 38.92,
                  "lng": 121.65,
                  "intl": true
                },
                {
                  "code": "CNSHK",
                  "name": "Shekou Pt",
                  "nameZh": "蛇口港",
                  "city": "Shekou Pt",
                  "lat": 22.47,
                  "lng": 113.9,
                  "intl": true
                },
                {
                  "code": "CNXMG",
                  "name": "Xiamen Pt",
                  "nameZh": "厦门港",
                  "city": "Xiamen Pt",
                  "lat": 24.45,
                  "lng": 118.08,
                  "intl": true
                },
                {
                  "code": "CNHHT",
                  "name": "Haitian Terminal/ Xiamen",
                  "nameZh": "海天码头/厦门",
                  "city": "Haitian Terminal/ Xiamen",
                  "lat": 27.1,
                  "lng": 120.3,
                  "intl": true
                },
                {
                  "code": "CNWZO",
                  "name": "Wenzhou Pt",
                  "nameZh": "温州港",
                  "city": "Wenzhou Pt",
                  "lat": 28.0167,
                  "lng": 120.65,
                  "intl": true
                },
                {
                  "code": "CNFAN",
                  "name": "Fangcheng Pt",
                  "nameZh": "防城港",
                  "city": "Fangcheng Pt",
                  "lat": 21.7667,
                  "lng": 108.35,
                  "intl": true
                },
                {
                  "code": "CNAJG",
                  "name": "Aojiang Pt",
                  "nameZh": "鳌江港",
                  "city": "Aojiang Pt",
                  "lat": 27.5833,
                  "lng": 120.45,
                  "intl": false
                },
                {
                  "code": "CNBIH",
                  "name": "Beihai Pt",
                  "nameZh": "北海港",
                  "city": "Beihai Pt",
                  "lat": 21.4667,
                  "lng": 109.1167,
                  "intl": false
                },
                {
                  "code": "CNBLX",
                  "name": "Honghai Pt",
                  "nameZh": "红海港",
                  "city": "Honghai Pt",
                  "lat": 23.1667,
                  "lng": 114.2667,
                  "intl": false
                },
                {
                  "code": "CNBSD",
                  "name": "Baoshan Pt",
                  "nameZh": "宝山港",
                  "city": "Baoshan Pt",
                  "lat": 31.4167,
                  "lng": 121.4833,
                  "intl": false
                },
                {
                  "code": "CNBSP",
                  "name": "Basuo Pt",
                  "nameZh": "八所港",
                  "city": "Basuo Pt",
                  "lat": 19,
                  "lng": 108.6167,
                  "intl": false
                },
                {
                  "code": "CNCFD",
                  "name": "Caofeidian Pt",
                  "nameZh": "曹妃甸港",
                  "city": "Caofeidian Pt",
                  "lat": 38.95,
                  "lng": 118.5333,
                  "intl": false
                },
                {
                  "code": "CNCGS",
                  "name": "Changshu Pt",
                  "nameZh": "常熟港",
                  "city": "Changshu Pt",
                  "lat": 31.65,
                  "lng": 120.7167,
                  "intl": false
                },
                {
                  "code": "CNCHY",
                  "name": "Chaoyang Pt",
                  "nameZh": "朝阳港",
                  "city": "Chaoyang Pt",
                  "lat": 23.2667,
                  "lng": 116.6,
                  "intl": false
                },
                {
                  "code": "CNCLJ",
                  "name": "Chenglingji Pt",
                  "nameZh": "城陵矶港",
                  "city": "Chenglingji Pt",
                  "lat": 29.4333,
                  "lng": 113.15,
                  "intl": false
                },
                {
                  "code": "CNCWN",
                  "name": "Chiwan Pt",
                  "nameZh": "赤湾港",
                  "city": "Chiwan Pt",
                  "lat": 22.4833,
                  "lng": 113.8833,
                  "intl": false
                },
                {
                  "code": "CNDAX",
                  "name": "Daxie Pt",
                  "nameZh": "大榭港",
                  "city": "Daxie Pt",
                  "lat": 29.8833,
                  "lng": 121.95,
                  "intl": false
                },
                {
                  "code": "CNDDD",
                  "name": "Dadeng I.",
                  "nameZh": "丹东港",
                  "city": "Dadeng I.",
                  "lat": 24.5333,
                  "lng": 118.3167,
                  "intl": false
                },
                {
                  "code": "CNDJT",
                  "name": "Dongjiaotou Pt",
                  "nameZh": "东角头港",
                  "city": "Dongjiaotou Pt",
                  "lat": 20.3333,
                  "lng": 110.4167,
                  "intl": false
                },
                {
                  "code": "CNDOP",
                  "name": "Donglian Port",
                  "nameZh": "东连港",
                  "city": "Donglian Port",
                  "lat": 23.25,
                  "lng": 115.0167,
                  "intl": false
                },
                {
                  "code": "CNDOU",
                  "name": "Doumen Pt",
                  "nameZh": "斗门港",
                  "city": "Doumen Pt",
                  "lat": 22.2,
                  "lng": 113.2833,
                  "intl": false
                },
                {
                  "code": "CNGAO",
                  "name": "Gaogang",
                  "nameZh": "高港",
                  "city": "Gaogang",
                  "lat": 32.3,
                  "lng": 119.85,
                  "intl": false
                },
                {
                  "code": "CNGHI",
                  "name": "Guanghai Pt",
                  "nameZh": "广海港",
                  "city": "Guanghai Pt",
                  "lat": 21.9667,
                  "lng": 112.8,
                  "intl": false
                },
                {
                  "code": "CNGOM",
                  "name": "Gaoming Pt",
                  "nameZh": "高明港",
                  "city": "Gaoming Pt",
                  "lat": 22.8833,
                  "lng": 112.8333,
                  "intl": false
                },
                {
                  "code": "CNGUG",
                  "name": "Guigang",
                  "nameZh": "贵港",
                  "city": "Guigang",
                  "lat": 23.1,
                  "lng": 109.6,
                  "intl": false
                },
                {
                  "code": "CNGUT",
                  "name": "Guangdong Terminal",
                  "nameZh": "广东码头",
                  "city": "Guangdong Terminal",
                  "lat": 22.5667,
                  "lng": 114.4333,
                  "intl": false
                },
                {
                  "code": "CNHID",
                  "name": "Huidong Pt",
                  "nameZh": "惠东港",
                  "city": "Huidong Pt",
                  "lat": 22.9833,
                  "lng": 114.7,
                  "intl": false
                },
                {
                  "code": "CNHIG",
                  "name": "Haikou Pt",
                  "nameZh": "秀英港",
                  "city": "Haikou Pt",
                  "lat": 20.0333,
                  "lng": 110.1667,
                  "intl": false
                },
                {
                  "code": "CNHMN",
                  "name": "Humen Pt",
                  "nameZh": "虎门港",
                  "city": "Humen Pt",
                  "lat": 22.8333,
                  "lng": 113.6667,
                  "intl": false
                },
                {
                  "code": "CNHSI",
                  "name": "Huangshi Pt",
                  "nameZh": "黄石港",
                  "city": "Huangshi Pt",
                  "lat": 30.2,
                  "lng": 115.1,
                  "intl": false
                },
                {
                  "code": "CNHSN",
                  "name": "Heshan Pt",
                  "nameZh": "鹤山港",
                  "city": "Heshan Pt",
                  "lat": 22.7667,
                  "lng": 112.95,
                  "intl": false
                },
                {
                  "code": "CNHUD",
                  "name": "Huludao",
                  "nameZh": "葫芦岛港",
                  "city": "Huludao",
                  "lat": 40.75,
                  "lng": 120.85,
                  "intl": false
                },
                {
                  "code": "CNHUH",
                  "name": "Huanghua Pt",
                  "nameZh": "黄骅港",
                  "city": "Huanghua Pt",
                  "lat": 38.35,
                  "lng": 117.35,
                  "intl": false
                },
                {
                  "code": "CNHUN",
                  "name": "Huangpu New Port",
                  "nameZh": "黄埔新港",
                  "city": "Huangpu New Port",
                  "lat": 23.0833,
                  "lng": 113.5,
                  "intl": false
                },
                {
                  "code": "CNHXG",
                  "name": "Haikou New Pt",
                  "nameZh": "新港",
                  "city": "Haikou New Pt",
                  "lat": 20.25,
                  "lng": 108.8333,
                  "intl": false
                },
                {
                  "code": "CNJIA",
                  "name": "Jiangyin Pt",
                  "nameZh": "江阴港",
                  "city": "Jiangyin Pt",
                  "lat": 31.9,
                  "lng": 120.2833,
                  "intl": false
                },
                {
                  "code": "CNJIS",
                  "name": "Jiangshan Pt",
                  "nameZh": "江山港",
                  "city": "Jiangshan Pt",
                  "lat": 21.6333,
                  "lng": 108.2667,
                  "intl": false
                },
                {
                  "code": "CNJNZ",
                  "name": "Jinzhou Pt",
                  "nameZh": "锦州港",
                  "city": "Jinzhou Pt",
                  "lat": 41.1167,
                  "lng": 121.15,
                  "intl": false
                },
                {
                  "code": "CNJZK",
                  "name": "Jingzhou Pt",
                  "nameZh": "荆州港",
                  "city": "Jingzhou Pt",
                  "lat": 30.3,
                  "lng": 112.2667,
                  "intl": false
                },
                {
                  "code": "CNLGY",
                  "name": "Longyan Pt",
                  "nameZh": "龙岩港",
                  "city": "Longyan Pt",
                  "lat": 37.4333,
                  "lng": 122.6333,
                  "intl": false
                },
                {
                  "code": "CNLIH",
                  "name": "Lianhuashan Pt",
                  "nameZh": "莲花山港",
                  "city": "Lianhuashan Pt",
                  "lat": 23.0167,
                  "lng": 115.2667,
                  "intl": false
                },
                {
                  "code": "CNLKU",
                  "name": "Longkou Pt",
                  "nameZh": "龙口港",
                  "city": "Longkou Pt",
                  "lat": 37.65,
                  "lng": 120.35,
                  "intl": false
                },
                {
                  "code": "CNLMG",
                  "name": "Wenling Longmen Port",
                  "nameZh": "温岭龙门港",
                  "city": "Wenling Longmen Port",
                  "lat": 28.4167,
                  "lng": 121.9833,
                  "intl": false
                },
                {
                  "code": "CNLSH",
                  "name": "Lushun New Pt",
                  "nameZh": "旅顺港",
                  "city": "Lushun New Pt",
                  "lat": 38.6833,
                  "lng": 121.1833,
                  "intl": false
                },
                {
                  "code": "CNLSN",
                  "name": "Lanshan Pt",
                  "nameZh": "岚山港",
                  "city": "Lanshan Pt",
                  "lat": 35.0667,
                  "lng": 119.3667,
                  "intl": false
                },
                {
                  "code": "CNLZO",
                  "name": "Laizhou Pt",
                  "nameZh": "莱州港",
                  "city": "Laizhou Pt",
                  "lat": 37.1667,
                  "lng": 119.95,
                  "intl": false
                },
                {
                  "code": "CNMAW",
                  "name": "Mawei Pt",
                  "nameZh": "马尾港",
                  "city": "Mawei Pt",
                  "lat": 25.9833,
                  "lng": 119.45,
                  "intl": false
                },
                {
                  "code": "CNMSA",
                  "name": "Meisha Pt",
                  "nameZh": "梅沙港",
                  "city": "Meisha Pt",
                  "lat": 24.7,
                  "lng": 117.0667,
                  "intl": false
                },
                {
                  "code": "CNMWN",
                  "name": "Mawan Pt",
                  "nameZh": "码湾港",
                  "city": "Mawan Pt",
                  "lat": 22.45,
                  "lng": 113.8833,
                  "intl": false
                },
                {
                  "code": "CNNAH",
                  "name": "Nanhai Pt",
                  "nameZh": "南海港",
                  "city": "Nanhai Pt",
                  "lat": 23.0167,
                  "lng": 113.15,
                  "intl": false
                },
                {
                  "code": "CNNAN",
                  "name": "Nanao Pt",
                  "nameZh": "南澳港",
                  "city": "Nanao Pt",
                  "lat": 23.4333,
                  "lng": 117.6833,
                  "intl": false
                },
                {
                  "code": "CNNEG",
                  "name": "Neigang",
                  "nameZh": "内港",
                  "city": "Neigang",
                  "lat": 23.1,
                  "lng": 113.4167,
                  "intl": false
                },
                {
                  "code": "CNNSA",
                  "name": "Nansha Pt",
                  "nameZh": "南沙港",
                  "city": "Nansha Pt",
                  "lat": 22.75,
                  "lng": 113.5833,
                  "intl": false
                },
                {
                  "code": "CNPLI",
                  "name": "Penglai Pt",
                  "nameZh": "蓬莱港",
                  "city": "Penglai Pt",
                  "lat": 37.8,
                  "lng": 120.75,
                  "intl": false
                },
                {
                  "code": "CNPXM",
                  "name": "Pingshaxinmatou",
                  "nameZh": "平沙新码头",
                  "city": "Pingshaxinmatou",
                  "lat": 22.1,
                  "lng": 113.1667,
                  "intl": false
                },
                {
                  "code": "CNQLN",
                  "name": "Qinglan Pt",
                  "nameZh": "青兰港",
                  "city": "Qinglan Pt",
                  "lat": 19.55,
                  "lng": 110.8167,
                  "intl": false
                },
                {
                  "code": "CNQSA",
                  "name": "Qisha Pt",
                  "nameZh": "旗沙港",
                  "city": "Qisha Pt",
                  "lat": 21.5833,
                  "lng": 108.4667,
                  "intl": false
                },
                {
                  "code": "CNQUG",
                  "name": "Quangang,Quanzhou",
                  "nameZh": "泉港，泉州",
                  "city": "Quangang,Quanzhou",
                  "lat": 25.1333,
                  "lng": 118.9167,
                  "intl": false
                },
                {
                  "code": "CNROQ",
                  "name": "Rongqi Pt",
                  "nameZh": "容奇港",
                  "city": "Rongqi Pt",
                  "lat": 22.7833,
                  "lng": 113.2667,
                  "intl": false
                },
                {
                  "code": "CNSDG",
                  "name": "Shuidong Pt",
                  "nameZh": "水东港",
                  "city": "Shuidong Pt",
                  "lat": 21.5167,
                  "lng": 111,
                  "intl": false
                },
                {
                  "code": "CNSHD",
                  "name": "Shidao Pt",
                  "nameZh": "石岛港",
                  "city": "Shidao Pt",
                  "lat": 36.8667,
                  "lng": 122.4333,
                  "intl": false
                },
                {
                  "code": "CNSHP",
                  "name": "Qinhuangdao Pt",
                  "nameZh": "秦皇岛港",
                  "city": "Qinhuangdao Pt",
                  "lat": 39.9167,
                  "lng": 119.5833,
                  "intl": false
                },
                {
                  "code": "CNSJU",
                  "name": "Shijiu Pt",
                  "nameZh": "石臼港",
                  "city": "Shijiu Pt",
                  "lat": 36.3667,
                  "lng": 119.55,
                  "intl": false
                },
                {
                  "code": "CNSON",
                  "name": "Songxia Pt",
                  "nameZh": "松下港",
                  "city": "Songxia Pt",
                  "lat": 25.6833,
                  "lng": 119.5833,
                  "intl": false
                },
                {
                  "code": "CNSTB",
                  "name": "Shitoubu Pt",
                  "nameZh": "石头埠港",
                  "city": "Shitoubu Pt",
                  "lat": 21.5833,
                  "lng": 109.55,
                  "intl": false
                },
                {
                  "code": "CNSUD",
                  "name": "Shunde Pt",
                  "nameZh": "顺德港",
                  "city": "Shunde Pt",
                  "lat": 22.8333,
                  "lng": 113.25,
                  "intl": false
                },
                {
                  "code": "CNSYA",
                  "name": "Sanya Pt",
                  "nameZh": "三亚港",
                  "city": "Sanya Pt",
                  "lat": 33.7833,
                  "lng": 120.25,
                  "intl": false
                },
                {
                  "code": "CNTAC",
                  "name": "Taicang Pt",
                  "nameZh": "太仓港",
                  "city": "Taicang Pt",
                  "lat": 31.45,
                  "lng": 121.1,
                  "intl": false
                },
                {
                  "code": "CNWAS",
                  "name": "Wanshan Pt",
                  "nameZh": "万山港",
                  "city": "Wanshan Pt",
                  "lat": 21.9333,
                  "lng": 113.7167,
                  "intl": false
                },
                {
                  "code": "CNWEG",
                  "name": "Weihai Pt",
                  "nameZh": "威海港",
                  "city": "Weihai Pt",
                  "lat": 37.5,
                  "lng": 122.1667,
                  "intl": false
                },
                {
                  "code": "CNWUG",
                  "name": "Wusong Pt",
                  "nameZh": "吴淞港",
                  "city": "Wusong Pt",
                  "lat": 3.2,
                  "lng": 121.4833,
                  "intl": false
                },
                {
                  "code": "CNXCU",
                  "name": "Xiaocuo Pt",
                  "nameZh": "小厝港",
                  "city": "Xiaocuo Pt",
                  "lat": 25.2,
                  "lng": 119.95,
                  "intl": false
                },
                {
                  "code": "CNXGA",
                  "name": "Xingang",
                  "nameZh": "新港",
                  "city": "Xingang",
                  "lat": 23.0333,
                  "lng": 113.1,
                  "intl": false
                },
                {
                  "code": "CNXIN",
                  "name": "Xinhui Pt",
                  "nameZh": "新会港",
                  "city": "Xinhui Pt",
                  "lat": 22.5333,
                  "lng": 113.0167,
                  "intl": false
                },
                {
                  "code": "CNXIT",
                  "name": "Xintang Pt",
                  "nameZh": "新塘港",
                  "city": "Xintang Pt",
                  "lat": 23.1167,
                  "lng": 113.6167,
                  "intl": false
                },
                {
                  "code": "CNXXY",
                  "name": "Xiangyu Terminal/ Xiamen",
                  "nameZh": "翔宇码头/厦门",
                  "city": "Xiangyu Terminal/ Xiamen",
                  "lat": 27.1,
                  "lng": 120.3167,
                  "intl": false
                },
                {
                  "code": "CNXYG",
                  "name": "Xiuyu Pt",
                  "nameZh": "秀屿港",
                  "city": "Xiuyu Pt",
                  "lat": 25.2333,
                  "lng": 118.95,
                  "intl": false
                },
                {
                  "code": "CNYKG",
                  "name": "Yangkou Pt",
                  "nameZh": "洋口港",
                  "city": "Yangkou Pt",
                  "lat": 32.55,
                  "lng": 121.4,
                  "intl": false
                },
                {
                  "code": "CNYPG",
                  "name": "Yangpu Pt",
                  "nameZh": "洋浦港",
                  "city": "Yangpu Pt",
                  "lat": 19.7,
                  "lng": 109.2,
                  "intl": false
                },
                {
                  "code": "CNZHH",
                  "name": "Zhuanghe Pt",
                  "nameZh": "庄河港",
                  "city": "Zhuanghe Pt",
                  "lat": 39.6833,
                  "lng": 122.9667,
                  "intl": false
                },
                {
                  "code": "CNZNG",
                  "name": "Zhanjiang Pt",
                  "nameZh": "湛江港",
                  "city": "Zhanjiang Pt",
                  "lat": 21.0833,
                  "lng": 110.5,
                  "intl": false
                },
                {
                  "code": "CNZPG",
                  "name": "zhengpugang Pt",
                  "nameZh": "正浦港",
                  "city": "zhengpugang Pt",
                  "lat": 31.6333,
                  "lng": 118.3833,
                  "intl": false
                },
                {
                  "code": "CNZPU",
                  "name": "Zhapu Pt",
                  "nameZh": "乍浦港",
                  "city": "Zhapu Pt",
                  "lat": 30.5833,
                  "lng": 121.0833,
                  "intl": false
                },
                {
                  "code": "CNZUH",
                  "name": "Zhuhai",
                  "nameZh": "九洲港",
                  "city": "Zhuhai",
                  "lat": 22.2833,
                  "lng": 113.5667,
                  "intl": false
                }
              ]
            },
            "HK": {
              "code": "HK",
              "name": "中国香港",
              "nameEn": "Hong Kong, China",
              "totalPorts": 2,
              "ports": [
                {
                  "code": "HKHKG",
                  "name": "Hong Kong",
                  "nameZh": "香港",
                  "city": "Hong Kong",
                  "lat": 22.31,
                  "lng": 114.17,
                  "intl": true
                },
                {
                  "code": "HKABD",
                  "name": "Aberdeen",
                  "nameZh": "香港仔",
                  "city": "Aberdeen",
                  "lat": 22.25,
                  "lng": 114.15,
                  "intl": false
                }
              ]
            },
            "JP": {
              "code": "JP",
              "name": "日本",
              "nameEn": "Japan",
              "totalPorts": 8,
              "ports": [
                {
                  "code": "JPTYO",
                  "name": "Tokyo",
                  "nameZh": "东京港",
                  "city": "Tokyo",
                  "lat": 35.6833,
                  "lng": 139.75,
                  "intl": true
                },
                {
                  "code": "JPYOK",
                  "name": "Yokohama",
                  "nameZh": "横滨港",
                  "city": "Yokohama",
                  "lat": 35.45,
                  "lng": 139.65,
                  "intl": true
                },
                {
                  "code": "JPHKT",
                  "name": "Hakata/Fukuoka",
                  "nameZh": "博多港",
                  "city": "Hakata/Fukuoka",
                  "lat": 33.6,
                  "lng": 130.4167,
                  "intl": true
                },
                {
                  "code": "JPKKJ",
                  "name": "Kitakyushu",
                  "nameZh": "北九州港",
                  "city": "Kitakyushu",
                  "lat": 33.8333,
                  "lng": 130.8333,
                  "intl": true
                },
                {
                  "code": "JPAMX",
                  "name": "AmagasakiNishinomiyaAshiya",
                  "nameZh": "尼崎西宫芦屋港",
                  "city": "AmagasakiNishinomiyaAshiya",
                  "lat": 34.7167,
                  "lng": 135.4167,
                  "intl": true
                },
                {
                  "code": "JPHBK",
                  "name": "Hibikishinko",
                  "nameZh": "響新港",
                  "city": "Hibikishinko",
                  "lat": 33.9833,
                  "lng": 130.75,
                  "intl": true
                },
                {
                  "code": "JPICW",
                  "name": "Ishikariwan Shinko",
                  "nameZh": "石狩湾新港",
                  "city": "Ishikariwan Shinko",
                  "lat": 43.35,
                  "lng": 141.5,
                  "intl": true
                },
                {
                  "code": "JPSHJ",
                  "name": "Shinko",
                  "nameZh": "新港",
                  "city": "Shinko",
                  "lat": 36.5667,
                  "lng": 138.0667,
                  "intl": true
                }
              ]
            },
            "KR": {
              "code": "KR",
              "name": "韩国",
              "nameEn": "South Korea",
              "totalPorts": 5,
              "ports": [
                {
                  "code": "KRPUS",
                  "name": "Busan",
                  "nameZh": "釜山港",
                  "city": "Busan",
                  "lat": 35.08,
                  "lng": 129.04,
                  "intl": true
                },
                {
                  "code": "KRBNP",
                  "name": "Busan New Port",
                  "nameZh": "釜山新港",
                  "city": "Busan New Port",
                  "lat": 35.0833,
                  "lng": 128.8167,
                  "intl": true
                },
                {
                  "code": "KRINC",
                  "name": "Incheon",
                  "nameZh": "仁川港",
                  "city": "Incheon",
                  "lat": 37.45,
                  "lng": 126.6167,
                  "intl": true
                },
                {
                  "code": "KRPTK",
                  "name": "Pyeongtaek",
                  "nameZh": "平泽唐津港",
                  "city": "Pyeongtaek",
                  "lat": 36.9667,
                  "lng": 127.1,
                  "intl": true
                },
                {
                  "code": "KRSHG",
                  "name": "Sinhang/Pohang",
                  "nameZh": "新港/浦项",
                  "city": "Sinhang/Pohang",
                  "lat": 36.0833,
                  "lng": 129.55,
                  "intl": true
                }
              ]
            }
          }
        },
        "SEA": {
          "code": "SEA",
          "name": "东南亚",
          "nameEn": "Southeast Asia",
          "totalPorts": 85,
          "countries": {
            "VN": {
              "code": "VN",
              "name": "越南",
              "nameEn": "Vietnam",
              "totalPorts": 45,
              "ports": [
                {
                  "code": "VNSGN",
                  "name": "Ho Chi Minh City",
                  "nameZh": "西贡港",
                  "city": "Ho Chi Minh City",
                  "lat": 10.7667,
                  "lng": 106.6667,
                  "intl": true
                },
                {
                  "code": "VNDAD",
                  "name": "Da Nang",
                  "nameZh": "岘港",
                  "city": "Da Nang",
                  "lat": 16.0667,
                  "lng": 108.2167,
                  "intl": true
                },
                {
                  "code": "VNBCD",
                  "name": "Ben Dam Con Dao Terminals",
                  "nameZh": "贝盾岛集装箱码头",
                  "city": "Ben Dam Con Dao Terminals",
                  "lat": 8.65,
                  "lng": 106.55,
                  "intl": true
                },
                {
                  "code": "VNBDG",
                  "name": "Binh Duong Terminal",
                  "nameZh": "平阳码头",
                  "city": "Binh Duong Terminal",
                  "lat": 10.9,
                  "lng": 106.8333,
                  "intl": true
                },
                {
                  "code": "VNBLG",
                  "name": "Binh Long Port",
                  "nameZh": "平隆港",
                  "city": "Binh Long Port",
                  "lat": 10.5667,
                  "lng": 105.25,
                  "intl": true
                },
                {
                  "code": "VNCMT",
                  "name": "Cai Mep International Terminal",
                  "nameZh": "凯梅普国际码头",
                  "city": "Cai Mep International Terminal",
                  "lat": 10.5167,
                  "lng": 107,
                  "intl": true
                },
                {
                  "code": "VNCCA",
                  "name": "Cua Cam Terminal",
                  "nameZh": "芽康码头",
                  "city": "Cua Cam Terminal",
                  "lat": 20.8667,
                  "lng": 106.6833,
                  "intl": false
                },
                {
                  "code": "VNCCU",
                  "name": "Cai Cui Port",
                  "nameZh": "凯奎港",
                  "city": "Cai Cui Port",
                  "lat": 9.9833,
                  "lng": 106.5,
                  "intl": false
                },
                {
                  "code": "VNCMY",
                  "name": "Chan May Port",
                  "nameZh": "沾美港",
                  "city": "Chan May Port",
                  "lat": 16.3333,
                  "lng": 108,
                  "intl": false
                },
                {
                  "code": "VNCSG",
                  "name": "Sai Gon Port",
                  "nameZh": "胡志明港",
                  "city": "Sai Gon Port",
                  "lat": 10.8333,
                  "lng": 106.75,
                  "intl": false
                },
                {
                  "code": "VNCUV",
                  "name": "Cua Viet Port",
                  "nameZh": "高飞港",
                  "city": "Cua Viet Port",
                  "lat": 16.9,
                  "lng": 107.1667,
                  "intl": false
                },
                {
                  "code": "VNCVE",
                  "name": "Chua Ve Terminal",
                  "nameZh": "珠海港",
                  "city": "Chua Ve Terminal",
                  "lat": 20.8667,
                  "lng": 106.7,
                  "intl": false
                },
                {
                  "code": "VNDMO",
                  "name": "Dam Mon",
                  "nameZh": "东海港",
                  "city": "Dam Mon",
                  "lat": 12.6667,
                  "lng": 109.4,
                  "intl": false
                },
                {
                  "code": "VNDTH",
                  "name": "Dong Thap",
                  "nameZh": "天沙码头",
                  "city": "Dong Thap",
                  "lat": 10.4833,
                  "lng": 105.5667,
                  "intl": false
                },
                {
                  "code": "VNDTS",
                  "name": "Tien Sa Terminal",
                  "nameZh": "定武码头",
                  "city": "Tien Sa Terminal",
                  "lat": 16.1167,
                  "lng": 108.2,
                  "intl": false
                },
                {
                  "code": "VNDVU",
                  "name": "Dinh Vu Terminal",
                  "nameZh": "端社码头",
                  "city": "Dinh Vu Terminal",
                  "lat": 20.9,
                  "lng": 106.7667,
                  "intl": false
                },
                {
                  "code": "VNDXA",
                  "name": "Doan Xa Terminal",
                  "nameZh": "东川港",
                  "city": "Doan Xa Terminal",
                  "lat": 20.8667,
                  "lng": 106.6833,
                  "intl": false
                },
                {
                  "code": "VNDXN",
                  "name": "Dong Xuyen Port",
                  "nameZh": "",
                  "city": "Dong Xuyen Port",
                  "lat": 10.4,
                  "lng": 107.1,
                  "intl": false
                },
                {
                  "code": "VNGDA",
                  "name": "Go Dau A Terminal",
                  "nameZh": "谷陶A码头",
                  "city": "Go Dau A Terminal",
                  "lat": 10.65,
                  "lng": 107.0167,
                  "intl": false
                },
                {
                  "code": "VNGDB",
                  "name": "Go Dau B Terminal",
                  "nameZh": "谷陶B码头",
                  "city": "Go Dau B Terminal",
                  "lat": 10.6167,
                  "lng": 107.0167,
                  "intl": false
                },
                {
                  "code": "VNHLP",
                  "name": "Hon La Port",
                  "nameZh": "洪拉港",
                  "city": "Hon La Port",
                  "lat": 17.9333,
                  "lng": 106.5167,
                  "intl": false
                },
                {
                  "code": "VNHPP",
                  "name": "Tan Cang Hiep Phuoc Port",
                  "nameZh": "新港协福港",
                  "city": "Tan Cang Hiep Phuoc Port",
                  "lat": 10.6333,
                  "lng": 106.7167,
                  "intl": false
                },
                {
                  "code": "VNKYH",
                  "name": "Ky Ha Terminal",
                  "nameZh": "奇哈码头",
                  "city": "Ky Ha Terminal",
                  "lat": 15.4833,
                  "lng": 108.6833,
                  "intl": false
                },
                {
                  "code": "VNKYQ",
                  "name": "Ky Ha Quang Nam Terminal",
                  "nameZh": "奇哈广南码头",
                  "city": "Ky Ha Quang Nam Terminal",
                  "lat": 15.4667,
                  "lng": 108.6833,
                  "intl": false
                },
                {
                  "code": "VNLAP",
                  "name": "Long An International Port",
                  "nameZh": "龙安国际港",
                  "city": "Long An International Port",
                  "lat": 10.5333,
                  "lng": 106.7333,
                  "intl": false
                },
                {
                  "code": "VNLMP",
                  "name": "Vietnam Lee & Man Port",
                  "nameZh": "越南利文港",
                  "city": "Vietnam Lee & Man Port",
                  "lat": 28.3,
                  "lng": 103.8333,
                  "intl": false
                },
                {
                  "code": "VNLPO",
                  "name": "Lotus Port",
                  "nameZh": "莲花港",
                  "city": "Lotus Port",
                  "lat": 10.7333,
                  "lng": 106.7333,
                  "intl": false
                },
                {
                  "code": "VNNCN",
                  "name": "Nam Can Port",
                  "nameZh": "南灿港",
                  "city": "Nam Can Port",
                  "lat": 8.8167,
                  "lng": 105.0167,
                  "intl": false
                },
                {
                  "code": "VNNHD",
                  "name": "Nam Hai Dinh Vu Port",
                  "nameZh": "南海定武港",
                  "city": "Nam Hai Dinh Vu Port",
                  "lat": 20.8167,
                  "lng": 106.85,
                  "intl": false
                },
                {
                  "code": "VNNVT",
                  "name": "Nguyen Van Troi Port",
                  "nameZh": "阮文彩港",
                  "city": "Nguyen Van Troi Port",
                  "lat": 16.05,
                  "lng": 108.2167,
                  "intl": false
                },
                {
                  "code": "VNOCL",
                  "name": "Cat Lai Oil Port",
                  "nameZh": "吉莱油港",
                  "city": "Cat Lai Oil Port",
                  "lat": 10.7333,
                  "lng": 106.7667,
                  "intl": false
                },
                {
                  "code": "VNONB",
                  "name": "Nha Be Oil Port",
                  "nameZh": "涅背油港",
                  "city": "Nha Be Oil Port",
                  "lat": 10.7,
                  "lng": 106.7333,
                  "intl": false
                },
                {
                  "code": "VNOSP",
                  "name": "Saigon Petro Oil Terminal",
                  "nameZh": "西贡石油码头",
                  "city": "Saigon Petro Oil Terminal",
                  "lat": 10.75,
                  "lng": 106.7833,
                  "intl": false
                },
                {
                  "code": "VNOTW",
                  "name": "B12 Oil Terminal",
                  "nameZh": "B12石油码头",
                  "city": "B12 Oil Terminal",
                  "lat": 20.95,
                  "lng": 103.05,
                  "intl": false
                },
                {
                  "code": "VNQNT",
                  "name": "Tan Cang Qui Nhon",
                  "nameZh": "新港昆仑",
                  "city": "Tan Cang Qui Nhon",
                  "lat": 13.7667,
                  "lng": 109.8333,
                  "intl": false
                },
                {
                  "code": "VNSDP",
                  "name": "Son Duong Port",
                  "nameZh": "松阳港",
                  "city": "Son Duong Port",
                  "lat": 18.1,
                  "lng": 106.45,
                  "intl": false
                },
                {
                  "code": "VNSPC",
                  "name": "Hiep Phuoc Port",
                  "nameZh": "协福港",
                  "city": "Hiep Phuoc Port",
                  "lat": 10.6333,
                  "lng": 106.75,
                  "intl": false
                },
                {
                  "code": "VNTMT",
                  "name": "Tan Cang - Mien Trung Terminal",
                  "nameZh": "新港-中部码头",
                  "city": "Tan Cang - Mien Trung Terminal",
                  "lat": 13.7667,
                  "lng": 109.2333,
                  "intl": false
                },
                {
                  "code": "VNTNA",
                  "name": "Thi Nai Port",
                  "nameZh": "湄乃港",
                  "city": "Thi Nai Port",
                  "lat": 13.7667,
                  "lng": 109.25,
                  "intl": false
                },
                {
                  "code": "VNTOT",
                  "name": "Cai Mep",
                  "nameZh": "蔡美港",
                  "city": "Cai Mep",
                  "lat": 10.3833,
                  "lng": 107.0833,
                  "intl": false
                },
                {
                  "code": "VNTPP",
                  "name": "Thanh Phuoc Port",
                  "nameZh": "清福港",
                  "city": "Thanh Phuoc Port",
                  "lat": 11.0667,
                  "lng": 106.8,
                  "intl": false
                },
                {
                  "code": "VNTVN",
                  "name": "Transvina Terminal",
                  "nameZh": "Transvina码头",
                  "city": "Transvina Terminal",
                  "lat": 20.8667,
                  "lng": 106.6833,
                  "intl": false
                },
                {
                  "code": "VNUIH",
                  "name": "Qui Nhon",
                  "nameZh": "岘港",
                  "city": "Qui Nhon",
                  "lat": 13.7667,
                  "lng": 109.2167,
                  "intl": false
                },
                {
                  "code": "VNVAG",
                  "name": "Vung Áng",
                  "nameZh": "武安港",
                  "city": "Vung Áng",
                  "lat": 18.0667,
                  "lng": 106.4333,
                  "intl": false
                },
                {
                  "code": "VNVHG",
                  "name": "Vinalines Hau Giang Port",
                  "nameZh": "越南海江港",
                  "city": "Vinalines Hau Giang Port",
                  "lat": 9.15,
                  "lng": 105.1333,
                  "intl": false
                }
              ]
            },
            "ID": {
              "code": "ID",
              "name": "印度尼西亚",
              "nameEn": "Indonesia",
              "totalPorts": 18,
              "ports": [
                {
                  "code": "IDSUB",
                  "name": "Surabaya",
                  "nameZh": "丹戎佩拉港",
                  "city": "Surabaya",
                  "lat": -7.2333,
                  "lng": 112.75,
                  "intl": true
                },
                {
                  "code": "IDANO",
                  "name": "Anoa Natuna Pt.",
                  "nameZh": "安哥尔",
                  "city": "Anoa Natuna Pt.",
                  "lat": 5.2333,
                  "lng": 105.6,
                  "intl": false
                },
                {
                  "code": "IDANR",
                  "name": "Anyer Kidul",
                  "nameZh": "安诺阿纳图纳港",
                  "city": "Anyer Kidul",
                  "lat": -6.0667,
                  "lng": 105.8833,
                  "intl": false
                },
                {
                  "code": "IDBET",
                  "name": "Belida Terminal",
                  "nameZh": "贝内特",
                  "city": "Belida Terminal",
                  "lat": 4.1333,
                  "lng": 105.1333,
                  "intl": false
                },
                {
                  "code": "IDBGD",
                  "name": "Bagendang",
                  "nameZh": "贝利达码头",
                  "city": "Bagendang",
                  "lat": -2.7333,
                  "lng": 112.55,
                  "intl": false
                },
                {
                  "code": "IDBNT",
                  "name": "Belanak Terminal",
                  "nameZh": "勿里洞",
                  "city": "Belanak Terminal",
                  "lat": 4.1667,
                  "lng": 106.2333,
                  "intl": false
                },
                {
                  "code": "IDCTO",
                  "name": "New Priok Port",
                  "nameZh": "新普里奥克港",
                  "city": "New Priok Port",
                  "lat": -6.0833,
                  "lng": 106.9167,
                  "intl": false
                },
                {
                  "code": "IDFTG",
                  "name": "Pelabuhan Futong Terminal",
                  "nameZh": "富通码头",
                  "city": "Pelabuhan Futong Terminal",
                  "lat": 0.8167,
                  "lng": 102.4,
                  "intl": false
                },
                {
                  "code": "IDJBT",
                  "name": "Jabung Terminal",
                  "nameZh": "贾邦码头",
                  "city": "Jabung Terminal",
                  "lat": -0.8833,
                  "lng": 104.0667,
                  "intl": false
                },
                {
                  "code": "IDJIP",
                  "name": "Jogja Inland Port",
                  "nameZh": "日惹内陆港",
                  "city": "Jogja Inland Port",
                  "lat": -7.9,
                  "lng": 110.3833,
                  "intl": false
                },
                {
                  "code": "IDJOR",
                  "name": "Jorong Anchorage",
                  "nameZh": "佐隆锚地",
                  "city": "Jorong Anchorage",
                  "lat": -4.1833,
                  "lng": 115.1,
                  "intl": false
                },
                {
                  "code": "IDKNT",
                  "name": "Kakap Natuna Terminal",
                  "nameZh": "卡卡普那图纳码头",
                  "city": "Kakap Natuna Terminal",
                  "lat": 5.0167,
                  "lng": 105.95,
                  "intl": false
                },
                {
                  "code": "IDMDR",
                  "name": "Madura Terminal",
                  "nameZh": "莫罗瓦利",
                  "city": "Madura Terminal",
                  "lat": -6.85,
                  "lng": 112.95,
                  "intl": false
                },
                {
                  "code": "IDMIT",
                  "name": "Misool Terminal",
                  "nameZh": "沙巴克河口",
                  "city": "Misool Terminal",
                  "lat": -1.5667,
                  "lng": 130.5167,
                  "intl": false
                },
                {
                  "code": "IDMSK",
                  "name": "Muara Sabak",
                  "nameZh": "巴达斯港",
                  "city": "Muara Sabak",
                  "lat": -0.8,
                  "lng": 103.9167,
                  "intl": false
                },
                {
                  "code": "IDSEP",
                  "name": "Sepanjang Terminal",
                  "nameZh": "苏阿兰",
                  "city": "Sepanjang Terminal",
                  "lat": -7.1833,
                  "lng": 115.7833,
                  "intl": false
                },
                {
                  "code": "IDSWT",
                  "name": "Salawati Terminal",
                  "nameZh": "",
                  "city": "Salawati Terminal",
                  "lat": -1.35,
                  "lng": 131,
                  "intl": false
                },
                {
                  "code": "IDUDG",
                  "name": "Udang Natuna Terminal",
                  "nameZh": "乌当那图纳港",
                  "city": "Udang Natuna Terminal",
                  "lat": 4.0167,
                  "lng": 106.4667,
                  "intl": false
                }
              ]
            },
            "TH": {
              "code": "TH",
              "name": "泰国",
              "nameEn": "Thailand",
              "totalPorts": 11,
              "ports": [
                {
                  "code": "THBMT",
                  "name": "Bangkok Modern Terminals/Bangkok",
                  "nameZh": "曼谷现代码头/曼谷",
                  "city": "Bangkok Modern Terminals/Bangkok",
                  "lat": 13.6,
                  "lng": 100.5833,
                  "intl": true
                },
                {
                  "code": "THSBP",
                  "name": "Siam Bangkok Port",
                  "nameZh": "暹罗曼谷港",
                  "city": "Siam Bangkok Port",
                  "lat": 13.65,
                  "lng": 100.55,
                  "intl": true
                },
                {
                  "code": "THPKT",
                  "name": "Phuket Port",
                  "nameZh": "普吉港",
                  "city": "Phuket Port",
                  "lat": 7.8167,
                  "lng": 98.4,
                  "intl": true
                },
                {
                  "code": "THBTC",
                  "name": "Bangpakong Terminal",
                  "nameZh": "邦帕空码头",
                  "city": "Bangpakong Terminal",
                  "lat": 13.4667,
                  "lng": 100.9833,
                  "intl": true
                },
                {
                  "code": "THECT",
                  "name": "Ekachai Container Terminal",
                  "nameZh": "伊卡翠集装箱码头",
                  "city": "Ekachai Container Terminal",
                  "lat": 13.5833,
                  "lng": 100.3167,
                  "intl": true
                },
                {
                  "code": "THI6C",
                  "name": "T S Transport and Logistics",
                  "nameZh": "T S运输与物流",
                  "city": "T S Transport and Logistics",
                  "lat": 13.65,
                  "lng": 100.5667,
                  "intl": false
                },
                {
                  "code": "THNIM",
                  "name": "Nim Port",
                  "nameZh": "尼姆港",
                  "city": "Nim Port",
                  "lat": 13.6,
                  "lng": 100.5667,
                  "intl": false
                },
                {
                  "code": "THPPC",
                  "name": "Prachuap Port",
                  "nameZh": "巴脱港",
                  "city": "Prachuap Port",
                  "lat": 11.2,
                  "lng": 99.5833,
                  "intl": false
                },
                {
                  "code": "THSCS",
                  "name": "Sahathai Coastal Seaport",
                  "nameZh": "萨哈泰沿海港口",
                  "city": "Sahathai Coastal Seaport",
                  "lat": 13.65,
                  "lng": 100.5333,
                  "intl": false
                },
                {
                  "code": "THTPP",
                  "name": "Tungprong Pt",
                  "nameZh": "东普隆港",
                  "city": "Tungprong Pt",
                  "lat": 12.7,
                  "lng": 100.8333,
                  "intl": false
                },
                {
                  "code": "THUCT",
                  "name": "Unithai Container Terminal",
                  "nameZh": "优尼泰集装箱码头",
                  "city": "Unithai Container Terminal",
                  "lat": 13.5833,
                  "lng": 100.5833,
                  "intl": false
                }
              ]
            },
            "MY": {
              "code": "MY",
              "name": "马来西亚",
              "nameEn": "Malaysia",
              "totalPorts": 6,
              "ports": [
                {
                  "code": "MYPKG",
                  "name": "Port Klang (Pelabuhan Klang)",
                  "nameZh": "巴生港",
                  "city": "Port Klang (Pelabuhan Klang)",
                  "lat": 3,
                  "lng": 101.4,
                  "intl": true
                },
                {
                  "code": "MYTPP",
                  "name": "Tanjung Pelepas",
                  "nameZh": "亚丹戎帕拉帕斯港",
                  "city": "Tanjung Pelepas",
                  "lat": 1.3667,
                  "lng": 103.55,
                  "intl": true
                },
                {
                  "code": "MYMUD",
                  "name": "Muda Marine Terminal",
                  "nameZh": "穆达海洋码头",
                  "city": "Muda Marine Terminal",
                  "lat": 7.5833,
                  "lng": 102.9833,
                  "intl": false
                },
                {
                  "code": "MYPMT",
                  "name": "Penara Marine Terminal",
                  "nameZh": "佩纳拉海洋码头",
                  "city": "Penara Marine Terminal",
                  "lat": 6.1167,
                  "lng": 105.0167,
                  "intl": false
                },
                {
                  "code": "MYSUP",
                  "name": "Sungai Udang Port",
                  "nameZh": "双溪乌当港",
                  "city": "Sungai Udang Port",
                  "lat": 2.25,
                  "lng": 102.1333,
                  "intl": false
                },
                {
                  "code": "MYXPQ",
                  "name": "Port Klang (Ferry Port)",
                  "nameZh": "巴生港（渡轮港）",
                  "city": "Port Klang (Ferry Port)",
                  "lat": 3.0167,
                  "lng": 101.3667,
                  "intl": false
                }
              ]
            },
            "PH": {
              "code": "PH",
              "name": "菲律宾",
              "nameEn": "Philippines",
              "totalPorts": 3,
              "ports": [
                {
                  "code": "PHENI",
                  "name": "El Nido/Puerto Princesa",
                  "nameZh": "埃尔尼多/普林塞萨港",
                  "city": "El Nido/Puerto Princesa",
                  "lat": 11.1833,
                  "lng": 119.4,
                  "intl": false
                },
                {
                  "code": "PHIRN",
                  "name": "Port Irene",
                  "nameZh": "伊雷内港",
                  "city": "Port Irene",
                  "lat": 18.3667,
                  "lng": 122.1,
                  "intl": false
                },
                {
                  "code": "PHPGA",
                  "name": "Puerto Galera",
                  "nameZh": "加莱拉港",
                  "city": "Puerto Galera",
                  "lat": 13.5,
                  "lng": 120.9333,
                  "intl": false
                }
              ]
            },
            "SG": {
              "code": "SG",
              "name": "新加坡",
              "nameEn": "Singapore",
              "totalPorts": 2,
              "ports": [
                {
                  "code": "SGPAP",
                  "name": "Pasir Panjang Wharves",
                  "nameZh": "巴西班让码头",
                  "city": "Pasir Panjang Wharves",
                  "lat": 1.2667,
                  "lng": 103.7833,
                  "intl": true
                },
                {
                  "code": "SGPPT",
                  "name": "PASIR PANJANG Terminal",
                  "nameZh": "巴西班让码头",
                  "city": "PASIR PANJANG Terminal",
                  "lat": 1.2833,
                  "lng": 103.7667,
                  "intl": true
                }
              ]
            }
          }
        },
        "SA": {
          "code": "SA",
          "name": "南亚",
          "nameEn": "South Asia",
          "totalPorts": 19,
          "countries": {
            "IN": {
              "code": "IN",
              "name": "印度",
              "nameEn": "India",
              "totalPorts": 9,
              "ports": [
                {
                  "code": "INPAV",
                  "name": "Pipavav (Victor) Port",
                  "nameZh": "皮帕瓦夫港",
                  "city": "Pipavav (Victor) Port",
                  "lat": 20.9667,
                  "lng": 71.55,
                  "intl": true
                },
                {
                  "code": "INCCU",
                  "name": "Kolkata (ex Calcutta)",
                  "nameZh": "加尔各答港",
                  "city": "Kolkata (ex Calcutta)",
                  "lat": 22.5667,
                  "lng": 88.35,
                  "intl": true
                },
                {
                  "code": "INDMQ",
                  "name": "Dhamra Port",
                  "nameZh": "达姆拉港",
                  "city": "Dhamra Port",
                  "lat": 20.8167,
                  "lng": 86.95,
                  "intl": false
                },
                {
                  "code": "INHZA",
                  "name": "Hazira Port/Surat",
                  "nameZh": "苏拉特港/苏拉特",
                  "city": "Hazira Port/Surat",
                  "lat": 21.0833,
                  "lng": 72.6167,
                  "intl": false
                },
                {
                  "code": "INKTP",
                  "name": "Kattupalli Port",
                  "nameZh": "卡图帕利港",
                  "city": "Kattupalli Port",
                  "lat": 13.3,
                  "lng": 80.3833,
                  "intl": false
                },
                {
                  "code": "INMRM",
                  "name": "Marmagao (Marmugao)",
                  "nameZh": "马穆高港",
                  "city": "Marmagao (Marmugao)",
                  "lat": 15.4,
                  "lng": 73.7833,
                  "intl": false
                },
                {
                  "code": "INMRM",
                  "name": "Marmugao (Marmagao)",
                  "nameZh": "马穆高港",
                  "city": "Marmugao (Marmagao)",
                  "lat": 15.4,
                  "lng": 73.7833,
                  "intl": false
                },
                {
                  "code": "INPPT",
                  "name": "Paradip Port",
                  "nameZh": "帕拉迪普港",
                  "city": "Paradip Port",
                  "lat": 20.25,
                  "lng": 86.5833,
                  "intl": false
                },
                {
                  "code": "INPPV",
                  "name": "Port Pipavav",
                  "nameZh": "皮帕瓦夫港",
                  "city": "Port Pipavav",
                  "lat": 20.9333,
                  "lng": 71.5167,
                  "intl": false
                }
              ]
            },
            "MV": {
              "code": "MV",
              "name": "马尔代夫",
              "nameEn": "Maldives",
              "totalPorts": 6,
              "ports": [
                {
                  "code": "MVCPP",
                  "name": "Coastline Private Port",
                  "nameZh": "海岸线私人港口",
                  "city": "Coastline Private Port",
                  "lat": 4.1667,
                  "lng": 73.45,
                  "intl": false
                },
                {
                  "code": "MVHTP",
                  "name": "Hithadhoo Port",
                  "nameZh": "希塔杜港",
                  "city": "Hithadhoo Port",
                  "lat": -0.6333,
                  "lng": 73.1,
                  "intl": false
                },
                {
                  "code": "MVKDP",
                  "name": "Kulhudhuffushi Port",
                  "nameZh": "库尔胡杜富什港",
                  "city": "Kulhudhuffushi Port",
                  "lat": 6.6167,
                  "lng": 73.0667,
                  "intl": false
                },
                {
                  "code": "MVKFP",
                  "name": "Koodoo Fisheries",
                  "nameZh": "库杜渔港",
                  "city": "Koodoo Fisheries",
                  "lat": 0.7333,
                  "lng": 73.4333,
                  "intl": false
                },
                {
                  "code": "MVMCP",
                  "name": "Male' Commercial Harbor",
                  "nameZh": "马累商业港",
                  "city": "Male' Commercial Harbor",
                  "lat": 4.1667,
                  "lng": 73.5,
                  "intl": false
                },
                {
                  "code": "MVMMP",
                  "name": "Maamigili Port",
                  "nameZh": "马米吉利港",
                  "city": "Maamigili Port",
                  "lat": 3.4667,
                  "lng": 72.8333,
                  "intl": false
                }
              ]
            },
            "BD": {
              "code": "BD",
              "name": "孟加拉国",
              "nameEn": "Bangladesh",
              "totalPorts": 2,
              "ports": [
                {
                  "code": "BDCGP",
                  "name": "Chattogram",
                  "nameZh": "吉大港",
                  "city": "Chattogram",
                  "lat": 22.3333,
                  "lng": 91.8333,
                  "intl": true
                },
                {
                  "code": "BDPAY",
                  "name": "Payra Port",
                  "nameZh": "派拉港",
                  "city": "Payra Port",
                  "lat": 21.9333,
                  "lng": 90.2667,
                  "intl": false
                }
              ]
            },
            "PK": {
              "code": "PK",
              "name": "巴基斯坦",
              "nameEn": "Pakistan",
              "totalPorts": 2,
              "ports": [
                {
                  "code": "PKBQM",
                  "name": "Muhammad Bin Qasim/Karachi",
                  "nameZh": "卡西姆港",
                  "city": "Muhammad Bin Qasim/Karachi",
                  "lat": 24.7667,
                  "lng": 67.3333,
                  "intl": false
                },
                {
                  "code": "PKKCT",
                  "name": "Karachi Container Terminal",
                  "nameZh": "KARACHI",
                  "city": "Karachi Container Terminal",
                  "lat": 24.8333,
                  "lng": 66.9667,
                  "intl": false
                }
              ]
            }
          }
        },
        "WA": {
          "code": "WA",
          "name": "西亚/中东",
          "nameEn": "West Asia / Middle East",
          "totalPorts": 55,
          "countries": {
            "IR": {
              "code": "IR",
              "name": "伊朗",
              "nameEn": "Iran",
              "totalPorts": 14,
              "ports": [
                {
                  "code": "IRBND",
                  "name": "Bandar Abbas",
                  "nameZh": "阿巴斯港",
                  "city": "Bandar Abbas",
                  "lat": 27.1833,
                  "lng": 56.2667,
                  "intl": true
                },
                {
                  "code": "IRAMD",
                  "name": "Bandar Amirabad",
                  "nameZh": "阿米拉巴德港",
                  "city": "Bandar Amirabad",
                  "lat": 36.7833,
                  "lng": 53.35,
                  "intl": false
                },
                {
                  "code": "IRAMP",
                  "name": "Amir Abad Pt",
                  "nameZh": "阿米尔阿巴德港",
                  "city": "Amir Abad Pt",
                  "lat": 36.0833,
                  "lng": 52.3667,
                  "intl": false
                },
                {
                  "code": "IRBAZ",
                  "name": "Bandar-e Anzali",
                  "nameZh": "安扎利港",
                  "city": "Bandar-e Anzali",
                  "lat": 37.4667,
                  "lng": 49.4667,
                  "intl": false
                },
                {
                  "code": "IRBKK",
                  "name": "Bandar-e Emam Khomeyni",
                  "nameZh": "侯赛因港",
                  "city": "Bandar-e Emam Khomeyni",
                  "lat": 30.4333,
                  "lng": 49.1,
                  "intl": false
                },
                {
                  "code": "IRBKM",
                  "name": "Bandar Khomeini",
                  "nameZh": "侯赛因港",
                  "city": "Bandar Khomeini",
                  "lat": 30.4333,
                  "lng": 49.1,
                  "intl": false
                },
                {
                  "code": "IRBMR",
                  "name": "Bandar Mashur",
                  "nameZh": "马舒尔港",
                  "city": "Bandar Mashur",
                  "lat": 30.55,
                  "lng": 49.1833,
                  "intl": false
                },
                {
                  "code": "IRBPA",
                  "name": "Bandare Parsian",
                  "nameZh": "巴尔西安港",
                  "city": "Bandare Parsian",
                  "lat": 27.1667,
                  "lng": 52.9,
                  "intl": false
                },
                {
                  "code": "IRBRG",
                  "name": "Bandar-e Gaz",
                  "nameZh": "加兹港",
                  "city": "Bandar-e Gaz",
                  "lat": 36.7833,
                  "lng": 53.95,
                  "intl": false
                },
                {
                  "code": "IRCYT",
                  "name": "Soroosh (Cyrus) Terminal",
                  "nameZh": "索鲁什（赛勒斯）码头",
                  "city": "Soroosh (Cyrus) Terminal",
                  "lat": 29.0333,
                  "lng": 49.4667,
                  "intl": false
                },
                {
                  "code": "IRMRX",
                  "name": "Bandar-e Måh Shahr",
                  "nameZh": "马沙尔港",
                  "city": "Bandar-e Måh Shahr",
                  "lat": 30.5333,
                  "lng": 49.1667,
                  "intl": false
                },
                {
                  "code": "IRNEK",
                  "name": "Bandar Neka",
                  "nameZh": "内卡港",
                  "city": "Bandar Neka",
                  "lat": 36.8667,
                  "lng": 53.5333,
                  "intl": false
                },
                {
                  "code": "IRSRA",
                  "name": "Sarooj Anchorage",
                  "nameZh": "萨鲁吉锚地",
                  "city": "Sarooj Anchorage",
                  "lat": 27.7333,
                  "lng": 52.15,
                  "intl": false
                },
                {
                  "code": "IRSRP",
                  "name": "Shahid Rajaee Pt/Bandar Abbas",
                  "nameZh": "沙希德·拉贾伊港/阿巴斯港",
                  "city": "Shahid Rajaee Pt/Bandar Abbas",
                  "lat": 27.1167,
                  "lng": 56.0667,
                  "intl": false
                }
              ]
            },
            "AE": {
              "code": "AE",
              "name": "阿联酋",
              "nameEn": "United Arab Emirates",
              "totalPorts": 13,
              "ports": [
                {
                  "code": "AEAJP",
                  "name": "Al Jeer Port",
                  "nameZh": "艾杰尔港",
                  "city": "Al Jeer Port",
                  "lat": 26.0333,
                  "lng": 56.05,
                  "intl": false
                },
                {
                  "code": "AEARP",
                  "name": "Ahmed Bin Rashid Port",
                  "nameZh": "艾哈迈德·本·拉希德港",
                  "city": "Ahmed Bin Rashid Port",
                  "lat": 25.5333,
                  "lng": 55.55,
                  "intl": false
                },
                {
                  "code": "AEFRP",
                  "name": "Free Port",
                  "nameZh": "自由港",
                  "city": "Free Port",
                  "lat": 25.25,
                  "lng": 55.25,
                  "intl": false
                },
                {
                  "code": "AEHTL",
                  "name": "Hulaylah Terminal",
                  "nameZh": "胡莱拉码头",
                  "city": "Hulaylah Terminal",
                  "lat": 25.9833,
                  "lng": 55.9333,
                  "intl": false
                },
                {
                  "code": "AEHZP",
                  "name": "Hamriya Free Zone Port",
                  "nameZh": "哈姆里亚自由区港",
                  "city": "Hamriya Free Zone Port",
                  "lat": 25.3,
                  "lng": 55.3167,
                  "intl": false
                },
                {
                  "code": "AEJAZ",
                  "name": "Al Jazeera Port",
                  "nameZh": "半岛港",
                  "city": "Al Jazeera Port",
                  "lat": 25.7167,
                  "lng": 55.8,
                  "intl": false
                },
                {
                  "code": "AEKHL",
                  "name": "Mina Khalifa/Abu Dhabi",
                  "nameZh": "哈利法港/阿布扎比",
                  "city": "Mina Khalifa/Abu Dhabi",
                  "lat": 24.8333,
                  "lng": 54.6667,
                  "intl": false
                },
                {
                  "code": "AEMKH",
                  "name": "Mina Khalid",
                  "nameZh": "哈利德港",
                  "city": "Mina Khalid",
                  "lat": 25.35,
                  "lng": 55.3667,
                  "intl": false
                },
                {
                  "code": "AEMRP",
                  "name": "Mina Rashid Port",
                  "nameZh": "拉希德港",
                  "city": "Mina Rashid Port",
                  "lat": 25.2667,
                  "lng": 55.2833,
                  "intl": false
                },
                {
                  "code": "AEMSA",
                  "name": "Mina Saqr",
                  "nameZh": "萨克尔港",
                  "city": "Mina Saqr",
                  "lat": 25.9667,
                  "lng": 56.0667,
                  "intl": false
                },
                {
                  "code": "AEMZD",
                  "name": "Mina Zayed/Abu Dhabi",
                  "nameZh": "扎耶德港/阿布扎比",
                  "city": "Mina Zayed/Abu Dhabi",
                  "lat": 24.5167,
                  "lng": 54.3667,
                  "intl": false
                },
                {
                  "code": "AERKP",
                  "name": "Rak Khor Port",
                  "nameZh": "拉克科尔港",
                  "city": "Rak Khor Port",
                  "lat": 25.8167,
                  "lng": 55.95,
                  "intl": false
                },
                {
                  "code": "AERWP",
                  "name": "Ruwais Port",
                  "nameZh": "鲁瓦伊斯港",
                  "city": "Ruwais Port",
                  "lat": 24.1,
                  "lng": 52.7167,
                  "intl": false
                }
              ]
            },
            "TR": {
              "code": "TR",
              "name": "土耳其",
              "nameEn": "Turkey",
              "totalPorts": 9,
              "ports": [
                {
                  "code": "TRAUT",
                  "name": "Yeniköy-Autoport",
                  "nameZh": "耶尼科伊-汽车港",
                  "city": "Yeniköy-Autoport",
                  "lat": 40.7167,
                  "lng": 29.8667,
                  "intl": false
                },
                {
                  "code": "TREYP",
                  "name": "Evyap Port /Kocaeli",
                  "nameZh": "埃维亚普港/科贾埃利",
                  "city": "Evyap Port /Kocaeli",
                  "lat": 40.7667,
                  "lng": 29.7,
                  "intl": false
                },
                {
                  "code": "TRIDS",
                  "name": "Icdas Jetty",
                  "nameZh": "伊克达斯码头",
                  "city": "Icdas Jetty",
                  "lat": 40.45,
                  "lng": 27.3,
                  "intl": false
                },
                {
                  "code": "TRKMX",
                  "name": "Kumport",
                  "nameZh": "库姆波特",
                  "city": "Kumport",
                  "lat": 40.95,
                  "lng": 28.8167,
                  "intl": false
                },
                {
                  "code": "TRKSP",
                  "name": "Port of Karasu",
                  "nameZh": "卡拉苏港",
                  "city": "Port of Karasu",
                  "lat": 41.1167,
                  "lng": 30.6667,
                  "intl": false
                },
                {
                  "code": "TRMRM",
                  "name": "Marmaris",
                  "nameZh": "马尔马里斯港",
                  "city": "Marmaris",
                  "lat": 36.85,
                  "lng": 28.2667,
                  "intl": false
                },
                {
                  "code": "TRPLP",
                  "name": "Poliport",
                  "nameZh": "波利港",
                  "city": "Poliport",
                  "lat": 37.9833,
                  "lng": 42.05,
                  "intl": false
                },
                {
                  "code": "TRTGT",
                  "name": "Toros Gubre Terminal, Gubre",
                  "nameZh": "托罗斯肥料码头，肥料",
                  "city": "Toros Gubre Terminal, Gubre",
                  "lat": 36.9167,
                  "lng": 35.9833,
                  "intl": false
                },
                {
                  "code": "TRYPO",
                  "name": "Yilport",
                  "nameZh": "伊尔波特",
                  "city": "Yilport",
                  "lat": 40.7667,
                  "lng": 29.5333,
                  "intl": false
                }
              ]
            },
            "KW": {
              "code": "KW",
              "name": "科威特",
              "nameEn": "Kuwait",
              "totalPorts": 4,
              "ports": [
                {
                  "code": "KWMEA",
                  "name": "Mina' al Ahmadi",
                  "nameZh": "法赫迪港",
                  "city": "Mina' al Ahmadi",
                  "lat": 29.0667,
                  "lng": 48.15,
                  "intl": false
                },
                {
                  "code": "KWMIB",
                  "name": "Mina' 'Abd Allah",
                  "nameZh": "阿卜杜拉港",
                  "city": "Mina' 'Abd Allah",
                  "lat": 29.0167,
                  "lng": 48.1667,
                  "intl": false
                },
                {
                  "code": "KWMIS",
                  "name": "Mina Saud",
                  "nameZh": "索德港",
                  "city": "Mina Saud",
                  "lat": 28.7667,
                  "lng": 48.4667,
                  "intl": false
                },
                {
                  "code": "KWMZR",
                  "name": "Mina Al Zour",
                  "nameZh": "祖尔港",
                  "city": "Mina Al Zour",
                  "lat": 28.7167,
                  "lng": 48.4,
                  "intl": false
                }
              ]
            },
            "IL": {
              "code": "IL",
              "name": "以色列",
              "nameEn": "Israel",
              "totalPorts": 3,
              "ports": [
                {
                  "code": "ILAST",
                  "name": "Ashdod Southport",
                  "nameZh": "阿什杜德南港",
                  "city": "Ashdod Southport",
                  "lat": 31.8167,
                  "lng": 34.65,
                  "intl": false
                },
                {
                  "code": "ILHBT",
                  "name": "Haifa Bayport",
                  "nameZh": "海法湾港",
                  "city": "Haifa Bayport",
                  "lat": 32.8,
                  "lng": 34.9833,
                  "intl": false
                },
                {
                  "code": "ILMSP",
                  "name": "Haifa Israel Shipyards Port",
                  "nameZh": "海法以色列船厂港",
                  "city": "Haifa Israel Shipyards Port",
                  "lat": 32.8,
                  "lng": 34.9833,
                  "intl": false
                }
              ]
            },
            "OM": {
              "code": "OM",
              "name": "阿曼",
              "nameEn": "Oman",
              "totalPorts": 3,
              "ports": [
                {
                  "code": "OMMFH",
                  "name": "Mina' al Fahl",
                  "nameZh": "法赫勒港",
                  "city": "Mina' al Fahl",
                  "lat": 23.6333,
                  "lng": 58.5167,
                  "intl": false
                },
                {
                  "code": "OMSTQ",
                  "name": "Mina Sultan Qaboos, Muscat",
                  "nameZh": "马斯喀特苏丹卡卜斯港",
                  "city": "Mina Sultan Qaboos, Muscat",
                  "lat": 23.6167,
                  "lng": 58.55,
                  "intl": false
                },
                {
                  "code": "OMSUL",
                  "name": "Port Sultan",
                  "nameZh": "苏丹港",
                  "city": "Port Sultan",
                  "lat": 23.6167,
                  "lng": 58.6333,
                  "intl": false
                }
              ]
            },
            "SA": {
              "code": "SA",
              "name": "沙特阿拉伯",
              "nameEn": "Saudi Arabia",
              "totalPorts": 3,
              "ports": [
                {
                  "code": "SADHU",
                  "name": "Port of NEOM",
                  "nameZh": "NEOM港",
                  "city": "Port of NEOM",
                  "lat": 27.5667,
                  "lng": 34.55,
                  "intl": false
                },
                {
                  "code": "SAJUT",
                  "name": "Juaymah Terminal",
                  "nameZh": "朱艾马码头",
                  "city": "Juaymah Terminal",
                  "lat": 26.9167,
                  "lng": 50.0167,
                  "intl": false
                },
                {
                  "code": "SAJYC",
                  "name": "Jeddah Yachts Club Port",
                  "nameZh": "吉达游艇俱乐部港",
                  "city": "Jeddah Yachts Club Port",
                  "lat": 21.65,
                  "lng": 39.1,
                  "intl": false
                }
              ]
            },
            "BH": {
              "code": "BH",
              "name": "巴林",
              "nameEn": "Bahrain",
              "totalPorts": 2,
              "ports": [
                {
                  "code": "BHKBS",
                  "name": "Khalifa Bin Salman Port",
                  "nameZh": "哈利法·本·萨勒曼港",
                  "city": "Khalifa Bin Salman Port",
                  "lat": 26.2,
                  "lng": 50.6167,
                  "intl": false
                },
                {
                  "code": "BHMIN",
                  "name": "Mina Sulman Port",
                  "nameZh": "苏尔曼港",
                  "city": "Mina Sulman Port",
                  "lat": 26.2,
                  "lng": 50.6167,
                  "intl": false
                }
              ]
            },
            "IQ": {
              "code": "IQ",
              "name": "伊拉克",
              "nameEn": "Iraq",
              "totalPorts": 2,
              "ports": [
                {
                  "code": "IQMAB",
                  "name": "Basrah Oil Terminal",
                  "nameZh": "巴士拉石油码头",
                  "city": "Basrah Oil Terminal",
                  "lat": 29.75,
                  "lng": 48.8333,
                  "intl": false
                },
                {
                  "code": "IQUQR",
                  "name": "Umm Qasr Port",
                  "nameZh": "乌姆卡斯尔港",
                  "city": "Umm Qasr Port",
                  "lat": 30.0333,
                  "lng": 47.9333,
                  "intl": false
                }
              ]
            },
            "SY": {
              "code": "SY",
              "name": "叙利亚",
              "nameEn": "Syria",
              "totalPorts": 1,
              "ports": [
                {
                  "code": "SYTAO",
                  "name": "Tartus Oil Terminal",
                  "nameZh": "塔尔图斯石油码头",
                  "city": "Tartus Oil Terminal",
                  "lat": 34.9667,
                  "lng": 35.8833,
                  "intl": false
                }
              ]
            },
            "YE": {
              "code": "YE",
              "name": "也门",
              "nameEn": "Yemen",
              "totalPorts": 1,
              "ports": [
                {
                  "code": "YERAI",
                  "name": "Ras Isa Terminal",
                  "nameZh": "拉斯伊萨码头",
                  "city": "Ras Isa Terminal",
                  "lat": 15.2,
                  "lng": 42.6667,
                  "intl": false
                }
              ]
            }
          }
        },
        "CA": {
          "code": "CA",
          "name": "中亚",
          "nameEn": "Central Asia",
          "totalPorts": 0,
          "countries": {}
        }
      }
    },
    "EU": {
      "code": "EU",
      "name": "欧洲",
      "nameEn": "Europe",
      "totalPorts": 6836,
      "regions": {
        "WE": {
          "code": "WE",
          "name": "西欧",
          "nameEn": "Western Europe",
          "totalPorts": 3669,
          "countries": {
            "GB": {
              "code": "GB",
              "name": "英国",
              "nameEn": "United Kingdom",
              "totalPorts": 91,
              "ports": [
                {
                  "code": "GBLGP",
                  "name": "London Gateway Port",
                  "nameZh": "伦敦港",
                  "city": "London Gateway Port",
                  "lat": 51.5,
                  "lng": 0.4833,
                  "intl": true
                },
                {
                  "code": "GBLTP",
                  "name": "London Thamesport",
                  "nameZh": "伦敦泰晤士港",
                  "city": "London Thamesport",
                  "lat": 51.4333,
                  "lng": 0.6,
                  "intl": true
                },
                {
                  "code": "GBMSC",
                  "name": "Manchester Ship Canal, Salford",
                  "nameZh": "曼彻斯特航运运河，索尔福德",
                  "city": "Manchester Ship Canal, Salford",
                  "lat": 53.4833,
                  "lng": -2.3167,
                  "intl": true
                },
                {
                  "code": "GBPGG",
                  "name": "Port Glasgow",
                  "nameZh": "格拉斯哥港",
                  "city": "Port Glasgow",
                  "lat": 55.9333,
                  "lng": -4.6833,
                  "intl": true
                },
                {
                  "code": "GBBEL",
                  "name": "Belfast",
                  "nameZh": "贝尔法斯特港",
                  "city": "Belfast",
                  "lat": 54.9833,
                  "lng": -5.9167,
                  "intl": true
                },
                {
                  "code": "GBBPT",
                  "name": "Burry Port",
                  "nameZh": "巴里港",
                  "city": "Burry Port",
                  "lat": 51.6833,
                  "lng": -4.25,
                  "intl": true
                },
                {
                  "code": "GBBAD",
                  "name": "Barry Dock",
                  "nameZh": "巴里码头",
                  "city": "Barry Dock",
                  "lat": 51.3833,
                  "lng": -3.25,
                  "intl": false
                },
                {
                  "code": "GBBWV",
                  "name": "Budock Water",
                  "nameZh": "布多克沃特",
                  "city": "Budock Water",
                  "lat": 50.15,
                  "lng": -5.1167,
                  "intl": false
                },
                {
                  "code": "GBCEI",
                  "name": "Ceinewydd (New Quay)",
                  "nameZh": "凯尔纽伊斯（纽基）",
                  "city": "Ceinewydd (New Quay)",
                  "lat": 52.2167,
                  "lng": -4.3667,
                  "intl": false
                },
                {
                  "code": "GBCMS",
                  "name": "Cumbrae Slip, Great Cumbrae",
                  "nameZh": "坎布雷码头，大坎布雷",
                  "city": "Cumbrae Slip, Great Cumbrae",
                  "lat": 55.7833,
                  "lng": -4.9,
                  "intl": false
                },
                {
                  "code": "GBCOQ",
                  "name": "Connah's Quay",
                  "nameZh": "康纳斯基",
                  "city": "Connah's Quay",
                  "lat": 53.2167,
                  "lng": -3.0667,
                  "intl": false
                },
                {
                  "code": "GBCQY",
                  "name": "Connahs Quay",
                  "nameZh": "康纳斯码头",
                  "city": "Connahs Quay",
                  "lat": 53.2167,
                  "lng": -3.0667,
                  "intl": false
                },
                {
                  "code": "GBCVW",
                  "name": "Convoys Wharf",
                  "nameZh": "康沃伊斯码头",
                  "city": "Convoys Wharf",
                  "lat": 51.8,
                  "lng": -0.0333,
                  "intl": false
                },
                {
                  "code": "GBDVP",
                  "name": "Devonport",
                  "nameZh": "德文港",
                  "city": "Devonport",
                  "lat": 50.3667,
                  "lng": -4.1833,
                  "intl": false
                },
                {
                  "code": "GBGLD",
                  "name": "Glasson Dock",
                  "nameZh": "格伦卢斯",
                  "city": "Glasson Dock",
                  "lat": 53.9833,
                  "lng": -2.85,
                  "intl": false
                },
                {
                  "code": "GBGLG",
                  "name": "Glenuig",
                  "nameZh": "格拉森码头",
                  "city": "Glenuig",
                  "lat": 56.8333,
                  "lng": -5.8167,
                  "intl": false
                },
                {
                  "code": "GBGRJ",
                  "name": "Grovehurst Jetty/Sittingbourne",
                  "nameZh": "格罗夫赫斯特码头/西廷伯恩",
                  "city": "Grovehurst Jetty/Sittingbourne",
                  "lat": 51.3333,
                  "lng": 0.7333,
                  "intl": false
                },
                {
                  "code": "GBGRO",
                  "name": "Groomsport",
                  "nameZh": "格鲁姆斯波特",
                  "city": "Groomsport",
                  "lat": 54.6667,
                  "lng": -5.6167,
                  "intl": false
                },
                {
                  "code": "GBGRW",
                  "name": "Grove Port",
                  "nameZh": "格罗夫港",
                  "city": "Grove Port",
                  "lat": 53.5833,
                  "lng": -0.7,
                  "intl": false
                },
                {
                  "code": "GBHGY",
                  "name": "Hougharry and Loch Eport",
                  "nameZh": "霍夫敦",
                  "city": "Hougharry and Loch Eport",
                  "lat": 57.6,
                  "lng": -7.55,
                  "intl": false
                },
                {
                  "code": "GBHVO",
                  "name": "Ham Voe, Foula",
                  "nameZh": "汉姆港，富拉",
                  "city": "Ham Voe, Foula",
                  "lat": 60.1333,
                  "lng": -2.0333,
                  "intl": false
                },
                {
                  "code": "GBISA",
                  "name": "Port Isaac",
                  "nameZh": "艾萨克港",
                  "city": "Port Isaac",
                  "lat": 50.5833,
                  "lng": -4.8167,
                  "intl": false
                },
                {
                  "code": "GBJHW",
                  "name": "Crown Dry-Dock",
                  "nameZh": "皇冠船坞",
                  "city": "Crown Dry-Dock",
                  "lat": 53.2333,
                  "lng": -0.3167,
                  "intl": false
                },
                {
                  "code": "GBLDC",
                  "name": "Ladock",
                  "nameZh": "拉多克",
                  "city": "Ladock",
                  "lat": 50.3167,
                  "lng": -4.95,
                  "intl": false
                },
                {
                  "code": "GBLHV",
                  "name": "Little Haven",
                  "nameZh": "小港",
                  "city": "Little Haven",
                  "lat": 51.7667,
                  "lng": -5.1,
                  "intl": false
                },
                {
                  "code": "GBLIB",
                  "name": "Liverpool Bay Terminal",
                  "nameZh": "利物浦湾码头",
                  "city": "Liverpool Bay Terminal",
                  "lat": 53.6833,
                  "lng": -3.55,
                  "intl": false
                },
                {
                  "code": "GBLOE",
                  "name": "Looe",
                  "nameZh": "卢港",
                  "city": "Looe",
                  "lat": 50.35,
                  "lng": -4.45,
                  "intl": false
                },
                {
                  "code": "GBLRP",
                  "name": "Loch Ryan Pt",
                  "nameZh": "罗克瑞恩角",
                  "city": "Loch Ryan Pt",
                  "lat": 54.9833,
                  "lng": -5.0333,
                  "intl": false
                },
                {
                  "code": "GBMGP",
                  "name": "Magilligan Point Ferry Terminal, Lough Foyle",
                  "nameZh": "马吉利根角渡口码头，劳富尔湖",
                  "city": "Magilligan Point Ferry Terminal, Lough Foyle",
                  "lat": 55.1833,
                  "lng": -6.9667,
                  "intl": false
                },
                {
                  "code": "GBMLF",
                  "name": "Milford Haven",
                  "nameZh": "米尔福德港",
                  "city": "Milford Haven",
                  "lat": 51.7167,
                  "lng": -5.0333,
                  "intl": false
                },
                {
                  "code": "GBMLP",
                  "name": "Millport, Great Cumbrae",
                  "nameZh": "米尔波特，大坎布雷岛",
                  "city": "Millport, Great Cumbrae",
                  "lat": 55.75,
                  "lng": -4.95,
                  "intl": false
                },
                {
                  "code": "GBNOH",
                  "name": "North Haven, Fair Isle",
                  "nameZh": "费尔岛北港",
                  "city": "North Haven, Fair Isle",
                  "lat": 59.5333,
                  "lng": -1.6,
                  "intl": false
                },
                {
                  "code": "GBNPO",
                  "name": "Newport",
                  "nameZh": "纽波特",
                  "city": "Newport",
                  "lat": 50.7,
                  "lng": -1.2833,
                  "intl": false
                },
                {
                  "code": "GBPAK",
                  "name": "Port Askaig",
                  "nameZh": "阿斯凯港",
                  "city": "Port Askaig",
                  "lat": 55.85,
                  "lng": -6.1167,
                  "intl": false
                },
                {
                  "code": "GBPAP",
                  "name": "Port Appin",
                  "nameZh": "阿平港",
                  "city": "Port Appin",
                  "lat": 56.55,
                  "lng": -5.4,
                  "intl": false
                },
                {
                  "code": "GBPBA",
                  "name": "Portballintrae",
                  "nameZh": "波特巴林特雷",
                  "city": "Portballintrae",
                  "lat": 55.2167,
                  "lng": -6.5333,
                  "intl": false
                },
                {
                  "code": "GBPCO",
                  "name": "Porth Colmon",
                  "nameZh": "波思科尔蒙",
                  "city": "Porth Colmon",
                  "lat": 52.9,
                  "lng": -4.6333,
                  "intl": false
                },
                {
                  "code": "GBPCW",
                  "name": "Porthcawl",
                  "nameZh": "坡特斯考",
                  "city": "Porthcawl",
                  "lat": 51.4833,
                  "lng": -3.7,
                  "intl": false
                },
                {
                  "code": "GBPEG",
                  "name": "Port Edgar",
                  "nameZh": "埃德加港",
                  "city": "Port Edgar",
                  "lat": 55.9833,
                  "lng": -3.4167,
                  "intl": false
                },
                {
                  "code": "GBPFY",
                  "name": "Portaferry",
                  "nameZh": "波特法里",
                  "city": "Portaferry",
                  "lat": 54.3833,
                  "lng": -5.55,
                  "intl": false
                },
                {
                  "code": "GBPGD",
                  "name": "Portgordon",
                  "nameZh": "戈登港",
                  "city": "Portgordon",
                  "lat": 57.6667,
                  "lng": -3.0167,
                  "intl": false
                },
                {
                  "code": "GBPGI",
                  "name": "Porthgain",
                  "nameZh": "波思盖恩",
                  "city": "Porthgain",
                  "lat": 51.9333,
                  "lng": -5.1667,
                  "intl": false
                },
                {
                  "code": "GBPGV",
                  "name": "Port Gaverne",
                  "nameZh": "加弗恩港",
                  "city": "Port Gaverne",
                  "lat": 50.6,
                  "lng": -4.8167,
                  "intl": false
                },
                {
                  "code": "GBPIE",
                  "name": "Pierowall, Westray",
                  "nameZh": "皮罗沃尔，韦斯特雷",
                  "city": "Pierowall, Westray",
                  "lat": 59.3167,
                  "lng": -3,
                  "intl": false
                },
                {
                  "code": "GBPKA",
                  "name": "Portskerra",
                  "nameZh": "波特斯凯拉",
                  "city": "Portskerra",
                  "lat": 58.5667,
                  "lng": -3.9167,
                  "intl": false
                },
                {
                  "code": "GBPKN",
                  "name": "Portknockie",
                  "nameZh": "波特诺基",
                  "city": "Portknockie",
                  "lat": 57.7,
                  "lng": -2.8667,
                  "intl": false
                },
                {
                  "code": "GBPLN",
                  "name": "Port Ellen",
                  "nameZh": "埃伦港",
                  "city": "Port Ellen",
                  "lat": 55.6333,
                  "lng": -6.1833,
                  "intl": false
                },
                {
                  "code": "GBPLV",
                  "name": "Porthleven",
                  "nameZh": "波斯莱文",
                  "city": "Porthleven",
                  "lat": 50.0833,
                  "lng": -5.3167,
                  "intl": false
                },
                {
                  "code": "GBPMK",
                  "name": "Portmahomack",
                  "nameZh": "波特马霍马克",
                  "city": "Portmahomack",
                  "lat": 57.8333,
                  "lng": -3.8167,
                  "intl": false
                },