{
  "version": "2026.01",
  "lastUpdated": "2026-01-27",
  "totalPorts": 11802,
  "continents": {
    "AS": {
      "code": "AS",
      "name": "亚洲",
      "nameEn": "Asia",
      "totalPorts": 1496,
      "regions": {
        "EA": {
          "code": "EA",
          "name": "东亚",
          "nameEn": "East Asia",
          "totalPorts": 583,
          "countries": {
            "CN": {
              "code": "CN",
              "name": "中国",
              "nameEn": "China",
              "totalPorts": 371,
              "ports": [
                {
                  "code": "CNAIN",
                  "name": "Huaiyin",
                  "city": "Huaiyin",
                  "lat": 33.6333,
                  "lng": 119.0167
                },
                {
                  "code": "CNAJG",
                  "name": "Aojiang Pt",
                  "city": "Aojiang Pt",
                  "lat": 27.5833,
                  "lng": 120.45
                },
                {
                  "code": "CNANG",
                  "name": "Huangxian",
                  "city": "Huangxian",
                  "lat": 29.55,
                  "lng": 121.5667
                },
                {
                  "code": "CNANQ",
                  "name": "Anqiu",
                  "city": "Anqiu",
                  "lat": 36.4167,
                  "lng": 119.1833
                },
                {
                  "code": "CNANT",
                  "name": "Anting",
                  "city": "Anting",
                  "lat": 31.3,
                  "lng": 121.15,
                  "nameZh": "安亭镇"
                },
                {
                  "code": "CNAPP",
                  "name": "Anpu",
                  "city": "Anpu",
                  "lat": 21.3833,
                  "lng": 109.8333
                },
                {
                  "code": "CNAQG",
                  "name": "Anqing",
                  "city": "Anqing",
                  "lat": 30.5167,
                  "lng": 117.0333,
                  "nameZh": "安庆市"
                },
                {
                  "code": "CNASW",
                  "name": "Aoshanwei",
                  "city": "Aoshanwei",
                  "lat": 36.35,
                  "lng": 120.6667
                },
                {
                  "code": "CNBCG",
                  "name": "Baiceng",
                  "city": "Baiceng",
                  "lat": 25.4333,
                  "lng": 105.8,
                  "nameZh": "白层镇"
                },
                {
                  "code": "CNBCO",
                  "name": "Bacao",
                  "city": "Bacao",
                  "lat": 25.4667,
                  "lng": 105.7833
                },
                {
                  "code": "CNBDG",
                  "name": "Badong",
                  "city": "Badong",
                  "lat": 31.0333,
                  "lng": 110.3833
                },
                {
                  "code": "CNBEI",
                  "name": "Beilun",
                  "city": "Beilun",
                  "lat": 29.9333,
                  "lng": 121.8833
                },
                {
                  "code": "CNBHX",
                  "name": "Binhai",
                  "city": "Binhai",
                  "lat": 33.7167,
                  "lng": 119.6167
                },
                {
                  "code": "CNBIH",
                  "name": "Beihai Pt",
                  "city": "Beihai Pt",
                  "lat": 21.4667,
                  "lng": 109.1167
                },
                {
                  "code": "CNBIJ",
                  "name": "Beijiao",
                  "city": "Beijiao",
                  "lat": 22.9167,
                  "lng": 113.2,
                  "nameZh": "北滘镇"
                },
                {
                  "code": "CNBLX",
                  "name": "Honghai Pt",
                  "city": "Honghai Pt",
                  "lat": 23.1667,
                  "lng": 114.2667
                },
                {
                  "code": "CNBMJ",
                  "name": "Baimajing",
                  "city": "Baimajing",
                  "lat": 19.7,
                  "lng": 109.2167,
                  "nameZh": "白马井镇"
                },
                {
                  "code": "CNBSD",
                  "name": "Baoshan Pt",
                  "city": "Baoshan Pt",
                  "lat": 31.4167,
                  "lng": 121.4833
                },
                {
                  "code": "CNBSP",
                  "name": "Basuo Pt",
                  "city": "Basuo Pt",
                  "lat": 19,
                  "lng": 108.6167
                },
                {
                  "code": "CNBYA",
                  "name": "Bayan",
                  "city": "Bayan",
                  "lat": 46.0833,
                  "lng": 127.4
                },
                {
                  "code": "CNBYG",
                  "name": "Baiyang",
                  "city": "Baiyang",
                  "lat": 30.4333,
                  "lng": 111.5167
                },
                {
                  "code": "CNBYN",
                  "name": "Binyang",
                  "city": "Binyang",
                  "lat": 27.25,
                  "lng": 120.3333
                },
                {
                  "code": "CNBZG",
                  "name": "Bozhong",
                  "city": "Bozhong",
                  "lat": 38.45,
                  "lng": 118.4333
                },
                {
                  "code": "CNCDH",
                  "name": "Changdianhekou",
                  "city": "Changdianhekou",
                  "lat": 40.4167,
                  "lng": 124.8
                },
                {
                  "code": "CNCFD",
                  "name": "Caofeidian Pt",
                  "city": "Caofeidian Pt",
                  "lat": 38.95,
                  "lng": 118.5333
                },
                {
                  "code": "CNCGM",
                  "name": "Chongming",
                  "city": "Chongming",
                  "lat": 31.6333,
                  "lng": 121.4
                },
                {
                  "code": "CNCGS",
                  "name": "Changshu Pt",
                  "city": "Changshu Pt",
                  "lat": 31.65,
                  "lng": 120.7167
                },
                {
                  "code": "CNCGW",
                  "name": "Cangwu",
                  "city": "Cangwu",
                  "lat": 23.4833,
                  "lng": 111.3167
                },
                {
                  "code": "CNCHI",
                  "name": "Chizhou",
                  "city": "Chizhou",
                  "lat": 30.65,
                  "lng": 117.4667,
                  "nameZh": "池州市"
                },
                {
                  "code": "CNCHU",
                  "name": "Chaohu",
                  "city": "Chaohu",
                  "lat": 31.6,
                  "lng": 117.85
                },
                {
                  "code": "CNCHX",
                  "name": "Chengxi",
                  "city": "Chengxi",
                  "lat": 31.9167,
                  "lng": 120.2333
                },
                {
                  "code": "CNCHY",
                  "name": "Chaoyang Pt",
                  "city": "Chaoyang Pt",
                  "lat": 23.2667,
                  "lng": 116.6
                },
                {
                  "code": "CNCHZ",
                  "name": "Chuzhou",
                  "city": "Chuzhou",
                  "lat": 32.3167,
                  "lng": 118.2833,
                  "nameZh": "滁州"
                },
                {
                  "code": "CNCIV",
                  "name": "Civet / Guandong",
                  "city": "Civet / Guandong",
                  "lat": 22.2667,
                  "lng": 113.0667
                },
                {
                  "code": "CNCIX",
                  "name": "Cixi",
                  "city": "Cixi",
                  "lat": 30.1667,
                  "lng": 121.2333,
                  "nameZh": "慈溪市"
                },
                {
                  "code": "CNCJG",
                  "name": "Caojing",
                  "city": "Caojing",
                  "lat": 30.7833,
                  "lng": 121.4,
                  "nameZh": "漕泾镇"
                },
                {
                  "code": "CNCLJ",
                  "name": "Chenglingji Pt",
                  "city": "Chenglingji Pt",
                  "lat": 29.4333,
                  "lng": 113.15
                },
                {
                  "code": "CNCNG",
                  "name": "Chengde",
                  "city": "Chengde",
                  "lat": 40.9667,
                  "lng": 117.9333,
                  "nameZh": "承德市"
                },
                {
                  "code": "CNCOZ",
                  "name": "Chaozhou",
                  "city": "Chaozhou",
                  "lat": 23.6667,
                  "lng": 116.6333,
                  "nameZh": "潮州市"
                },
                {
                  "code": "CNCQI",
                  "name": "Chongqing",
                  "city": "Chongqing",
                  "lat": 29.5833,
                  "lng": 106.55,
                  "nameZh": "重庆主城区"
                },
                {
                  "code": "CNCSH",
                  "name": "Changsha",
                  "city": "Changsha",
                  "lat": 28.2,
                  "lng": 112.9833,
                  "nameZh": "长沙市"
                },
                {
                  "code": "CNCUN",
                  "name": "Chencun",
                  "city": "Chencun",
                  "lat": 22.95,
                  "lng": 113.2333
                },
                {
                  "code": "CNCWN",
                  "name": "Chiwan Pt",
                  "city": "Chiwan Pt",
                  "lat": 22.4833,
                  "lng": 113.8833
                },
                {
                  "code": "CNCZX",
                  "name": "Changzhou",
                  "city": "Changzhou",
                  "lat": 31.7833,
                  "lng": 119.9667,
                  "nameZh": "常州市"
                },
                {
                  "code": "CNDAL",
                  "name": "Dalian",
                  "city": "Dalian",
                  "lat": 38.9167,
                  "lng": 121.6,
                  "nameZh": "大连港"
                },
                {
                  "code": "CNDAN",
                  "name": "Daan",
                  "city": "Daan",
                  "lat": 43.95,
                  "lng": 129.85
                },
                {
                  "code": "CNDAS",
                  "name": "Dashihuagang",
                  "city": "Dashihuagang",
                  "lat": 38.9,
                  "lng": 121.6
                },
                {
                  "code": "CNDAX",
                  "name": "Daxie Pt",
                  "city": "Daxie Pt",
                  "lat": 29.8833,
                  "lng": 121.95
                },
                {
                  "code": "CNDAY",
                  "name": "Dayawan",
                  "city": "Dayawan",
                  "lat": 22.6667,
                  "lng": 114.6667
                },
                {
                  "code": "CNDBX",
                  "name": "Bohe",
                  "city": "Bohe",
                  "lat": 21.5167,
                  "lng": 111
                },
                {
                  "code": "CNDCB",
                  "name": "DA CHAN BAY",
                  "city": "DA CHAN BAY",
                  "lat": 22.5333,
                  "lng": 113.8667
                },
                {
                  "code": "CNDDD",
                  "name": "Dadeng I.",
                  "city": "Dadeng I.",
                  "lat": 24.5333,
                  "lng": 118.3167,
                  "nameZh": "丹东港"
                },
                {
                  "code": "CNDDW",
                  "name": "Dongdaiwan",
                  "city": "Dongdaiwan",
                  "lat": 26.2333,
                  "lng": 119.6167
                },
                {
                  "code": "CNDDZ",
                  "name": "Dandong",
                  "city": "Dandong",
                  "lat": 40.1333,
                  "lng": 124.3667,
                  "nameZh": "丹东"
                },
                {
                  "code": "CNDEF",
                  "name": "Defeng",
                  "city": "Defeng",
                  "lat": 26.2167,
                  "lng": 109.1167
                },
                {
                  "code": "CNDEZ",
                  "name": "Dezhou",
                  "city": "Dezhou",
                  "lat": 37.4333,
                  "lng": 116.2833,
                  "nameZh": "德州"
                },
                {
                  "code": "CNDFA",
                  "name": "Dongfang",
                  "city": "Dongfang",
                  "lat": 19.05,
                  "lng": 108.9333
                },
                {
                  "code": "CNDFG",
                  "name": "Dafeng",
                  "city": "Dafeng",
                  "lat": 33.1833,
                  "lng": 120.4667
                },
                {
                  "code": "CNDGG",
                  "name": "Dongguan",
                  "city": "Dongguan",
                  "lat": 23.0333,
                  "lng": 113.75,
                  "nameZh": "东莞市"
                },
                {
                  "code": "CNDGN",
                  "name": "Donggang",
                  "city": "Donggang",
                  "lat": 39.8833,
                  "lng": 124.1333,
                  "nameZh": "东港市"
                },
                {
                  "code": "CNDGP",
                  "name": "Dongping",
                  "city": "Dongping",
                  "lat": 21.7167,
                  "lng": 112.2167
                },
                {
                  "code": "CNDHU",
                  "name": "Danzhou",
                  "city": "Danzhou",
                  "lat": 25.3667,
                  "lng": 109.4333
                },
                {
                  "code": "CNDJA",
                  "name": "Dongjiakou",
                  "city": "Dongjiakou",
                  "lat": 35.6,
                  "lng": 119.7667
                },
                {
                  "code": "CNDJK",
                  "name": "Dongjiangkou",
                  "city": "Dongjiangkou",
                  "lat": 35.5833,
                  "lng": 119.7833
                },
                {
                  "code": "CNDJT",
                  "name": "Dongjiaotou Pt",
                  "city": "Dongjiaotou Pt",
                  "lat": 20.3333,
                  "lng": 110.4167
                },
                {
                  "code": "CNDLD",
                  "name": "Dalu Island",
                  "city": "Dalu Island",
                  "lat": 39.7333,
                  "lng": 123.7167
                },
                {
                  "code": "CNDMY",
                  "name": "Damaiyu",
                  "city": "Damaiyu",
                  "lat": 28.0833,
                  "lng": 121.15
                },
                {
                  "code": "CNDNG",
                  "name": "Donghai",
                  "city": "Donghai",
                  "lat": 22.95,
                  "lng": 115.6333
                },
                {
                  "code": "CNDOP",
                  "name": "Donglian Port",
                  "city": "Donglian Port",
                  "lat": 23.25,
                  "lng": 115.0167
                },
                {
                  "code": "CNDOU",
                  "name": "Doumen Pt",
                  "city": "Doumen Pt",
                  "lat": 22.2,
                  "lng": 113.2833
                },
                {
                  "code": "CNDOX",
                  "name": "Dongxing",
                  "city": "Dongxing",
                  "lat": 21.4833,
                  "lng": 107.9833
                },
                {
                  "code": "CNDPG",
                  "name": "Dapeng",
                  "city": "Dapeng",
                  "lat": 22.6,
                  "lng": 114.5
                },
                {
                  "code": "CNDSH",
                  "name": "Dongshi",
                  "city": "Dongshi",
                  "lat": 24.6667,
                  "lng": 118.4667
                },
                {
                  "code": "CNDYN",
                  "name": "Dongying",
                  "city": "Dongying",
                  "lat": 37.4167,
                  "lng": 118.6833,
                  "nameZh": "东营市"
                },
                {
                  "code": "CNENP",
                  "name": "Hengban",
                  "city": "Hengban",
                  "lat": 22.2,
                  "lng": 112.3167
                },
                {
                  "code": "CNEZH",
                  "name": "Ezhou",
                  "city": "Ezhou",
                  "lat": 30.4,
                  "lng": 114.8167,
                  "nameZh": "鄂州市"
                },
                {
                  "code": "CNFAN",
                  "name": "Fangcheng Pt",
                  "city": "Fangcheng Pt",
                  "lat": 21.7667,
                  "lng": 108.35
                },
                {
                  "code": "CNFCH",
                  "name": "Fengcheng",
                  "city": "Fengcheng",
                  "lat": 36.7,
                  "lng": 121.2333
                },
                {
                  "code": "CNFEH",
                  "name": "Fenghua",
                  "city": "Fenghua",
                  "lat": 29.65,
                  "lng": 121.4
                },
                {
                  "code": "CNFKI",
                  "name": "Fengkai",
                  "city": "Fengkai",
                  "lat": 23.05,
                  "lng": 112.45
                },
                {
                  "code": "CNFKJ",
                  "name": "Jiangkou",
                  "city": "Jiangkou",
                  "lat": 23.45,
                  "lng": 111.5
                },
                {
                  "code": "CNFLG",
                  "name": "Fuling",
                  "city": "Fuling",
                  "lat": 29.7,
                  "lng": 107.3333
                },
                {
                  "code": "CNFNG",
                  "name": "Fuyong",
                  "city": "Fuyong",
                  "lat": 22.65,
                  "lng": 113.7833
                },
                {
                  "code": "CNFQX",
                  "name": "Xialong",
                  "city": "Xialong",
                  "lat": 25.7,
                  "lng": 119.3833
                },
                {
                  "code": "CNFUJ",
                  "name": "Fujin",
                  "city": "Fujin",
                  "lat": 47.25,
                  "lng": 132.0333,
                  "nameZh": "富锦市"
                },
                {
                  "code": "CNFUY",
                  "name": "Fuyuan",
                  "city": "Fuyuan",
                  "lat": 48.35,
                  "lng": 134.3,
                  "nameZh": "抚远市"
                },
                {
                  "code": "CNFZH",
                  "name": "Fuzhou",
                  "city": "Fuzhou",
                  "lat": 26.0833,
                  "lng": 119.3,
                  "nameZh": "福州市"
                },
                {
                  "code": "CNGAO",
                  "name": "Gaogang",
                  "city": "Gaogang",
                  "lat": 32.3,
                  "lng": 119.85
                },
                {
                  "code": "CNGGK",
                  "name": "Gongkou",
                  "city": "Gongkou",
                  "lat": 23.6333,
                  "lng": 117.2333
                },
                {
                  "code": "CNGGZ",
                  "name": "Guangzhou",
                  "city": "Guangzhou",
                  "lat": 23.1333,
                  "lng": 113.2333,
                  "nameZh": "广州市"
                },
                {
                  "code": "CNGHI",
                  "name": "Guanghai Pt",
                  "city": "Guanghai Pt",
                  "lat": 21.9667,
                  "lng": 112.8
                },
                {
                  "code": "CNGIS",
                  "name": "Guishan",
                  "city": "Guishan",
                  "lat": 22.1333,
                  "lng": 113.8167,
                  "nameZh": "桂山镇"
                },
                {
                  "code": "CNGLN",
                  "name": "Gaolan",
                  "city": "Gaolan",
                  "lat": 36.3167,
                  "lng": 103.9333
                },
                {
                  "code": "CNGNA",
                  "name": "Guang'ao",
                  "city": "Guang'ao",
                  "lat": 23.2333,
                  "lng": 116.7667
                },
                {
                  "code": "CNGOG",
                  "name": "Gongming",
                  "city": "Gongming",
                  "lat": 22.7833,
                  "lng": 113.8667
                },
                {
                  "code": "CNGOM",
                  "name": "Gaoming Pt",
                  "city": "Gaoming Pt",
                  "lat": 22.8833,
                  "lng": 112.8333
                },
                {
                  "code": "CNGON",
                  "name": "Gaolan",
                  "city": "Gaolan",
                  "lat": 21.9167,
                  "lng": 113.25,
                  "nameZh": "珠海高栏港经济区"
                },
                {
                  "code": "CNGSA",
                  "name": "Cangshan",
                  "city": "Cangshan",
                  "lat": 34.85,
                  "lng": 118.05
                },
                {
                  "code": "CNGUG",
                  "name": "Guigang",
                  "city": "Guigang",
                  "lat": 23.1,
                  "lng": 109.6
                },
                {
                  "code": "CNGUI",
                  "name": "Guilin",
                  "city": "Guilin",
                  "lat": 25.2667,
                  "lng": 110.2833,
                  "nameZh": "桂林市"
                },
                {
                  "code": "CNGUT",
                  "name": "Guangdong Terminal",
                  "city": "Guangdong Terminal",
                  "lat": 22.5667,
                  "lng": 114.4333
                },
                {
                  "code": "CNGZE",
                  "name": "Guzhen",
                  "city": "Guzhen",
                  "lat": 22.6,
                  "lng": 113.1667
                },
                {
                  "code": "CNGZG",
                  "name": "Guangzhou Pt",
                  "city": "Guangzhou Pt",
                  "lat": 23.1333,
                  "lng": 113.2333,
                  "nameZh": "广州港"
                },
                {
                  "code": "CNHCN",
                  "name": "Huachuan",
                  "city": "Huachuan",
                  "lat": 47.0167,
                  "lng": 130.7
                },
                {
                  "code": "CNHEB",
                  "name": "Hebei",
                  "city": "Hebei",
                  "lat": 39.8833,
                  "lng": 115.2833
                },
                {
                  "code": "CNHEK",
                  "name": "Heihe",
                  "city": "Heihe",
                  "lat": 50.2333,
                  "lng": 127.4833,
                  "nameZh": "黑河市"
                },
                {
                  "code": "CNHGJ",
                  "name": "Huangjiang",
                  "city": "Huangjiang",
                  "lat": 25.1,
                  "lng": 107.3333
                },
                {
                  "code": "CNHHT",
                  "name": "Haitian Terminal/ Xiamen",
                  "city": "Haitian Terminal/ Xiamen",
                  "lat": 27.1,
                  "lng": 120.3
                },
                {
                  "code": "CNHID",
                  "name": "Huidong Pt",
                  "city": "Huidong Pt",
                  "lat": 22.9833,
                  "lng": 114.7
                },
                {
                  "code": "CNHIG",
                  "name": "Haikou Pt",
                  "city": "Haikou Pt",
                  "lat": 20.0333,
                  "lng": 110.1667,
                  "nameZh": "秀英港"
                },
                {
                  "code": "CNHIJ",
                  "name": "Huaiji",
                  "city": "Huaiji",
                  "lat": 23.05,
                  "lng": 112.45
                },
                {
                  "code": "CNHKO",
                  "name": "Haikou",
                  "city": "Haikou",
                  "lat": 20.0333,
                  "lng": 110.3333,
                  "nameZh": "海口市"
                },
                {
                  "code": "CNHLI",
                  "name": "Huailai",
                  "city": "Huailai",
                  "lat": 40.3667,
                  "lng": 115.5
                },
                {
                  "code": "CNHLJ",
                  "name": "Jinghai",
                  "city": "Jinghai",
                  "lat": 23.0333,
                  "lng": 116.3
                },
                {
                  "code": "CNHME",
                  "name": "Haimen",
                  "city": "Haimen",
                  "lat": 28.6667,
                  "lng": 121.4333
                },
                {
                  "code": "CNHMN",
                  "name": "Humen Pt",
                  "city": "Humen Pt",
                  "lat": 22.8333,
                  "lng": 113.6667
                },
                {
                  "code": "CNHNI",
                  "name": "Hengli",
                  "city": "Hengli",
                  "lat": 23.1667,
                  "lng": 114.6167
                },
                {
                  "code": "CNHOU",
                  "name": "Houjie",
                  "city": "Houjie",
                  "lat": 22.9333,
                  "lng": 113.6333,
                  "nameZh": "厚街镇"
                },
                {
                  "code": "CNHRN",
                  "name": "Harbin",
                  "city": "Harbin",
                  "lat": 45.7333,
                  "lng": 126.6,
                  "nameZh": "哈尔滨"
                },
                {
                  "code": "CNHSC",
                  "name": "Shaoguan New Pt",
                  "city": "Shaoguan New Pt",
                  "lat": 24.8,
                  "lng": 113.6167,
                  "nameZh": "韶关市"
                },
                {
                  "code": "CNHSI",
                  "name": "Huangshi Pt",
                  "city": "Huangshi Pt",
                  "lat": 30.2,
                  "lng": 115.1
                },
                {
                  "code": "CNHSN",
                  "name": "Heshan Pt",
                  "city": "Heshan Pt",
                  "lat": 22.7667,
                  "lng": 112.95
                },
                {
                  "code": "CNHST",
                  "name": "Heishantou",
                  "city": "Heishantou",
                  "lat": 50.2,
                  "lng": 119.3833,
                  "nameZh": "黑山头镇"
                },
                {
                  "code": "CNHTG",
                  "name": "Hetang",
                  "city": "Hetang",
                  "lat": 22.65,
                  "lng": 113.1333
                },
                {
                  "code": "CNHUD",
                  "name": "Huludao",
                  "city": "Huludao",
                  "lat": 40.75,
                  "lng": 120.85,
                  "nameZh": "葫芦岛港"
                },
                {
                  "code": "CNHUH",
                  "name": "Huanghua Pt",
                  "city": "Huanghua Pt",
                  "lat": 38.35,
                  "lng": 117.35,
                  "nameZh": "黄骅港"
                },
                {
                  "code": "CNHUI",
                  "name": "Huizhou",
                  "city": "Huizhou",
                  "lat": 23.0833,
                  "lng": 114.3667,
                  "nameZh": "惠州市"
                },
                {
                  "code": "CNHUL",
                  "name": "Hulin",
                  "city": "Hulin",
                  "lat": 45.7833,
                  "lng": 132.95,
                  "nameZh": "虎林市"
                },
                {
                  "code": "CNHUM",
                  "name": "Huma",
                  "city": "Huma",
                  "lat": 51.7,
                  "lng": 126.65,
                  "nameZh": "呼玛镇"
                },
                {
                  "code": "CNHUN",
                  "name": "Huangpu New Port",
                  "city": "Huangpu New Port",
                  "lat": 23.0833,
                  "lng": 113.5
                },
                {
                  "code": "CNHXG",
                  "name": "Haikou New Pt",
                  "city": "Haikou New Pt",
                  "lat": 20.25,
                  "lng": 108.8333,
                  "nameZh": "新港"
                },
                {
                  "code": "CNHYN",
                  "name": "Huangyan",
                  "city": "Huangyan",
                  "lat": 28.6333,
                  "lng": 121.25
                },
                {
                  "code": "CNHZH",
                  "name": "Huzhou",
                  "city": "Huzhou",
                  "lat": 30.8667,
                  "lng": 120.1,
                  "nameZh": "湖州市"
                },
                {
                  "code": "CNHZU",
                  "name": "Houzhu",
                  "city": "Houzhu",
                  "lat": 24.8833,
                  "lng": 118.6667
                },
                {
                  "code": "CNIMA",
                  "name": "Baimao",
                  "city": "Baimao",
                  "lat": 35.0167,
                  "lng": 118.6
                },
                {
                  "code": "CNING",
                  "name": "Xinyang",
                  "city": "Xinyang",
                  "lat": 32.1333,
                  "lng": 114.05,
                  "nameZh": "信阳市"
                },
                {
                  "code": "CNJAX",
                  "name": "Jiaxing",
                  "city": "Jiaxing",
                  "lat": 30.7667,
                  "lng": 120.75,
                  "nameZh": "嘉兴市"
                },
                {
                  "code": "CNJAY",
                  "name": "Jiayin",
                  "city": "Jiayin",
                  "lat": 48.8667,
                  "lng": 130.3667
                },
                {
                  "code": "CNJDR",
                  "name": "Quxi",
                  "city": "Quxi",
                  "lat": 23.5833,
                  "lng": 116.4333
                },
                {
                  "code": "CNJGU",
                  "name": "Jinguzhou",
                  "city": "Jinguzhou",
                  "lat": 22.5167,
                  "lng": 113.0167
                },
                {
                  "code": "CNJGY",
                  "name": "Jiangyin",
                  "city": "Jiangyin",
                  "lat": 25.4667,
                  "lng": 119.3
                },
                {
                  "code": "CNJIA",
                  "name": "Jiangyin Pt",
                  "city": "Jiangyin Pt",
                  "lat": 31.9,
                  "lng": 120.2833
                },
                {
                  "code": "CNJIJ",
                  "name": "Jingjiang",
                  "city": "Jingjiang",
                  "lat": 32.0333,
                  "lng": 120.2833,
                  "nameZh": "靖江市"
                },
                {
                  "code": "CNJIS",
                  "name": "Jiangshan Pt",
                  "city": "Jiangshan Pt",
                  "lat": 21.6333,
                  "lng": 108.2667
                },
                {
                  "code": "CNJIU",
                  "name": "Jiujiang",
                  "city": "Jiujiang",
                  "lat": 29.7167,
                  "lng": 115.9667,
                  "nameZh": "九江市"
                },
                {
                  "code": "CNJIZ",
                  "name": "Jiazi",
                  "city": "Jiazi",
                  "lat": 22.8667,
                  "lng": 116.05,
                  "nameZh": "甲子镇"
                },
                {
                  "code": "CNJMN",
                  "name": "Jiangmen",
                  "city": "Jiangmen",
                  "lat": 22.5833,
                  "lng": 113.0667,
                  "nameZh": "江门市"
                },
                {
                  "code": "CNJNZ",
                  "name": "Jinzhou Pt",
                  "city": "Jinzhou Pt",
                  "lat": 41.1167,
                  "lng": 121.15,
                  "nameZh": "锦州港"
                },
                {
                  "code": "CNJOG",
                  "name": "Jinghong",
                  "city": "Jinghong",
                  "lat": 22.0167,
                  "lng": 100.8,
                  "nameZh": "景洪市"
                },
                {
                  "code": "CNJRG",
                  "name": "Jurong",
                  "city": "Jurong",
                  "lat": 31.9167,
                  "lng": 119.1667,
                  "nameZh": "句容市"
                },
                {
                  "code": "CNJUJ",
                  "name": "Jiujiang",
                  "city": "Jiujiang",
                  "lat": 22.8333,
                  "lng": 113,
                  "nameZh": "九江"
                },
                {
                  "code": "CNJUZ",
                  "name": "Jiuzhen",
                  "city": "Jiuzhen",
                  "lat": 24.0333,
                  "lng": 117.7
                },
                {
                  "code": "CNJZK",
                  "name": "Jingzhou Pt",
                  "city": "Jingzhou Pt",
                  "lat": 30.3,
                  "lng": 112.2667
                },
                {
                  "code": "CNKFG",
                  "name": "Kaifeng",
                  "city": "Kaifeng",
                  "lat": 34.7833,
                  "lng": 114.3333,
                  "nameZh": "开封市"
                },
                {
                  "code": "CNLFN",
                  "name": "Lufeng",
                  "city": "Lufeng",
                  "lat": 22.95,
                  "lng": 115.6333,
                  "nameZh": "陆丰市"
                },
                {
                  "code": "CNLGI",
                  "name": "Longhai",
                  "city": "Longhai",
                  "lat": 26.4667,
                  "lng": 113.2667
                },
                {
                  "code": "CNLGU",
                  "name": "Longguan",
                  "city": "Longguan",
                  "lat": 40.7667,
                  "lng": 115.5667,
                  "nameZh": "龙关镇"
                },
                {
                  "code": "CNLGY",
                  "name": "Longyan Pt",
                  "city": "Longyan Pt",
                  "lat": 37.4333,
                  "lng": 122.6333
                },
                {
                  "code": "CNLIH",
                  "name": "Lianhuashan Pt",
                  "city": "Lianhuashan Pt",
                  "lat": 23.0167,
                  "lng": 115.2667
                },
                {
                  "code": "CNLIZ",
                  "name": "Lianzhou",
                  "city": "Lianzhou",
                  "lat": 24.7667,
                  "lng": 112.35,
                  "nameZh": "连州市"
                },
                {
                  "code": "CNLJQ",
                  "name": "Qianyu",
                  "city": "Qianyu",
                  "lat": 26.2,
                  "lng": 119.5167
                },
                {
                  "code": "CNLJY",
                  "name": "Yingzai",
                  "city": "Yingzai",
                  "lat": 21.6167,
                  "lng": 110.2833
                },
                {
                  "code": "CNLKU",
                  "name": "Longkou Pt",
                  "city": "Longkou Pt",
                  "lat": 37.65,
                  "lng": 120.35
                },
                {
                  "code": "CNLLI",
                  "name": "Liling",
                  "city": "Liling",
                  "lat": 27.6667,
                  "lng": 113.4833
                },
                {
                  "code": "CNLMG",
                  "name": "Wenling Longmen Port",
                  "city": "Wenling Longmen Port",
                  "lat": 28.4167,
                  "lng": 121.9833
                },
                {
                  "code": "CNLNH",
                  "name": "Linhai",
                  "city": "Linhai",
                  "lat": 28.85,
                  "lng": 121.1167,
                  "nameZh": "临海市"
                },
                {
                  "code": "CNLSH",
                  "name": "Lushun New Pt",
                  "city": "Lushun New Pt",
                  "lat": 38.6833,
                  "lng": 121.1833,
                  "nameZh": "旅顺港"
                },
                {
                  "code": "CNLSN",
                  "name": "Lanshan Pt",
                  "city": "Lanshan Pt",
                  "lat": 35.0667,
                  "lng": 119.3667
                },
                {
                  "code": "CNLSX",
                  "name": "Xincun",
                  "city": "Xincun",
                  "lat": 18.5,
                  "lng": 110.0167
                },
                {
                  "code": "CNLUB",
                  "name": "Luobei",
                  "city": "Luobei",
                  "lat": 47.5667,
                  "lng": 130.8167
                },
                {
                  "code": "CNLUD",
                  "name": "Liudu",
                  "city": "Liudu",
                  "lat": 23.0667,
                  "lng": 112
                },
                {
                  "code": "CNLUH",
                  "name": "Lü-hua Shan",
                  "city": "Lü-hua Shan",
                  "lat": 30.8167,
                  "lng": 122.6167
                },
                {
                  "code": "CNLUI",
                  "name": "Lisui",
                  "city": "Lisui",
                  "lat": 40.0667,
                  "lng": 116.75,
                  "nameZh": "李遂镇"
                },
                {
                  "code": "CNLUN",
                  "name": "Lu'an",
                  "city": "Lu'an",
                  "lat": 31.7333,
                  "lng": 116.4833,
                  "nameZh": "六安市"
                },
                {
                  "code": "CNLUS",
                  "name": "Lusi",
                  "city": "Lusi",
                  "lat": 32.05,
                  "lng": 121.6167
                },
                {
                  "code": "CNLUZ",
                  "name": "Luzhou",
                  "city": "Luzhou",
                  "lat": 28.9,
                  "lng": 105.4,
                  "nameZh": "泸州市"
                },
                {
                  "code": "CNLXI",
                  "name": "Lanxi",
                  "city": "Lanxi",
                  "lat": 29.2,
                  "lng": 119.4667,
                  "nameZh": "兰溪市"
                },
                {
                  "code": "CNLYG",
                  "name": "Lianyungang",
                  "city": "Lianyungang",
                  "lat": 34.7167,
                  "lng": 119.4333,
                  "nameZh": "连云港市"
                },
                {
                  "code": "CNLZH",
                  "name": "Liuzhou",
                  "city": "Liuzhou",
                  "lat": 23.3167,
                  "lng": 109.4,
                  "nameZh": "柳州市"
                },
                {
                  "code": "CNLZL",
                  "name": "Liusha",
                  "city": "Liusha",
                  "lat": 20.9,
                  "lng": 110.0667
                },
                {
                  "code": "CNLZO",
                  "name": "Laizhou Pt",
                  "city": "Laizhou Pt",
                  "lat": 37.1667,
                  "lng": 119.95
                },
                {
                  "code": "CNMAA",
                  "name": "Ma'anshan",
                  "city": "Ma'anshan",
                  "lat": 31.7167,
                  "lng": 118.4667,
                  "nameZh": "马鞍山市"
                },
                {
                  "code": "CNMAC",
                  "name": "Macun",
                  "city": "Macun",
                  "lat": 19.95,
                  "lng": 110.0167
                },
                {
                  "code": "CNMAJ",
                  "name": "Majistan/Zhoushan",
                  "city": "Majistan/Zhoushan",
                  "lat": 30.0167,
                  "lng": 122.1
                },
                {
                  "code": "CNMAW",
                  "name": "Mawei Pt",
                  "city": "Mawei Pt",
                  "lat": 25.9833,
                  "lng": 119.45
                },
                {
                  "code": "CNMBI",
                  "name": "Mabian Island",
                  "city": "Mabian Island",
                  "lat": 23.1167,
                  "lng": 115.0833
                },
                {
                  "code": "CNMIY",
                  "name": "Miyun",
                  "city": "Miyun",
                  "lat": 40.3667,
                  "lng": 116.8333
                },
                {
                  "code": "CNMJS",
                  "name": "Maji Shan",
                  "city": "Maji Shan",
                  "lat": 30.6667,
                  "lng": 122.4
                },
                {
                  "code": "CNMOG",
                  "name": "Maogang",
                  "city": "Maogang",
                  "lat": 23.05,
                  "lng": 112.7333
                },
                {
                  "code": "CNMOH",
                  "name": "Mohe",
                  "city": "Mohe",
                  "lat": 53.0167,
                  "lng": 122.45
                },
                {
                  "code": "CNMSA",
                  "name": "Meisha Pt",
                  "city": "Meisha Pt",
                  "lat": 24.7,
                  "lng": 117.0667
                },
                {
                  "code": "CNMWN",
                  "name": "Mawan Pt",
                  "city": "Mawan Pt",
                  "lat": 22.45,
                  "lng": 113.8833
                },
                {
                  "code": "CNNAH",
                  "name": "Nanhai Pt",
                  "city": "Nanhai Pt",
                  "lat": 23.0167,
                  "lng": 113.15
                },
                {
                  "code": "CNNAN",
                  "name": "Nanao Pt",
                  "city": "Nanao Pt",
                  "lat": 23.4333,
                  "lng": 117.6833
                },
                {
                  "code": "CNNBG",
                  "name": "Ningbo Pt",
                  "city": "Ningbo Pt",
                  "lat": 29.9167,
                  "lng": 121.6667
                },
                {
                  "code": "CNNBO",
                  "name": "Ningbo",
                  "city": "Ningbo",
                  "lat": 29.8667,
                  "lng": 121.55,
                  "nameZh": "宁波市"
                },
                {
                  "code": "CNNDS",
                  "name": "Shacheng",
                  "city": "Shacheng",
                  "lat": 26.65,
                  "lng": 119.5167
                },
                {
                  "code": "CNNEG",
                  "name": "Neigang",
                  "city": "Neigang",
                  "lat": 23.1,
                  "lng": 113.4167
                },
                {
                  "code": "CNNHN",
                  "name": "Wuhan",
                  "city": "Wuhan",
                  "lat": 30.5833,
                  "lng": 114.2833,
                  "nameZh": "武汉"
                },
                {
                  "code": "CNNIN",
                  "name": "Nanning",
                  "city": "Nanning",
                  "lat": 22.8,
                  "lng": 108.3167,
                  "nameZh": "南宁"
                },
                {
                  "code": "CNNJI",
                  "name": "Nanjing",
                  "city": "Nanjing",
                  "lat": 32.05,
                  "lng": 118.7667,
                  "nameZh": "南京市"
                },
                {
                  "code": "CNNJK",
                  "name": "Nanjiangkou",
                  "city": "Nanjiangkou",
                  "lat": 23.1167,
                  "lng": 111.8
                },
                {
                  "code": "CNNSA",
                  "name": "Nansha Pt",
                  "city": "Nansha Pt",
                  "lat": 22.75,
                  "lng": 113.5833,
                  "nameZh": "南沙港"
                },
                {
                  "code": "CNNTG",
                  "name": "Nantong",
                  "city": "Nantong",
                  "lat": 32.0167,
                  "lng": 120.85,
                  "nameZh": "南通市"
                },
                {
                  "code": "CNNUD",
                  "name": "Nudao",
                  "city": "Nudao",
                  "lat": 36.3833,
                  "lng": 120.8667
                },
                {
                  "code": "CNPAJ",
                  "name": "Panjin",
                  "city": "Panjin",
                  "lat": 41.1167,
                  "lng": 122.05,
                  "nameZh": "盘锦"
                },
                {
                  "code": "CNPDG",
                  "name": "Pudong/Shanghai",
                  "city": "Pudong/Shanghai",
                  "lat": 31.2333,
                  "lng": 121.5,
                  "nameZh": "浦东新区"
                },
                {
                  "code": "CNPGZ",
                  "name": "Pingzhou",
                  "city": "Pingzhou",
                  "lat": 23.0333,
                  "lng": 113.2
                },
                {
                  "code": "CNPHB",
                  "name": "Bijia",
                  "city": "Bijia",
                  "lat": 22.6167,
                  "lng": 114.85
                },
                {
                  "code": "CNPJS",
                  "name": "Pizhou",
                  "city": "Pizhou",
                  "lat": 34.3333,
                  "lng": 118.0167
                },
                {
                  "code": "CNPLI",
                  "name": "Penglai Pt",
                  "city": "Penglai Pt",
                  "lat": 37.8,
                  "lng": 120.75
                },
                {
                  "code": "CNPNY",
                  "name": "Shiqiao",
                  "city": "Shiqiao",
                  "lat": 22.95,
                  "lng": 113.3667
                },
                {
                  "code": "CNPTJ",
                  "name": "Jinjing",
                  "city": "Jinjing",
                  "lat": 25.5,
                  "lng": 119.7833
                },
                {
                  "code": "CNPTN",
                  "name": "Pingtan",
                  "city": "Pingtan",
                  "lat": 25.5,
                  "lng": 119.7167
                },
                {
                  "code": "CNPUT",
                  "name": "Putian",
                  "city": "Putian",
                  "lat": 24.4333,
                  "lng": 119.0167,
                  "nameZh": "莆田市"
                },
                {
                  "code": "CNPXM",
                  "name": "Pingshaxinmatou",
                  "city": "Pingshaxinmatou",
                  "lat": 22.1,
                  "lng": 113.1667
                },
                {
                  "code": "CNPYG",
                  "name": "Puyang",
                  "city": "Puyang",
                  "lat": 35.7,
                  "lng": 115,
                  "nameZh": "濮阳市"
                },
                {
                  "code": "CNQAW",
                  "name": "Qianwan",
                  "city": "Qianwan",
                  "lat": 36.05,
                  "lng": 120.2167
                },
                {
                  "code": "CNQGS",
                  "name": "Qingshi",
                  "city": "Qingshi",
                  "lat": 41.3667,
                  "lng": 126.5167
                },
                {
                  "code": "CNQGY",
                  "name": "Qingyuan",
                  "city": "Qingyuan",
                  "lat": 23.7,
                  "lng": 113.0167,
                  "nameZh": "清远市"
                },
                {
                  "code": "CNQIG",
                  "name": "Qingguji / Shangqiu",
                  "city": "Qingguji / Shangqiu",
                  "lat": 34.6833,
                  "lng": 115.7667
                },
                {
                  "code": "CNQIN",
                  "name": "Qingdao",
                  "city": "Qingdao",
                  "lat": 36.05,
                  "lng": 120.3167,
                  "nameZh": "青岛市"
                },
                {
                  "code": "CNQLN",
                  "name": "Qinglan Pt",
                  "city": "Qinglan Pt",
                  "lat": 19.55,
                  "lng": 110.8167
                },
                {
                  "code": "CNQNH",
                  "name": "Tanmen",
                  "city": "Tanmen",
                  "lat": 19.2333,
                  "lng": 110.4667
                },
                {
                  "code": "CNQSA",
                  "name": "Qisha Pt",
                  "city": "Qisha Pt",
                  "lat": 21.5833,
                  "lng": 108.4667
                },
                {
                  "code": "CNQSN",
                  "name": "Qianshan/Zhuhai",
                  "city": "Qianshan/Zhuhai",
                  "lat": 22.2333,
                  "lng": 113.5167
                },
                {
                  "code": "CNQUG",
                  "name": "Quangang,Quanzhou",
                  "city": "Quangang,Quanzhou",
                  "lat": 25.1333,
                  "lng": 118.9167
                },
                {
                  "code": "CNQZL",
                  "name": "Quanzhou",
                  "city": "Quanzhou",
                  "lat": 24.9333,
                  "lng": 118.6,
                  "nameZh": "泉州市"
                },
                {
                  "code": "CNRCG",
                  "name": "Rongcheng",
                  "city": "Rongcheng",
                  "lat": 37.15,
                  "lng": 122.3833
                },
                {
                  "code": "CNROH",
                  "name": "Raohe",
                  "city": "Raohe",
                  "lat": 46.8,
                  "lng": 134
                },
                {
                  "code": "CNROQ",
                  "name": "Rongqi Pt",
                  "city": "Rongqi Pt",
                  "lat": 22.7833,
                  "lng": 113.2667
                },
                {
                  "code": "CNRPG",
                  "name": "Raoping",
                  "city": "Raoping",
                  "lat": 23.6667,
                  "lng": 117
                },
                {
                  "code": "CNRZH",
                  "name": "Rizhao",
                  "city": "Rizhao",
                  "lat": 35.3833,
                  "lng": 119.5333,
                  "nameZh": "日照市"
                },
                {
                  "code": "CNSAM",
                  "name": "Sanming / Shanming Shi",
                  "city": "Sanming / Shanming Shi",
                  "lat": 26.2333,
                  "lng": 117.6167
                },
                {
                  "code": "CNSAN",
                  "name": "Shiwan",
                  "city": "Shiwan",
                  "lat": 23,
                  "lng": 113.0833
                },
                {
                  "code": "CNSAT",
                  "name": "Shadi",
                  "city": "Shadi",
                  "lat": 21.6,
                  "lng": 112.7833
                },
                {
                  "code": "CNSAW",
                  "name": "Shanwai",
                  "city": "Shanwai",
                  "lat": 28.05,
                  "lng": 121.2
                },
                {
                  "code": "CNSBN",
                  "name": "Suibin",
                  "city": "Suibin",
                  "lat": 47.3,
                  "lng": 131.85,
                  "nameZh": "绥滨镇"
                },
                {
                  "code": "CNSDG",
                  "name": "Shuidong Pt",
                  "city": "Shuidong Pt",
                  "lat": 21.5167,
                  "lng": 111
                },
                {
                  "code": "CNSEY",
                  "name": "Sheyang",
                  "city": "Sheyang",
                  "lat": 33.7667,
                  "lng": 120.25
                },
                {
                  "code": "CNSGH",
                  "name": "Shanghai",
                  "city": "Shanghai",
                  "lat": 31.2333,
                  "lng": 121.4833,
                  "nameZh": "上海市"
                },
                {
                  "code": "CNSGJ",
                  "name": "Songjiang",
                  "city": "Songjiang",
                  "lat": 31.0167,
                  "lng": 121.2333
                },
                {
                  "code": "CNSGU",
                  "name": "Shangyu",
                  "city": "Shangyu",
                  "lat": 30,
                  "lng": 120.8667
                },
                {
                  "code": "CNSHD",
                  "name": "Shidao Pt",
                  "city": "Shidao Pt",
                  "lat": 36.8667,
                  "lng": 122.4333
                },
                {
                  "code": "CNSHG",
                  "name": "Shanghai Pt",
                  "city": "Shanghai Pt",
                  "lat": 30.6333,
                  "lng": 122.0667,
                  "nameZh": "上海港"
                },
                {
                  "code": "CNSHH",
                  "name": "Shishi",
                  "city": "Shishi",
                  "lat": 24.7333,
                  "lng": 118.6333,
                  "nameZh": "石狮市"
                },
                {
                  "code": "CNSHK",
                  "name": "Shekou Pt",
                  "city": "Shekou Pt",
                  "lat": 22.4833,
                  "lng": 113.9167,
                  "nameZh": "蛇口工业区"
                },
                {
                  "code": "CNSHL",
                  "name": "Shuolong",
                  "city": "Shuolong",
                  "lat": 22.8,
                  "lng": 106.8
                },
                {
                  "code": "CNSHM",
                  "name": "Mafang",
                  "city": "Mafang",
                  "lat": 23.35,
                  "lng": 112.6833
                },
                {
                  "code": "CNSHP",
                  "name": "Qinhuangdao Pt",
                  "city": "Qinhuangdao Pt",
                  "lat": 39.9167,
                  "lng": 119.5833,
                  "nameZh": "秦皇岛港"
                },
                {
                  "code": "CNSHT",
                  "name": "Shating",
                  "city": "Shating",
                  "lat": 23.05,
                  "lng": 113.4333
                },
                {
                  "code": "CNSIJ",
                  "name": "Shijing",
                  "city": "Shijing",
                  "lat": 24.6167,
                  "lng": 118.4333
                },
                {
                  "code": "CNSIK",
                  "name": "Shuikou",
                  "city": "Shuikou",
                  "lat": 22.2333,
                  "lng": 110.9333,
                  "nameZh": "水口镇"
                },
                {
                  "code": "CNSIQ",
                  "name": "Saiqi",
                  "city": "Saiqi",
                  "lat": 26.9667,
                  "lng": 119.6833
                },
                {
                  "code": "CNSJQ",
                  "name": "Sanshui",
                  "city": "Sanshui",
                  "lat": 23.1667,
                  "lng": 112.8667,
                  "nameZh": "三水区"
                },
                {
                  "code": "CNSJU",
                  "name": "Shijiu Pt",
                  "city": "Shijiu Pt",
                  "lat": 36.3667,
                  "lng": 119.55
                },
                {
                  "code": "CNSKS",
                  "name": "Sikuaishi",
                  "city": "Sikuaishi",
                  "lat": 39.2833,
                  "lng": 122.5667
                },
                {
                  "code": "CNSLO",
                  "name": "Shilou",
                  "city": "Shilou",
                  "lat": 23.0167,
                  "lng": 113.5
                },
                {
                  "code": "CNSNH",
                  "name": "Shenhu",
                  "city": "Shenhu",
                  "lat": 24.6167,
                  "lng": 118.6667,
                  "nameZh": "深沪镇"
                },
                {
                  "code": "CNSNN",
                  "name": "Suining",
                  "city": "Suining",
                  "lat": 30.5333,
                  "lng": 105.5333,
                  "nameZh": "遂宁市"
                },
                {
                  "code": "CNSNS",
                  "name": "Sansha",
                  "city": "Sansha",
                  "lat": 26.9333,
                  "lng": 120.2167
                },
                {
                  "code": "CNSNZ",
                  "name": "Shenzhen",
                  "city": "Shenzhen",
                  "lat": 22.55,
                  "lng": 114.1167,
                  "nameZh": "深圳"
                },
                {
                  "code": "CNSON",
                  "name": "Songxia Pt",
                  "city": "Songxia Pt",
                  "lat": 25.6833,
                  "lng": 119.5833
                },
                {
                  "code": "CNSPA",
                  "name": "Shapa",
                  "city": "Shapa",
                  "lat": 21.5,
                  "lng": 111.4833
                },
                {
                  "code": "CNSPI",
                  "name": "Shipai",
                  "city": "Shipai",
                  "lat": 30.3167,
                  "lng": 116.65
                },
                {
                  "code": "CNSTB",
                  "name": "Shitoubu Pt",
                  "city": "Shitoubu Pt",
                  "lat": 21.5833,
                  "lng": 109.55
                },
                {
                  "code": "CNSTG",
                  "name": "Shantou",
                  "city": "Shantou",
                  "lat": 23.4167,
                  "lng": 116.7667,
                  "nameZh": "汕头市"
                },
                {
                  "code": "CNSTI",
                  "name": "Shatian",
                  "city": "Shatian",
                  "lat": 22.9167,
                  "lng": 113.6
                },
                {
                  "code": "CNSUD",
                  "name": "Shunde Pt",
                  "city": "Shunde Pt",
                  "lat": 22.8333,
                  "lng": 113.25
                },
                {
                  "code": "CNSUW",
                  "name": "Sunwu",
                  "city": "Sunwu",
                  "lat": 49.4167,
                  "lng": 127.3167
                },
                {
                  "code": "CNSWE",
                  "name": "Shanwei",
                  "city": "Shanwei",
                  "lat": 22.7833,
                  "lng": 115.35,
                  "nameZh": "汕尾市"
                },
                {
                  "code": "CNSWI",
                  "name": "Shiwei",
                  "city": "Shiwei",
                  "lat": 51.3,
                  "lng": 119.9167
                },
                {
                  "code": "CNSXB",
                  "name": "Beitan",
                  "city": "Beitan",
                  "lat": 21.3667,
                  "lng": 110.25
                },
                {
                  "code": "CNSXJ",
                  "name": "Shanshan",
                  "city": "Shanshan",
                  "lat": 42.8667,
                  "lng": 90.1667,
                  "nameZh": "鄯善机场"
                },
                {
                  "code": "CNSYA",
                  "name": "Sanya Pt",
                  "city": "Sanya Pt",
                  "lat": 33.7833,
                  "lng": 120.25
                },
                {
                  "code": "CNSYM",
                  "name": "Simao",
                  "city": "Simao",
                  "lat": 22.8,
                  "lng": 100.9667
                },
                {
                  "code": "CNSZA",
                  "name": "Sanzao",
                  "city": "Sanzao",
                  "lat": 22.05,
                  "lng": 113.35,
                  "nameZh": "三灶镇"
                },
                {
                  "code": "CNSZH",
                  "name": "Suzhou",
                  "city": "Suzhou",
                  "lat": 31.3167,
                  "lng": 120.6167,
                  "nameZh": "苏州市"
                },
                {
                  "code": "CNSZP",
                  "name": "Shenzhen Pt",
                  "city": "Shenzhen Pt",
                  "lat": 22.5,
                  "lng": 113.8833,
                  "nameZh": "深圳港"
                },
                {
                  "code": "CNTAC",
                  "name": "Taicang Pt",
                  "city": "Taicang Pt",
                  "lat": 31.45,
                  "lng": 121.1
                },
                {
                  "code": "CNTAP",
                  "name": "Taiping",
                  "city": "Taiping",
                  "lat": 21.0333,
                  "lng": 110.1667
                },
                {
                  "code": "CNTGG",
                  "name": "Tanggu",
                  "city": "Tanggu",
                  "lat": 39.0167,
                  "lng": 117.65
                },
                {
                  "code": "CNTGS",
                  "name": "Tangshan Pt",
                  "city": "Tangshan Pt",
                  "lat": 39.6,
                  "lng": 118.1833,
                  "nameZh": "唐山市"
                },
                {
                  "code": "CNTJG",
                  "name": "Taijiang",
                  "city": "Taijiang",
                  "lat": 26.0833,
                  "lng": 119.5
                },
                {
                  "code": "CNTNG",
                  "name": "Tianjin Pt",
                  "city": "Tianjin Pt",
                  "lat": 38.9833,
                  "lng": 117.75
                },
                {
                  "code": "CNTNJ",
                  "name": "Tianjin",
                  "city": "Tianjin",
                  "lat": 39.0333,
                  "lng": 117.2,
                  "nameZh": "天津"
                },
                {
                  "code": "CNTOJ",
                  "name": "Tongjiang",
                  "city": "Tongjiang",
                  "lat": 47.65,
                  "lng": 132.5,
                  "nameZh": "同江市"
                },
                {
                  "code": "CNTOL",
                  "name": "Tongling",
                  "city": "Tongling",
                  "lat": 30.9333,
                  "lng": 117.8,
                  "nameZh": "铜陵市"
                },
                {
                  "code": "CNTPW",
                  "name": "Taipingwan",
                  "city": "Taipingwan",
                  "lat": 37.2667,
                  "lng": 119.8333
                },
                {
                  "code": "CNTSG",
                  "name": "Gongyi",
                  "city": "Gongyi",
                  "lat": 22.25,
                  "lng": 112.8
                },
                {
                  "code": "CNTXG",
                  "name": "Tianjin Xingang Pt",
                  "city": "Tianjin Xingang Pt",
                  "lat": 38.9833,
                  "lng": 117.7,
                  "nameZh": "天津港"
                },
                {
                  "code": "CNTXZ",
                  "name": "Tongxiang",
                  "city": "Tongxiang",
                  "lat": 30.6333,
                  "lng": 120.5667
                },
                {
                  "code": "CNTZO",
                  "name": "Taizhou",
                  "city": "Taizhou",
                  "lat": 32.4833,
                  "lng": 119.9,
                  "nameZh": "台州市"
                },
                {
                  "code": "CNTZU",
                  "name": "Taizhou",
                  "city": "Taizhou",
                  "lat": 32.5,
                  "lng": 119.9,
                  "nameZh": "台州"
                },
                {
                  "code": "CNUIA",
                  "name": "Hui'an,Quanzhou",
                  "city": "Hui'an,Quanzhou",
                  "lat": 25.0333,
                  "lng": 118.9333
                },
                {
                  "code": "CNWAS",
                  "name": "Wanshan Pt",
                  "city": "Wanshan Pt",
                  "lat": 21.9333,
                  "lng": 113.7167
                },
                {
                  "code": "CNWAZ",
                  "name": "Wanzai",
                  "city": "Wanzai",
                  "lat": 22.1833,
                  "lng": 113.5167
                },
                {
                  "code": "CNWEF",
                  "name": "Weifang",
                  "city": "Weifang",
                  "lat": 36.7167,
                  "lng": 119.1,
                  "nameZh": "潍坊市"
                },
                {
                  "code": "CNWEG",
                  "name": "Weihai Pt",
                  "city": "Weihai Pt",
                  "lat": 37.5,
                  "lng": 122.1667
                },
                {
                  "code": "CNWEI",
                  "name": "Weihai",
                  "city": "Weihai",
                  "lat": 37.5167,
                  "lng": 122.1167,
                  "nameZh": "威海市"
                },
                {
                  "code": "CNWHI",
                  "name": "Wuhu",
                  "city": "Wuhu",
                  "lat": 31.3167,
                  "lng": 118.3667,
                  "nameZh": "芜湖市"
                },
                {
                  "code": "CNWHU",
                  "name": "Wuchuan",
                  "city": "Wuchuan",
                  "lat": 21.45,
                  "lng": 110.75,
                  "nameZh": "吴川市"
                },
                {
                  "code": "CNWIH",
                  "name": "Waihai",
                  "city": "Waihai",
                  "lat": 22.5833,
                  "lng": 113.1333
                },
                {
                  "code": "CNWIT",
                  "name": "Weitou",
                  "city": "Weitou",
                  "lat": 24.5333,
                  "lng": 118.6
                },
                {
                  "code": "CNWSH",
                  "name": "Wenshan",
                  "city": "Wenshan",
                  "lat": 23.3667,
                  "lng": 104.25,
                  "nameZh": "文山"
                },
                {
                  "code": "CNWUC",
                  "name": "Wu Chong Kou",
                  "city": "Wu Chong Kou",
                  "lat": 23.0833,
                  "lng": 113.4167
                },
                {
                  "code": "CNWUG",
                  "name": "Wusong Pt",
                  "city": "Wusong Pt",
                  "lat": 3.2,
                  "lng": 121.4833
                },
                {
                  "code": "CNWUK",
                  "name": "Wukan",
                  "city": "Wukan",
                  "lat": 22.85,
                  "lng": 115.65
                },
                {
                  "code": "CNWUZ",
                  "name": "Wuzhou",
                  "city": "Wuzhou",
                  "lat": 23.4833,
                  "lng": 111.3333,
                  "nameZh": "梧州西江机场"
                },
                {
                  "code": "CNWXS",
                  "name": "Wuxi",
                  "city": "Wuxi",
                  "lat": 31.5667,
                  "lng": 120.3,
                  "nameZh": "无锡市"
                },
                {
                  "code": "CNWZO",
                  "name": "Wenzhou Pt",
                  "city": "Wenzhou Pt",
                  "lat": 28.0167,
                  "lng": 120.65
                },
                {
                  "code": "CNXAM",
                  "name": "Xiamen",
                  "city": "Xiamen",
                  "lat": 24.45,
                  "lng": 118.1,
                  "nameZh": "厦门市"
                },
                {
                  "code": "CNXAN",
                  "name": "Xiang'an, Xiamen",
                  "city": "Xiang'an, Xiamen",
                  "lat": 24.6333,
                  "lng": 118.25
                },
                {
                  "code": "CNXAO",
                  "name": "Xiaolan",
                  "city": "Xiaolan",
                  "lat": 22.6667,
                  "lng": 113.2167,
                  "nameZh": "小榄镇"
                },
                {
                  "code": "CNXCU",
                  "name": "Xiaocuo Pt",
                  "city": "Xiaocuo Pt",
                  "lat": 25.2,
                  "lng": 119.95
                },
                {
                  "code": "CNXGA",
                  "name": "Xingang",
                  "city": "Xingang",
                  "lat": 23.0333,
                  "lng": 113.1
                },
                {
                  "code": "CNXGD",
                  "name": "Xingdong",
                  "city": "Xingdong",
                  "lat": 47.9167,
                  "lng": 130.85
                },
                {
                  "code": "CNXHO",
                  "name": "Xiaohudao",
                  "city": "Xiaohudao",
                  "lat": 23.0833,
                  "lng": 113.4333
                },
                {
                  "code": "CNXHT",
                  "name": "Xilin Hot",
                  "city": "Xilin Hot",
                  "lat": 43.9667,
                  "lng": 116.0333
                },
                {
                  "code": "CNXIA",
                  "name": "Xian",
                  "city": "Xian",
                  "lat": 34.2833,
                  "lng": 108.95,
                  "nameZh": "西安市"
                },
                {
                  "code": "CNXIJ",
                  "name": "Xijiang",
                  "city": "Xijiang",
                  "lat": 21.2833,
                  "lng": 114.8667
                },
                {
                  "code": "CNXIN",
                  "name": "Xinhui Pt",
                  "city": "Xinhui Pt",
                  "lat": 22.5333,
                  "lng": 113.0167
                },
                {
                  "code": "CNXIT",
                  "name": "Xintang Pt",
                  "city": "Xintang Pt",
                  "lat": 23.1167,
                  "lng": 113.6167
                },
                {
                  "code": "CNXMG",
                  "name": "Xiamen Pt",
                  "city": "Xiamen Pt",
                  "lat": 24.35,
                  "lng": 118.2,
                  "nameZh": "厦门港"
                },
                {
                  "code": "CNXNA",
                  "name": "Xinsha",
                  "city": "Xinsha",
                  "lat": 22.9833,
                  "lng": 113.5333
                },
                {
                  "code": "CNXOT",
                  "name": "Xiaotang",
                  "city": "Xiaotang",
                  "lat": 23.0833,
                  "lng": 112.9833
                },
                {
                  "code": "CNXSP",
                  "name": "Shipu",
                  "city": "Shipu",
                  "lat": 29.4833,
                  "lng": 121.85
                },
                {
                  "code": "CNXTA",
                  "name": "Xiangtan",
                  "city": "Xiangtan",
                  "lat": 27.85,
                  "lng": 112.9,
                  "nameZh": "湘潭市"
                },
                {
                  "code": "CNXTN",
                  "name": "Xiantan",
                  "city": "Xiantan",
                  "lat": 29.3333,
                  "lng": 104.8833
                },
                {
                  "code": "CNXTO",
                  "name": "Xitou",
                  "city": "Xitou",
                  "lat": 21.65,
                  "lng": 111.7833
                },
                {
                  "code": "CNXUK",
                  "name": "Xunke",
                  "city": "Xunke",
                  "lat": 49.55,
                  "lng": 128.4667
                },
                {
                  "code": "CNXXY",
                  "name": "Xiangyu Terminal/ Xiamen",
                  "city": "Xiangyu Terminal/ Xiamen",
                  "lat": 27.1,
                  "lng": 120.3167
                },
                {
                  "code": "CNXYG",
                  "name": "Xiuyu Pt",
                  "city": "Xiuyu Pt",
                  "lat": 25.2333,
                  "lng": 118.95
                },
                {
                  "code": "CNXYI",
                  "name": "Xinying",
                  "city": "Xinying",
                  "lat": 19.7333,
                  "lng": 109.2833
                },
                {
                  "code": "CNXZI",
                  "name": "Xiangzhi",
                  "city": "Xiangzhi",
                  "lat": 24.7667,
                  "lng": 118.7667
                },
                {
                  "code": "CNYAT",
                  "name": "Yantai",
                  "city": "Yantai",
                  "lat": 37.4667,
                  "lng": 121.3833,
                  "nameZh": "烟台港"
                },
                {
                  "code": "CNYFU",
                  "name": "Yongfu",
                  "city": "Yongfu",
                  "lat": 24.9833,
                  "lng": 109.9833,
                  "nameZh": "永福镇"
                },
                {
                  "code": "CNYIK",
                  "name": "Yinkou",
                  "city": "Yinkou",
                  "lat": 40.65,
                  "lng": 122.2167,
                  "nameZh": "营口市"
                },
                {
                  "code": "CNYIZ",
                  "name": "Yizheng",
                  "city": "Yizheng",
                  "lat": 32.2667,
                  "lng": 119.1667,
                  "nameZh": "仪征市"
                },
                {
                  "code": "CNYJI",
                  "name": "Yangjiang",
                  "city": "Yangjiang",
                  "lat": 21.8333,
                  "lng": 111.9667,
                  "nameZh": "阳江市"
                },
                {
                  "code": "CNYKG",
                  "name": "Yangkou Pt",
                  "city": "Yangkou Pt",
                  "lat": 32.55,
                  "lng": 121.4
                },
                {
                  "code": "CNYNG",
                  "name": "Yangzhong",
                  "city": "Yangzhong",
                  "lat": 32.2167,
                  "lng": 119.8167,
                  "nameZh": "扬中市"
                },
                {
                  "code": "CNYPG",
                  "name": "Yangpu Pt",
                  "city": "Yangpu Pt",
                  "lat": 19.7,
                  "lng": 109.2
                },
                {
                  "code": "CNYTG",
                  "name": "Yantai Pt",
                  "city": "Yantai Pt",
                  "lat": 37.55,
                  "lng": 121.4167
                },
                {
                  "code": "CNYTN",
                  "name": "Yantian",
                  "city": "Yantian",
                  "lat": 22.6,
                  "lng": 114.3,
                  "nameZh": "盐田区"
                },
                {
                  "code": "CNYUH",
                  "name": "Yuhuan",
                  "city": "Yuhuan",
                  "lat": 28.1333,
                  "lng": 121.2333,
                  "nameZh": "玉环市"
                },
                {
                  "code": "CNYYA",
                  "name": "Yueyang",
                  "city": "Yueyang",
                  "lat": 29.3667,
                  "lng": 113.1,
                  "nameZh": "岳阳市"
                },
                {
                  "code": "CNYZH",
                  "name": "Yangzhou",
                  "city": "Yangzhou",
                  "lat": 32.3833,
                  "lng": 119.4333,
                  "nameZh": "扬州市"
                },
                {
                  "code": "CNYZU",
                  "name": "Yuzhu",
                  "city": "Yuzhu",
                  "lat": 23.1,
                  "lng": 113.4167
                },
                {
                  "code": "CNZDO",
                  "name": "Zhaodong",
                  "city": "Zhaodong",
                  "lat": 46.0667,
                  "lng": 125.9833,
                  "nameZh": "肇东市"
                },
                {
                  "code": "CNZEL",
                  "name": "Zhelin",
                  "city": "Zhelin",
                  "lat": 23.5833,
                  "lng": 117.1
                },
                {
                  "code": "CNZGS",
                  "name": "Zhangshan",
                  "city": "Zhangshan",
                  "lat": 34.1167,
                  "lng": 118.3167
                },
                {
                  "code": "CNZGT",
                  "name": "Zhongtang",
                  "city": "Zhongtang",
                  "lat": 23.0833,
                  "lng": 113.65
                },
                {
                  "code": "CNZGW",
                  "name": "Zhangwan",
                  "city": "Zhangwan",
                  "lat": 26.7,
                  "lng": 119.5833
                },
                {
                  "code": "CNZHE",
                  "name": "Zhenjiang",
                  "city": "Zhenjiang",
                  "lat": 32.1833,
                  "lng": 119.45,
                  "nameZh": "镇江市"
                },
                {
                  "code": "CNZHG",
                  "name": "Zhaogang",
                  "city": "Zhaogang",
                  "lat": 32.55,
                  "lng": 116.6333
                },
                {
                  "code": "CNZHH",
                  "name": "Zhuanghe Pt",
                  "city": "Zhuanghe Pt",
                  "lat": 39.6833,
                  "lng": 122.9667
                },
                {
                  "code": "CNZJB",
                  "name": "Zhangjiabian",
                  "city": "Zhangjiabian",
                  "lat": 22.55,
                  "lng": 113.45
                },
                {
                  "code": "CNZJG",
                  "name": "Zhangjiagang",
                  "city": "Zhangjiagang",
                  "lat": 31.8667,
                  "lng": 120.5333,
                  "nameZh": "张家港市"
                },
                {
                  "code": "CNZLO",
                  "name": "Zhuliao",
                  "city": "Zhuliao",
                  "lat": 23.3667,
                  "lng": 113.3333
                },
                {
                  "code": "CNZNG",
                  "name": "Zhanjiang Pt",
                  "city": "Zhanjiang Pt",
                  "lat": 21.0833,
                  "lng": 110.5
                },
                {
                  "code": "CNZNZ",
                  "name": "Naozhou",
                  "city": "Naozhou",
                  "lat": 20.9167,
                  "lng": 110.5833
                },
                {
                  "code": "CNZPG",
                  "name": "zhengpugang Pt",
                  "city": "zhengpugang Pt",
                  "lat": 31.6333,
                  "lng": 118.3833
                },
                {
                  "code": "CNZPO",
                  "name": "Zhapo",
                  "city": "Zhapo",
                  "lat": 21.5667,
                  "lng": 111.85
                },
                {
                  "code": "CNZPU",
                  "name": "Zhapu Pt",
                  "city": "Zhapu Pt",
                  "lat": 30.5833,
                  "lng": 121.0833
                },
                {
                  "code": "CNZQG",
                  "name": "Zhaoqing",
                  "city": "Zhaoqing",
                  "lat": 23.05,
                  "lng": 112.45,
                  "nameZh": "肇庆市"
                },
                {
                  "code": "CNZSN",
                  "name": "Zhongshan",
                  "city": "Zhongshan",
                  "lat": 22.5167,
                  "lng": 113.3667,
                  "nameZh": "中山市"
                },
                {
                  "code": "CNZUH",
                  "name": "Zhuhai",
                  "city": "Zhuhai",
                  "lat": 22.2833,
                  "lng": 113.5667,
                  "nameZh": "九洲港"
                },
                {
                  "code": "CNZYO",
                  "name": "Zhuangyuanao",
                  "city": "Zhuangyuanao",
                  "lat": 27.8833,
                  "lng": 121.1167
                },
                {
                  "code": "CNZZH",
                  "name": "Zhangzhou",
                  "city": "Zhangzhou",
                  "lat": 24.5167,
                  "lng": 117.65,
                  "nameZh": "漳州市"
                },
                {
                  "code": "CNZZU",
                  "name": "Fuzhou",
                  "city": "Fuzhou",
                  "lat": 24.5167,
                  "lng": 117.65,
                  "nameZh": "抚州"
                }
              ]
            },
            "HK": {
              "code": "HK",
              "name": "中国香港",
              "nameEn": "Hong Kong, China",
              "totalPorts": 8,
              "ports": [
                {
                  "code": "HK9YM",
                  "name": "Yau Ma Tei",
                  "city": "Yau Ma Tei",
                  "lat": 22.3167,
                  "lng": 114.1667
                },
                {
                  "code": "HKABD",
                  "name": "Aberdeen",
                  "city": "Aberdeen",
                  "lat": 22.25,
                  "lng": 114.15,
                  "nameZh": "香港仔"
                },
                {
                  "code": "HKCWB",
                  "name": "Causeway Bay",
                  "city": "Causeway Bay",
                  "lat": 22.2833,
                  "lng": 114.1833
                },
                {
                  "code": "HKHKC",
                  "name": "Ha Kwai Chung",
                  "city": "Ha Kwai Chung",
                  "lat": 22.3667,
                  "lng": 114.1167
                },
                {
                  "code": "HKHKG",
                  "name": "Hong Kong",
                  "city": "Hong Kong",
                  "lat": 22.3167,
                  "lng": 114.1667,
                  "nameZh": "香港"
                },
                {
                  "code": "HKKWN",
                  "name": "Kowloon",
                  "city": "Kowloon",
                  "lat": 22.3,
                  "lng": 114.1667
                },
                {
                  "code": "HKTST",
                  "name": "Tsim Sha Tsui",
                  "city": "Tsim Sha Tsui",
                  "lat": 22.3,
                  "lng": 114.1667
                },
                {
                  "code": "HKWNI",
                  "name": "Wan Chai",
                  "city": "Wan Chai",
                  "lat": 22.2833,
                  "lng": 114.1667
                }
              ]
            },
            "MO": {
              "code": "MO",
              "name": "中国澳门",
              "nameEn": "Macao, China",
              "totalPorts": 1,
              "ports": [
                {
                  "code": "MOMFM",
                  "name": "Macau",
                  "city": "Macau",
                  "lat": 22.2,
                  "lng": 113.5333,
                  "nameZh": "澳门"
                }
              ]
            },
            "TW": {
              "code": "TW",
              "name": "中国台湾",
              "nameEn": "Taiwan, China",
              "totalPorts": 10,
              "ports": [
                {
                  "code": "TWBAL",
                  "name": "Bali",
                  "city": "Bali",
                  "lat": 25.15,
                  "lng": 121.4
                },
                {
                  "code": "TWBDA",
                  "name": "Budai",
                  "city": "Budai",
                  "lat": 23.3667,
                  "lng": 120.1
                },
                {
                  "code": "TWHUK",
                  "name": "Hukou",
                  "city": "Hukou",
                  "lat": 24.9,
                  "lng": 121.05,
                  "nameZh": "湖口乡"
                },
                {
                  "code": "TWLGM",
                  "name": "Lung-men",
                  "city": "Lung-men",
                  "lat": 23.5667,
                  "lng": 119.6667
                },
                {
                  "code": "TWMAL",
                  "name": "Mai-Liai",
                  "city": "Mai-Liai",
                  "lat": 23.75,
                  "lng": 120.25
                },
                {
                  "code": "TWMLI",
                  "name": "Mai-liao",
                  "city": "Mai-liao",
                  "lat": 23.1,
                  "lng": 120.1333
                },
                {
                  "code": "TWNAN",
                  "name": "Nantou",
                  "city": "Nantou",
                  "lat": 23.9,
                  "lng": 120.6833
                },
                {
                  "code": "TWSHL",
                  "name": "Sha-lun",
                  "city": "Sha-lun",
                  "lat": 25.1,
                  "lng": 121.2167
                },
                {
                  "code": "TWTPE",
                  "name": "Taipei",
                  "city": "Taipei",
                  "lat": 25.0333,
                  "lng": 121.5167,
                  "nameZh": "台北"
                },
                {
                  "code": "TWWTU",
                  "name": "Wu-tu",
                  "city": "Wu-tu",
                  "lat": 25.0833,
                  "lng": 121.6667
                }
              ]
            },
            "JP": {
              "code": "JP",
              "name": "日本",
              "nameEn": "Japan",
              "totalPorts": 112,
              "ports": [
                {
                  "code": "JPAFG",
                  "name": "Akitafunagawa",
                  "city": "Akitafunagawa",
                  "lat": 39.8833,
                  "lng": 139.95
                },
                {
                  "code": "JPAIG",
                  "name": "Aki-gun/Hiroshima",
                  "city": "Aki-gun/Hiroshima",
                  "lat": 34.3333,
                  "lng": 132.5333
                },
                {
                  "code": "JPAIO",
                  "name": "Aioi",
                  "city": "Aioi",
                  "lat": 34.7833,
                  "lng": 134.4667
                },
                {
                  "code": "JPAMX",
                  "name": "AmagasakiNishinomiyaAshiya",
                  "city": "AmagasakiNishinomiyaAshiya",
                  "lat": 34.7167,
                  "lng": 135.4167,
                  "nameZh": "尼崎西宫芦屋港"
                },
                {
                  "code": "JPAOM",
                  "name": "Omi",
                  "city": "Omi",
                  "lat": 37.0167,
                  "lng": 137.8
                },
                {
                  "code": "JPAPP",
                  "name": "Koshi",
                  "city": "Koshi",
                  "lat": 32.8833,
                  "lng": 130.7833
                },
                {
                  "code": "JPARI",
                  "name": "Ariake, Tokyo",
                  "city": "Ariake, Tokyo",
                  "lat": 35.6333,
                  "lng": 139.7833
                },
                {
                  "code": "JPASI",
                  "name": "Asahimachi",
                  "city": "Asahimachi",
                  "lat": 35.5333,
                  "lng": 139.7
                },
                {
                  "code": "JPASU",
                  "name": "Kasuya",
                  "city": "Kasuya",
                  "lat": 33.6167,
                  "lng": 130.4833,
                  "nameZh": "粕屋町"
                },
                {
                  "code": "JPATA",
                  "name": "Ataka",
                  "city": "Ataka",
                  "lat": 36.4167,
                  "lng": 136.4167
                },
                {
                  "code": "JPAUI",
                  "name": "Asakuchi",
                  "city": "Asakuchi",
                  "lat": 34.5167,
                  "lng": 133.5833,
                  "nameZh": "浅口市"
                },
                {
                  "code": "JPAXZ",
                  "name": "Zushi",
                  "city": "Zushi",
                  "lat": 35.2833,
                  "lng": 139.5833,
                  "nameZh": "逗子市"
                },
                {
                  "code": "JPBIZ",
                  "name": "Bizen",
                  "city": "Bizen",
                  "lat": 34.7333,
                  "lng": 134.1833
                },
                {
                  "code": "JPBKW",
                  "name": "Shibukawa",
                  "city": "Shibukawa",
                  "lat": 36.4833,
                  "lng": 139,
                  "nameZh": "涩川市"
                },
                {
                  "code": "JPCHG",
                  "name": "Chigasaki",
                  "city": "Chigasaki",
                  "lat": 35.3167,
                  "lng": 139.4,
                  "nameZh": "茅崎市"
                },
                {
                  "code": "JPCHW",
                  "name": "Chimu Wan",
                  "city": "Chimu Wan",
                  "lat": 26.3833,
                  "lng": 127.9167
                },
                {
                  "code": "JPCYU",
                  "name": "Chiryu",
                  "city": "Chiryu",
                  "lat": 35,
                  "lng": 137.05,
                  "nameZh": "知立市"
                },
                {
                  "code": "JPFKM",
                  "name": "Fukushima, Nagasaki",
                  "city": "Fukushima, Nagasaki",
                  "lat": 33.35,
                  "lng": 129.8
                },
                {
                  "code": "JPFKU",
                  "name": "Fukushima, Hokkaido",
                  "city": "Fukushima, Hokkaido",
                  "lat": 41.4667,
                  "lng": 140.25
                },
                {
                  "code": "JPFMS",
                  "name": "Fukushima, Miyazaki",
                  "city": "Fukushima, Miyazaki",
                  "lat": 31.4667,
                  "lng": 131.2167
                },
                {
                  "code": "JPFST",
                  "name": "Furusato, Kagoshima",
                  "city": "Furusato, Kagoshima",
                  "lat": 27.3667,
                  "lng": 128.6333
                },
                {
                  "code": "JPFTS",
                  "name": "Futtsu, Chiba",
                  "city": "Futtsu, Chiba",
                  "lat": 35.5833,
                  "lng": 140.3833,
                  "nameZh": "富津市"
                },
                {
                  "code": "JPFTX",
                  "name": "Fushikitoyama",
                  "city": "Fushikitoyama",
                  "lat": 36.8,
                  "lng": 137.1167
                },
                {
                  "code": "JPGKA",
                  "name": "Gushikawa",
                  "city": "Gushikawa",
                  "lat": 26.35,
                  "lng": 127.8667
                },
                {
                  "code": "JPGOO",
                  "name": "Gobo Wakayama",
                  "city": "Gobo Wakayama",
                  "lat": 33.8833,
                  "lng": 135.15
                },
                {
                  "code": "JPGTK",
                  "name": "Kitanagoya",
                  "city": "Kitanagoya",
                  "lat": 35.2333,
                  "lng": 136.85,
                  "nameZh": "北名古屋市"
                },
                {
                  "code": "JPGTO",
                  "name": "Goto",
                  "city": "Goto",
                  "lat": 32.6833,
                  "lng": 128.8333
                },
                {
                  "code": "JPHBK",
                  "name": "Hibikishinko",
                  "city": "Hibikishinko",
                  "lat": 33.9833,
                  "lng": 130.75
                },
                {
                  "code": "JPHGN",
                  "name": "Higashisonogi-Gun Cho",
                  "city": "Higashisonogi-Gun Cho",
                  "lat": 32.0333,
                  "lng": 129.9167
                },
                {
                  "code": "JPHIU",
                  "name": "Hiratsuka",
                  "city": "Hiratsuka",
                  "lat": 35.3167,
                  "lng": 139.35,
                  "nameZh": "平冢市"
                },
                {
                  "code": "JPHKT",
                  "name": "Hakata/Fukuoka",
                  "city": "Hakata/Fukuoka",
                  "lat": 33.6,
                  "lng": 130.4167,
                  "nameZh": "博多港"
                },
                {
                  "code": "JPHMR",
                  "name": "Hamura",
                  "city": "Hamura",
                  "lat": 35.7667,
                  "lng": 139.3,
                  "nameZh": "羽村市"
                },
                {
                  "code": "JPHOF",
                  "name": "Hofu",
                  "city": "Hofu",
                  "lat": 34.0333,
                  "lng": 131.5667
                },
                {
                  "code": "JPHSG",
                  "name": "Saga",
                  "city": "Saga",
                  "lat": 33.0833,
                  "lng": 133.1
                },
                {
                  "code": "JPHTO",
                  "name": "Hatoma",
                  "city": "Hatoma",
                  "lat": 24.4667,
                  "lng": 123.7667
                },
                {
                  "code": "JPICO",
                  "name": "Ichikikushikino",
                  "city": "Ichikikushikino",
                  "lat": 31.7167,
                  "lng": 130.2667
                },
                {
                  "code": "JPICW",
                  "name": "Ishikariwan Shinko",
                  "city": "Ishikariwan Shinko",
                  "lat": 43.35,
                  "lng": 141.5
                },
                {
                  "code": "JPIKK",
                  "name": "Ikitsuki",
                  "city": "Ikitsuki",
                  "lat": 33.3833,
                  "lng": 129.4333
                },
                {
                  "code": "JPIKW",
                  "name": "Ishikawa",
                  "city": "Ishikawa",
                  "lat": 26.4167,
                  "lng": 127.8167
                },
                {
                  "code": "JPISG",
                  "name": "Ishigaki",
                  "city": "Ishigaki",
                  "lat": 24.3333,
                  "lng": 124.15,
                  "nameZh": "石垣市"
                },
                {
                  "code": "JPIZW",
                  "name": "Inazawa",
                  "city": "Inazawa",
                  "lat": 35.25,
                  "lng": 136.7833,
                  "nameZh": "稻泽市"
                },
                {
                  "code": "JPJTS",
                  "name": "Joetsu",
                  "city": "Joetsu",
                  "lat": 37.15,
                  "lng": 138.2333,
                  "nameZh": "上越市"
                },
                {
                  "code": "JPKAU",
                  "name": "Kasumigaura",
                  "city": "Kasumigaura",
                  "lat": 36.0333,
                  "lng": 140.2167
                },