{
  "version": "2026.01",
  "lastUpdated": "2026-01-27",
  "description": "Êµ∑Â§ñ‰ªìÊï∞ÊçÆ - ‰∫öÈ©¨ÈÄäFBA / Ê≤ÉÂ∞îÁéõWFS / Ë¥ß‰ª£ÂÖ¨Âè∏",
  "categories": {
    "amazon": {
      "name": "‰∫öÈ©¨ÈÄä FBA",
      "nameEn": "Amazon FBA",
      "icon": "üì¶",
      "totalWarehouses": 156,
      "countries": {
        "US": {
          "name": "ÁæéÂõΩ",
          "nameEn": "United States",
          "totalWarehouses": 89,
          "warehouses": [
            {"code": "BHM1", "name": "BHM1", "city": "Bessemer, AL", "state": "AL", "lat": 33.4018, "lng": -86.9544},
            {"code": "MOB5", "name": "MOB5", "city": "Theodore, AL", "state": "AL", "lat": 30.5477, "lng": -88.1892},
            {"code": "PHX3", "name": "PHX3", "city": "Phoenix, AZ", "state": "AZ", "lat": 33.4484, "lng": -112.0740},
            {"code": "PHX5", "name": "PHX5", "city": "Goodyear, AZ", "state": "AZ", "lat": 33.4353, "lng": -112.3576},
            {"code": "PHX6", "name": "PHX6", "city": "Phoenix, AZ", "state": "AZ", "lat": 33.4300, "lng": -112.1100},
            {"code": "PHX7", "name": "PHX7", "city": "Phoenix, AZ", "state": "AZ", "lat": 33.4484, "lng": -112.0740},
            {"code": "TUS2", "name": "TUS2", "city": "Tucson, AZ", "state": "AZ", "lat": 32.2226, "lng": -110.9747},
            {"code": "ONT2", "name": "ONT2", "city": "San Bernardino, CA", "state": "CA", "lat": 34.1083, "lng": -117.2898},
            {"code": "ONT6", "name": "ONT6", "city": "Moreno Valley, CA", "state": "CA", "lat": 33.9425, "lng": -117.2297},
            {"code": "ONT8", "name": "ONT8", "city": "Moreno Valley, CA", "state": "CA", "lat": 33.9425, "lng": -117.2297},
            {"code": "LGB1", "name": "LGB1", "city": "Long Beach, CA", "state": "CA", "lat": 33.7701, "lng": -118.1937},
            {"code": "LGB3", "name": "LGB3", "city": "Eastvale, CA", "state": "CA", "lat": 33.9628, "lng": -117.5772},
            {"code": "LGB6", "name": "LGB6", "city": "Riverside, CA", "state": "CA", "lat": 33.9533, "lng": -117.3962},
            {"code": "LGB7", "name": "LGB7", "city": "Rialto, CA", "state": "CA", "lat": 34.1064, "lng": -117.3703},
            {"code": "LGB8", "name": "LGB8", "city": "Rialto, CA", "state": "CA", "lat": 34.1064, "lng": -117.3703},
            {"code": "LAX9", "name": "LAX9", "city": "Fontana, CA", "state": "CA", "lat": 34.0922, "lng": -117.4350},
            {"code": "SNA6", "name": "SNA6", "city": "Eastvale, CA", "state": "CA", "lat": 33.9628, "lng": -117.5772},
            {"code": "OAK4", "name": "OAK4", "city": "Tracy, CA", "state": "CA", "lat": 37.7397, "lng": -121.4252},
            {"code": "SMF1", "name": "SMF1", "city": "Sacramento, CA", "state": "CA", "lat": 38.6952, "lng": -121.5908},
            {"code": "SMF3", "name": "SMF3", "city": "Stockton, CA", "state": "CA", "lat": 37.9577, "lng": -121.2908},
            {"code": "SJC7", "name": "SJC7", "city": "Tracy, CA", "state": "CA", "lat": 37.7397, "lng": -121.4252},
            {"code": "FAT1", "name": "FAT1", "city": "Fresno, CA", "state": "CA", "lat": 36.7378, "lng": -119.7871},
            {"code": "DEN2", "name": "DEN2", "city": "Aurora, CO", "state": "CO", "lat": 39.7294, "lng": -104.8319},
            {"code": "DEN3", "name": "DEN3", "city": "Thornton, CO", "state": "CO", "lat": 39.8680, "lng": -104.9719},
            {"code": "BDL1", "name": "BDL1", "city": "Windsor, CT", "state": "CT", "lat": 41.8526, "lng": -72.6437},
            {"code": "BDL3", "name": "BDL3", "city": "North Haven, CT", "state": "CT", "lat": 41.3909, "lng": -72.8595},
            {"code": "PHL1", "name": "PHL1", "city": "New Castle, DE", "state": "DE", "lat": 39.6621, "lng": -75.5668},
            {"code": "PHL7", "name": "PHL7", "city": "Middletown, DE", "state": "DE", "lat": 39.4496, "lng": -75.7163},
            {"code": "JAX2", "name": "JAX2", "city": "Jacksonville, FL", "state": "FL", "lat": 30.3322, "lng": -81.6557},
            {"code": "MCO1", "name": "MCO1", "city": "Orlando, FL", "state": "FL", "lat": 28.5383, "lng": -81.3792},
            {"code": "MIA1", "name": "MIA1", "city": "Opa Locka, FL", "state": "FL", "lat": 25.9065, "lng": -80.2505},
            {"code": "TPA1", "name": "TPA1", "city": "Ruskin, FL", "state": "FL", "lat": 27.7173, "lng": -82.4332},
            {"code": "TPA2", "name": "TPA2", "city": "Lakeland, FL", "state": "FL", "lat": 28.0395, "lng": -81.9498},
            {"code": "ATL2", "name": "ATL2", "city": "Stone Mountain, GA", "state": "GA", "lat": 33.8081, "lng": -84.1702},
            {"code": "ATL7", "name": "ATL7", "city": "Union City, GA", "state": "GA", "lat": 33.5873, "lng": -84.5424},
            {"code": "MGE1", "name": "MGE1", "city": "Braselton, GA", "state": "GA", "lat": 34.1098, "lng": -83.7626},
            {"code": "SAV3", "name": "SAV3", "city": "Macon, GA", "state": "GA", "lat": 32.8407, "lng": -83.6324},
            {"code": "MDW2", "name": "MDW2", "city": "Joliet, IL", "state": "IL", "lat": 41.5250, "lng": -88.0817},
            {"code": "MDW6", "name": "MDW6", "city": "Romeoville, IL", "state": "IL", "lat": 41.6475, "lng": -88.0892},
            {"code": "ORD6", "name": "ORD6", "city": "Wood Dale, IL", "state": "IL", "lat": 41.9631, "lng": -87.9789},
            {"code": "STL6", "name": "STL6", "city": "Edwardsville, IL", "state": "IL", "lat": 38.8114, "lng": -89.9531},
            {"code": "IND1", "name": "IND1", "city": "Whitestown, IN", "state": "IN", "lat": 39.9970, "lng": -86.3458},
            {"code": "IND2", "name": "IND2", "city": "Plainfield, IN", "state": "IN", "lat": 39.7042, "lng": -86.3994},
            {"code": "IND5", "name": "IND5", "city": "Plainfield, IN", "state": "IN", "lat": 39.7042, "lng": -86.3994},
            {"code": "IND9", "name": "IND9", "city": "Greenwood, IN", "state": "IN", "lat": 39.6137, "lng": -86.1066},
            {"code": "MCI5", "name": "MCI5", "city": "Lenexa, KS", "state": "KS", "lat": 38.9536, "lng": -94.7336},
            {"code": "MKC6", "name": "MKC6", "city": "Kansas City, KS", "state": "KS", "lat": 39.1155, "lng": -94.6268},
            {"code": "CVG1", "name": "CVG1", "city": "Hebron, KY", "state": "KY", "lat": 39.0669, "lng": -84.7016},
            {"code": "CVG3", "name": "CVG3", "city": "Hebron, KY", "state": "KY", "lat": 39.0473, "lng": -84.7019},
            {"code": "SDF1", "name": "SDF1", "city": "Campbellsville, KY", "state": "KY", "lat": 37.3432, "lng": -85.3419},
            {"code": "SDF4", "name": "SDF4", "city": "Shepherdsville, KY", "state": "KY", "lat": 37.9884, "lng": -85.7158},
            {"code": "LEX1", "name": "LEX1", "city": "Lexington, KY", "state": "KY", "lat": 38.0406, "lng": -84.5037},
            {"code": "BWI5", "name": "BWI5", "city": "Baltimore, MD", "state": "MD", "lat": 39.2904, "lng": -76.6122},
            {"code": "MDT2", "name": "MDT2", "city": "North East, MD", "state": "MD", "lat": 39.6001, "lng": -75.9413},
            {"code": "BOS5", "name": "BOS5", "city": "Stoughton, MA", "state": "MA", "lat": 42.1251, "lng": -71.1028},
            {"code": "BOS7", "name": "BOS7", "city": "Fall River, MA", "state": "MA", "lat": 41.7015, "lng": -71.1550},
            {"code": "DTW1", "name": "DTW1", "city": "Romulus, MI", "state": "MI", "lat": 42.2126, "lng": -83.3533},
            {"code": "DET2", "name": "DET2", "city": "Shelby Township, MI", "state": "MI", "lat": 42.6707, "lng": -83.0330},
            {"code": "GRR1", "name": "GRR1", "city": "Caledonia, MI", "state": "MI", "lat": 42.7898, "lng": -85.5167},
            {"code": "MSP1", "name": "MSP1", "city": "Shakopee, MN", "state": "MN", "lat": 44.7974, "lng": -93.5271},
            {"code": "MEM2", "name": "MEM2", "city": "Byhalia, MS", "state": "MS", "lat": 34.8723, "lng": -89.6909},
            {"code": "STL8", "name": "STL8", "city": "St. Peters, MO", "state": "MO", "lat": 38.7881, "lng": -90.6298},
            {"code": "LAS1", "name": "LAS1", "city": "Henderson, NV", "state": "NV", "lat": 36.0395, "lng": -114.9817},
            {"code": "LAS6", "name": "LAS6", "city": "North Las Vegas, NV", "state": "NV", "lat": 36.1989, "lng": -115.1175},
            {"code": "RNO4", "name": "RNO4", "city": "Reno, NV", "state": "NV", "lat": 39.5296, "lng": -119.8138},
            {"code": "EWR4", "name": "EWR4", "city": "Robbinsville, NJ", "state": "NJ", "lat": 40.2198, "lng": -74.5879},
            {"code": "EWR9", "name": "EWR9", "city": "Carteret, NJ", "state": "NJ", "lat": 40.5773, "lng": -74.2285},
            {"code": "ACY1", "name": "ACY1", "city": "West Deptford, NJ", "state": "NJ", "lat": 39.8500, "lng": -75.1500},
            {"code": "TEB6", "name": "TEB6", "city": "Cranbury, NJ", "state": "NJ", "lat": 40.3157, "lng": -74.5135},
            {"code": "JFK8", "name": "JFK8", "city": "Staten Island, NY", "state": "NY", "lat": 40.5795, "lng": -74.1502},
            {"code": "SYR1", "name": "SYR1", "city": "East Syracuse, NY", "state": "NY", "lat": 43.0718, "lng": -76.0734},
            {"code": "CLT2", "name": "CLT2", "city": "Charlotte, NC", "state": "NC", "lat": 35.2271, "lng": -80.8431},
            {"code": "CLT4", "name": "CLT4", "city": "Charlotte, NC", "state": "NC", "lat": 35.2271, "lng": -80.8431},
            {"code": "RDU1", "name": "RDU1", "city": "Garner, NC", "state": "NC", "lat": 35.7113, "lng": -78.6147},
            {"code": "CMH1", "name": "CMH1", "city": "Etna, OH", "state": "OH", "lat": 39.9612, "lng": -82.6815},
            {"code": "CMH2", "name": "CMH2", "city": "Groveport, OH", "state": "OH", "lat": 39.8781, "lng": -82.8838},
            {"code": "CMH3", "name": "CMH3", "city": "Monroe, OH", "state": "OH", "lat": 39.4401, "lng": -84.3621},
            {"code": "CLE3", "name": "CLE3", "city": "Euclid, OH", "state": "OH", "lat": 41.5931, "lng": -81.5268},
            {"code": "OKC1", "name": "OKC1", "city": "Oklahoma City, OK", "state": "OK", "lat": 35.4676, "lng": -97.5164},
            {"code": "PDX9", "name": "PDX9", "city": "Troutdale, OR", "state": "OR", "lat": 45.5396, "lng": -122.3871},
            {"code": "PDX7", "name": "PDX7", "city": "Salem, OR", "state": "OR", "lat": 44.9429, "lng": -123.0351},
            {"code": "ABE2", "name": "ABE2", "city": "Breinigsville, PA", "state": "PA", "lat": 40.5385, "lng": -75.6329},
            {"code": "ABE4", "name": "ABE4", "city": "Easton, PA", "state": "PA", "lat": 40.6884, "lng": -75.2207},
            {"code": "AVP1", "name": "AVP1", "city": "Hazleton, PA", "state": "PA", "lat": 40.9587, "lng": -75.9746},
            {"code": "MDT1", "name": "MDT1", "city": "Carlisle, PA", "state": "PA", "lat": 40.2015, "lng": -77.1889},
            {"code": "PHL6", "name": "PHL6", "city": "Carlisle, PA", "state": "PA", "lat": 40.2015, "lng": -77.1889},
            {"code": "PIT1", "name": "PIT1", "city": "Pittsburgh, PA", "state": "PA", "lat": 40.4406, "lng": -79.9959},
            {"code": "CAE1", "name": "CAE1", "city": "West Columbia, SC", "state": "SC", "lat": 33.9935, "lng": -81.0737},
            {"code": "GSP1", "name": "GSP1", "city": "Spartanburg, SC", "state": "SC", "lat": 34.9496, "lng": -81.9320},
            {"code": "CHS1", "name": "CHS1", "city": "Charleston, SC", "state": "SC", "lat": 32.7765, "lng": -79.9311},
            {"code": "BNA2", "name": "BNA2", "city": "Lebanon, TN", "state": "TN", "lat": 36.2081, "lng": -86.2911},
            {"code": "BNA3", "name": "BNA3", "city": "Murfreesboro, TN", "state": "TN", "lat": 35.8456, "lng": -86.3903},
            {"code": "CHA1", "name": "CHA1", "city": "Chattanooga, TN", "state": "TN", "lat": 35.0456, "lng": -85.3097},
            {"code": "MEM1", "name": "MEM1", "city": "Memphis, TN", "state": "TN", "lat": 35.1495, "lng": -90.0490},
            {"code": "DFW7", "name": "DFW7", "city": "Fort Worth, TX", "state": "TX", "lat": 32.8998, "lng": -97.0403},
            {"code": "FTW1", "name": "FTW1", "city": "Dallas, TX", "state": "TX", "lat": 32.7767, "lng": -96.7970},
            {"code": "FTW6", "name": "FTW6", "city": "Coppell, TX", "state": "TX", "lat": 32.9546, "lng": -97.0150},
            {"code": "HOU2", "name": "HOU2", "city": "Houston, TX", "state": "TX", "lat": 29.7604, "lng": -95.3698},
            {"code": "HOU3", "name": "HOU3", "city": "Brookshire, TX", "state": "TX", "lat": 29.7858, "lng": -95.9502},
            {"code": "SAT1", "name": "SAT1", "city": "Schertz, TX", "state": "TX", "lat": 29.5519, "lng": -98.2697},
            {"code": "SLC1", "name": "SLC1", "city": "Salt Lake City, UT", "state": "UT", "lat": 40.7608, "lng": -111.8910},
            {"code": "RIC1", "name": "RIC1", "city": "Petersburg, VA", "state": "VA", "lat": 37.2279, "lng": -77.4019},
            {"code": "RIC2", "name": "RIC2", "city": "Chester, VA", "state": "VA", "lat": 37.3571, "lng": -77.4344},
            {"code": "ORF1", "name": "ORF1", "city": "Chesapeake, VA", "state": "VA", "lat": 36.7682, "lng": -76.2875},
            {"code": "BFI4", "name": "BFI4", "city": "Kent, WA", "state": "WA", "lat": 47.3809, "lng": -122.2348},
            {"code": "SEA8", "name": "SEA8", "city": "Bellevue, WA", "state": "WA", "lat": 47.6101, "lng": -122.2015},
            {"code": "GEG1", "name": "GEG1", "city": "Spokane, WA", "state": "WA", "lat": 47.6588, "lng": -117.4260},
            {"code": "MKE1", "name": "MKE1", "city": "Kenosha, WI", "state": "WI", "lat": 42.5847, "lng": -87.8212},
            {"code": "MKE2", "name": "MKE2", "city": "Oak Creek, WI", "state": "WI", "lat": 42.8859, "lng": -87.8984},
            {"code": "LIT1", "name": "LIT1", "city": "North Little Rock, AR", "state": "AR", "lat": 34.7695, "lng": -92.2671},
            {"code": "BOI2", "name": "BOI2", "city": "Boise, ID", "state": "ID", "lat": 43.6150, "lng": -116.2023},
            {"code": "DSM2", "name": "DSM2", "city": "Grimes, IA", "state": "IA", "lat": 41.6883, "lng": -93.7913}
          ]
        },
        "DE": {
          "name": "Âæ∑ÂõΩ",
          "nameEn": "Germany",
          "totalWarehouses": 23,
          "warehouses": [
            {"code": "FRA1", "name": "FRA1", "city": "Bad Hersfeld", "lat": 50.8689, "lng": 9.7076},
            {"code": "FRA3", "name": "FRA3", "city": "Bad Hersfeld", "lat": 50.8710, "lng": 9.7100},
            {"code": "DUS2", "name": "DUS2", "city": "Rheinberg", "lat": 51.5472, "lng": 6.5855},
            {"code": "LEJ1", "name": "LEJ1", "city": "Leipzig", "lat": 51.3397, "lng": 12.3731},
            {"code": "MUC3", "name": "MUC3", "city": "M√ºnchen", "lat": 48.1351, "lng": 11.5820},
            {"code": "STR1", "name": "STR1", "city": "Stuttgart", "lat": 48.7758, "lng": 9.1829},
            {"code": "HAM2", "name": "HAM2", "city": "Hamburg", "lat": 53.5511, "lng": 9.9937},
            {"code": "BER3", "name": "BER3", "city": "Berlin", "lat": 52.5200, "lng": 13.4050}
          ]
        },
        "GB": {
          "name": "Ëã±ÂõΩ",
          "nameEn": "United Kingdom",
          "totalWarehouses": 18,
          "warehouses": [
            {"code": "LTN1", "name": "LTN1", "city": "Dunstable", "lat": 51.8860, "lng": -0.5209},
            {"code": "LTN4", "name": "LTN4", "city": "Dunstable", "lat": 51.8870, "lng": -0.5220},
            {"code": "BHX4", "name": "BHX4", "city": "Rugby", "lat": 52.3702, "lng": -1.2615},
            {"code": "MAN1", "name": "MAN1", "city": "Manchester", "lat": 53.4808, "lng": -2.2426},
            {"code": "EDI4", "name": "EDI4", "city": "Dunfermline", "lat": 56.0719, "lng": -3.4393},
            {"code": "BRS1", "name": "BRS1", "city": "Bristol", "lat": 51.4545, "lng": -2.5879}
          ]
        },
        "JP": {
          "name": "Êó•Êú¨",
          "nameEn": "Japan",
          "totalWarehouses": 15,
          "warehouses": [
            {"code": "NRT1", "name": "NRT1", "city": "Â∏ÇÂ∑ùÂ∏Ç, ÂçÉËëâÁúå", "lat": 35.7282, "lng": 139.9245},
            {"code": "NRT2", "name": "NRT2", "city": "ÂÖ´ÂçÉ‰ª£Â∏Ç, ÂçÉËëâÁúå", "lat": 35.7225, "lng": 140.0997},
            {"code": "NRT5", "name": "NRT5", "city": "Â∑ùË∂äÂ∏Ç, ÂüºÁéâÁúå", "lat": 35.9251, "lng": 139.4858},
            {"code": "HND3", "name": "HND3", "city": "Â∑ùÂ¥éÂ∏Ç, Á•ûÂ•àÂ∑ùÁúå", "lat": 35.5305, "lng": 139.7030},
            {"code": "HND6", "name": "HND6", "city": "Â∑ùÂ¥éÂ∏Ç, Á•ûÂ•àÂ∑ùÁúå", "lat": 35.5688, "lng": 139.6998},
            {"code": "FSZ1", "name": "FSZ1", "city": "Â∞èÁî∞ÂéüÂ∏Ç, Á•ûÂ•àÂ∑ùÁúå", "lat": 35.2646, "lng": 139.1531},
            {"code": "KIX1", "name": "KIX1", "city": "Â†∫Â∏Ç, Â§ßÈò™Â∫ú", "lat": 34.5260, "lng": 135.4937},
            {"code": "KIX2", "name": "KIX2", "city": "Â§ßÊù±Â∏Ç, Â§ßÈò™Â∫ú", "lat": 34.7164, "lng": 135.6257},
            {"code": "KIX3", "name": "KIX3", "city": "Ëå®Êú®Â∏Ç, Â§ßÈò™Â∫ú", "lat": 34.8165, "lng": 135.5684},
            {"code": "KIX4", "name": "KIX4", "city": "Ëó§‰∫ïÂØ∫Â∏Ç, Â§ßÈò™Â∫ú", "lat": 34.5751, "lng": 135.6003},
            {"code": "HSG1", "name": "HSG1", "city": "È≥•Ê†ñÂ∏Ç, ‰ΩêË≥ÄÁúå", "lat": 33.3765, "lng": 130.5059},
            {"code": "NGO2", "name": "NGO2", "city": "Â§öÊ≤ªË¶ãÂ∏Ç, Â≤êÈòúÁúå", "lat": 35.3343, "lng": 137.1318},
            {"code": "TYO6", "name": "TYO6", "city": "ÂùÇÊà∏Â∏Ç, ÂüºÁéâÁúå", "lat": 35.9570, "lng": 139.4029}
          ]
        },
        "CA": {
          "name": "Âä†ÊãøÂ§ß",
          "nameEn": "Canada",
          "totalWarehouses": 12,
          "warehouses": [
            {"code": "YYZ1", "name": "YYZ1", "city": "Mississauga, ON", "lat": 43.5890, "lng": -79.6441},
            {"code": "YYZ2", "name": "YYZ2", "city": "Milton, ON", "lat": 43.5183, "lng": -79.8774},
            {"code": "YYZ3", "name": "YYZ3", "city": "Brampton, ON", "lat": 43.7315, "lng": -79.7624},
            {"code": "YYZ4", "name": "YYZ4", "city": "Brampton, ON", "lat": 43.7320, "lng": -79.7630},
            {"code": "YYZ7", "name": "YYZ7", "city": "Bolton, ON", "lat": 43.8761, "lng": -79.7316},
            {"code": "YYZ9", "name": "YYZ9", "city": "Scarborough, ON", "lat": 43.7731, "lng": -79.2578},
            {"code": "YVR3", "name": "YVR3", "city": "New Westminster, BC", "lat": 49.2057, "lng": -122.9110},
            {"code": "YVR4", "name": "YVR4", "city": "Delta, BC", "lat": 49.0847, "lng": -123.0068},
            {"code": "YYC1", "name": "YYC1", "city": "Calgary, AB", "lat": 51.0447, "lng": -114.0719},
            {"code": "YEG1", "name": "YEG1", "city": "Nisku, AB", "lat": 53.3063, "lng": -113.5277},
            {"code": "YUL1", "name": "YUL1", "city": "Lachine, QC", "lat": 45.4383, "lng": -73.6731},
            {"code": "YOW1", "name": "YOW1", "city": "Ottawa, ON", "lat": 45.4215, "lng": -75.6972}
          ]
        },
        "AU": {
          "name": "Êæ≥Â§ßÂà©‰∫ö",
          "nameEn": "Australia",
          "totalWarehouses": 7,
          "warehouses": [
            {"code": "BWU1", "name": "BWU1", "city": "Moorebank, NSW", "lat": -33.9352, "lng": 150.9415},
            {"code": "BWU2", "name": "BWU2", "city": "Kemps Creek, NSW", "lat": -33.8839, "lng": 150.7836},
            {"code": "MEL1", "name": "MEL1", "city": "Dandenong South, VIC", "lat": -38.0285, "lng": 145.2176},
            {"code": "MEL5", "name": "MEL5", "city": "Ravenhall, VIC", "lat": -37.7656, "lng": 144.7531},
            {"code": "MEL8", "name": "MEL8", "city": "Craigieburn, VIC", "lat": -37.6004, "lng": 144.9389},
            {"code": "BNE1", "name": "BNE1", "city": "Lytton, QLD", "lat": -27.4214, "lng": 153.1289},
            {"code": "PER2", "name": "PER2", "city": "Perth Airport, WA", "lat": -31.9403, "lng": 115.9670}
          ]
        },
        "IN": {
          "name": "Âç∞Â∫¶",
          "nameEn": "India",
          "totalWarehouses": 17,
          "warehouses": [
            {"code": "DEL2", "name": "DEL2", "city": "Gurgaon, Haryana", "lat": 28.4595, "lng": 77.0266},
            {"code": "DEL4", "name": "DEL4", "city": "Gurgaon, Haryana", "lat": 28.4600, "lng": 77.0270},
            {"code": "DEL5", "name": "DEL5", "city": "Manesar, Haryana", "lat": 28.3568, "lng": 76.9330},
            {"code": "BOM4", "name": "BOM4", "city": "Mumbai, Maharashtra", "lat": 19.0760, "lng": 72.8777},
            {"code": "BOM5", "name": "BOM5", "city": "Bhiwandi, Maharashtra", "lat": 19.2965, "lng": 73.0553},
            {"code": "BOM7", "name": "BOM7", "city": "Bhiwandi, Maharashtra", "lat": 19.2970, "lng": 73.0560},
            {"code": "BLR4", "name": "BLR4", "city": "Devanahalli, Karnataka", "lat": 13.2476, "lng": 77.7067},
            {"code": "BLR5", "name": "BLR5", "city": "Hoskote, Karnataka", "lat": 13.0707, "lng": 77.7986},
            {"code": "BLR7", "name": "BLR7", "city": "Anekal, Karnataka", "lat": 12.7105, "lng": 77.6961},
            {"code": "MAA4", "name": "MAA4", "city": "Chennai, Tamil Nadu", "lat": 13.0827, "lng": 80.2707},
            {"code": "HYD3", "name": "HYD3", "city": "Hyderabad, Telangana", "lat": 17.3850, "lng": 78.4867},
            {"code": "HYD8", "name": "HYD8", "city": "Hyderabad, Telangana", "lat": 17.3855, "lng": 78.4872},
            {"code": "CCX1", "name": "CCX1", "city": "Howrah, West Bengal", "lat": 22.5958, "lng": 88.2636},
            {"code": "CCX2", "name": "CCX2", "city": "Kolkata, West Bengal", "lat": 22.5726, "lng": 88.3639},
            {"code": "AMD2", "name": "AMD2", "city": "Ahmedabad, Gujarat", "lat": 23.0225, "lng": 72.5714},
            {"code": "PNQ3", "name": "PNQ3", "city": "Pune, Maharashtra", "lat": 18.5204, "lng": 73.8567},
            {"code": "COX1", "name": "COX1", "city": "Ernakulam, Kerala", "lat": 9.9312, "lng": 76.2673}
          ]
        },
        "AE": {
          "name": "ÈòøËÅîÈÖã",
          "nameEn": "United Arab Emirates",
          "totalWarehouses": 5,
          "warehouses": [
            {"code": "DXB2", "name": "DXB2", "city": "Dubai, Jebel Ali", "lat": 24.9857, "lng": 55.0272},
            {"code": "DXB3", "name": "DXB3", "city": "Dubai Logistics City", "lat": 24.8969, "lng": 55.1626},
            {"code": "DXB4", "name": "DXB4", "city": "Dubai Investment Park", "lat": 24.9712, "lng": 55.1478},
            {"code": "DXB6", "name": "DXB6", "city": "Dubai, Jebel Ali", "lat": 24.9860, "lng": 55.0280},
            {"code": "AUH1", "name": "AUH1", "city": "Abu Dhabi, ICAD", "lat": 24.3636, "lng": 54.5006}
          ]
        },
        "SA": {
          "name": "Ê≤ôÁâπÈòøÊãâ‰ºØ",
          "nameEn": "Saudi Arabia",
          "totalWarehouses": 7,
          "warehouses": [
            {"code": "RUH3", "name": "RUH3", "city": "Riyadh", "lat": 24.7136, "lng": 46.6753},
            {"code": "RUH6", "name": "RUH6", "city": "Riyadh", "lat": 24.7140, "lng": 46.6760},
            {"code": "RUH7", "name": "RUH7", "city": "Riyadh", "lat": 24.7145, "lng": 46.6765},
            {"code": "JED3", "name": "JED3", "city": "Jeddah", "lat": 21.4858, "lng": 39.1925},
            {"code": "JED4", "name": "JED4", "city": "Jeddah", "lat": 21.4860, "lng": 39.1930},
            {"code": "JED6", "name": "JED6", "city": "Jeddah", "lat": 21.4865, "lng": 39.1935},
            {"code": "DME6", "name": "DME6", "city": "Madinah", "lat": 24.5247, "lng": 39.5692}
          ]
        },
        "MX": {
          "name": "Â¢®Ë•øÂì•",
          "nameEn": "Mexico",
          "totalWarehouses": 5,
          "warehouses": [
            {"code": "MEX1", "name": "MEX1", "city": "Cuautitl√°n Izcalli, Estado de M√©xico", "lat": 19.6565, "lng": -99.2104},
            {"code": "MEX2", "name": "MEX2", "city": "Ixtapaluca, Estado de M√©xico", "lat": 19.3169, "lng": -98.8831},
            {"code": "GDL1", "name": "GDL1", "city": "Zapopan, Jalisco", "lat": 20.7214, "lng": -103.3857},
            {"code": "MTY1", "name": "MTY1", "city": "Apodaca, Nuevo Le√≥n", "lat": 25.7812, "lng": -100.1885},
            {"code": "PUE1", "name": "PUE1", "city": "Puebla", "lat": 19.0414, "lng": -98.2063}
          ]
        },
        "SG": {
          "name": "Êñ∞Âä†Âù°",
          "nameEn": "Singapore",
          "totalWarehouses": 1,
          "warehouses": [
            {"code": "SIN8", "name": "SIN8", "city": "Singapore", "lat": 1.3521, "lng": 103.8198}
          ]
        },
        "TR": {
          "name": "ÂúüËÄ≥ÂÖ∂",
          "nameEn": "Turkey",
          "totalWarehouses": 1,
          "warehouses": [
            {"code": "IST1", "name": "IST1", "city": "Istanbul", "lat": 41.0082, "lng": 28.9784}
          ]
        },
        "EG": {
          "name": "ÂüÉÂèä",
          "nameEn": "Egypt",
          "totalWarehouses": 2,
          "warehouses": [
            {"code": "CAI6", "name": "CAI6", "city": "Cairo", "lat": 30.0444, "lng": 31.2357},
            {"code": "SPX5", "name": "SPX5", "city": "El Shorouk, East Cairo", "lat": 30.1357, "lng": 31.6217}
          ]
        },
        "ZA": {
          "name": "ÂçóÈùû",
          "nameEn": "South Africa",
          "totalWarehouses": 1,
          "warehouses": [
            {"code": "ZAF1", "name": "ZAF1", "city": "Johannesburg", "lat": -26.2041, "lng": 28.0473}
          ]
        }
      }
    },
    "walmart": {
      "name": "Ê≤ÉÂ∞îÁéõ WFS",
      "nameEn": "Walmart Fulfillment Services",
      "icon": "üè¨",
      "totalWarehouses": 34,
      "countries": {
        "US": {
          "name": "ÁæéÂõΩ",
          "nameEn": "United States",
          "totalWarehouses": 34,
          "warehouses": [
            {"code": "WFS-CAL1", "name": "Chino, CA", "city": "Chino, CA", "state": "CA", "lat": 33.9898, "lng": -117.6874},
            {"code": "WFS-CAL2", "name": "Perris, CA", "city": "Perris, CA", "state": "CA", "lat": 33.7825, "lng": -117.2286},
            {"code": "WFS-TEX1", "name": "Fort Worth, TX", "city": "Fort Worth, TX", "state": "TX", "lat": 32.7555, "lng": -97.3308},
            {"code": "WFS-TEX2", "name": "Dallas, TX", "city": "Dallas, TX", "state": "TX", "lat": 32.7767, "lng": -96.7970},
            {"code": "WFS-FLO1", "name": "Davenport, FL", "city": "Davenport, FL", "state": "FL", "lat": 28.1614, "lng": -81.6017},
            {"code": "WFS-GEO1", "name": "Atlanta, GA", "city": "Atlanta, GA", "state": "GA", "lat": 33.7490, "lng": -84.3880},
            {"code": "WFS-PEN1", "name": "Bethlehem, PA", "city": "Bethlehem, PA", "state": "PA", "lat": 40.6259, "lng": -75.3704},
            {"code": "WFS-NJE1", "name": "Pedricktown, NJ", "city": "Pedricktown, NJ", "state": "NJ", "lat": 39.7576, "lng": -75.4093},
            {"code": "WFS-ILL1", "name": "Elwood, IL", "city": "Elwood, IL", "state": "IL", "lat": 41.4039, "lng": -88.1115},
            {"code": "WFS-IND1", "name": "Indianapolis, IN", "city": "Indianapolis, IN", "state": "IN", "lat": 39.7684, "lng": -86.1581},
            {"code": "WFS-ARK1", "name": "Bentonville, AR", "city": "Bentonville, AR", "state": "AR", "lat": 36.3728, "lng": -94.2088}
          ]
        }
      }
    },
    "freight": {
      "name": "Ë¥ß‰ª£ÂÖ¨Âè∏",
      "nameEn": "Freight Forwarders",
      "icon": "üöö",
      "totalWarehouses": 78,
      "countries": {
        "US": {
          "name": "ÁæéÂõΩ",
          "nameEn": "United States",
          "totalWarehouses": 45,
          "warehouses": [
            {"code": "SF-LAX", "name": "È°∫‰∏∞Ê¥õÊùâÁü∂‰ªì", "city": "Los Angeles, CA", "company": "È°∫‰∏∞", "lat": 34.0522, "lng": -118.2437},
            {"code": "SF-NYC", "name": "È°∫‰∏∞Á∫ΩÁ∫¶‰ªì", "city": "New York, NY", "company": "È°∫‰∏∞", "lat": 40.7128, "lng": -74.0060},
            {"code": "YTO-LA", "name": "ÂúÜÈÄöÊ¥õÊùâÁü∂‰ªì", "city": "Los Angeles, CA", "company": "ÂúÜÈÄö", "lat": 34.0520, "lng": -118.2430},
            {"code": "ZTO-LA", "name": "‰∏≠ÈÄöÊ¥õÊùâÁü∂‰ªì", "city": "Los Angeles, CA", "company": "‰∏≠ÈÄö", "lat": 34.0525, "lng": -118.2440},
            {"code": "STO-LA", "name": "Áî≥ÈÄöÊ¥õÊùâÁü∂‰ªì", "city": "Los Angeles, CA", "company": "Áî≥ÈÄö", "lat": 34.0518, "lng": -118.2420},
            {"code": "YD-LA", "name": "ÈüµËææÊ¥õÊùâÁü∂‰ªì", "city": "Los Angeles, CA", "company": "ÈüµËææ", "lat": 34.0530, "lng": -118.2450},
            {"code": "DBL-LAX", "name": "ÈÄíÂøÖÈöÜÊ¥õÊùâÁü∂‰ªì", "city": "Commerce, CA", "company": "ÈÄíÂøÖÈöÜ", "lat": 34.0005, "lng": -118.1500},
            {"code": "4PX-LAX", "name": "4PXÊ¥õÊùâÁü∂‰ªì", "city": "Ontario, CA", "company": "4PX", "lat": 34.0633, "lng": -117.6509},
            {"code": "YH-LAX", "name": "‰∫ëÊµ∑Ê¥õÊùâÁü∂‰ªì", "city": "Rancho Cucamonga, CA", "company": "‰∫ëÊµ∑", "lat": 34.1064, "lng": -117.5931}
          ]
        },
        "DE": {
          "name": "Âæ∑ÂõΩ",
          "nameEn": "Germany",
          "totalWarehouses": 15,
          "warehouses": [
            {"code": "SF-FRA", "name": "È°∫‰∏∞Ê≥ïÂÖ∞ÂÖãÁ¶è‰ªì", "city": "Frankfurt", "company": "È°∫‰∏∞", "lat": 50.1109, "lng": 8.6821},
            {"code": "YTO-FRA", "name": "ÂúÜÈÄöÊ≥ïÂÖ∞ÂÖãÁ¶è‰ªì", "city": "Frankfurt", "company": "ÂúÜÈÄö", "lat": 50.1110, "lng": 8.6830},
            {"code": "4PX-FRA", "name": "4PXÊ≥ïÂÖ∞ÂÖãÁ¶è‰ªì", "city": "Frankfurt", "company": "4PX", "lat": 50.1105, "lng": 8.6810}
          ]
        },
        "GB": {
          "name": "Ëã±ÂõΩ",
          "nameEn": "United Kingdom",
          "totalWarehouses": 10,
          "warehouses": [
            {"code": "SF-LON", "name": "È°∫‰∏∞‰º¶Êï¶‰ªì", "city": "London", "company": "È°∫‰∏∞", "lat": 51.5074, "lng": -0.1278},
            {"code": "4PX-LON", "name": "4PX‰º¶Êï¶‰ªì", "city": "London", "company": "4PX", "lat": 51.5070, "lng": -0.1280}
          ]
        },
        "JP": {
          "name": "Êó•Êú¨",
          "nameEn": "Japan",
          "totalWarehouses": 8,
          "warehouses": [
            {"code": "SF-TYO", "name": "È°∫‰∏∞‰∏ú‰∫¨‰ªì", "city": "Êù±‰∫¨", "company": "È°∫‰∏∞", "lat": 35.6762, "lng": 139.6503},
            {"code": "YTO-TYO", "name": "ÂúÜÈÄö‰∏ú‰∫¨‰ªì", "city": "Êù±‰∫¨", "company": "ÂúÜÈÄö", "lat": 35.6760, "lng": 139.6510}
          ]
        }
      }
    }
  }
}
